[
  {
    "Name": "行政區民活動中心",
    "disaster_type": "颱洪",
    "region": "中山區",
    "addr": "松江路367號9樓",
    "fac_type": "活動中心",
    "number_asylum": "72",
    "telephone": "25031369#119",
    "latitude": 25.0644075,
    "longitude": 121.5334558,
    "Detail": ""
  },
  {
    "Name": "朱崙區民活動中心",
    "disaster_type": "颱洪",
    "region": "中山區",
    "addr": "龍江路15號3樓",
    "fac_type": "活動中心",
    "number_asylum": "115",
    "telephone": "25031369#119",
    "latitude": 25.047492,
    "longitude": 121.540498,
    "Detail": ""
  },
  {
    "Name": "崇實區民活動中心",
    "disaster_type": "颱洪",
    "region": "中山區",
    "addr": "通北街143號2樓",
    "fac_type": "活動中心",
    "number_asylum": "60",
    "telephone": "25031369#119",
    "latitude": 25.084918,
    "longitude": 121.538043,
    "Detail": ""
  },
  {
    "Name": "大直區民活動中心",
    "disaster_type": "颱洪",
    "region": "中山區",
    "addr": "大直街21巷2號4樓",
    "fac_type": "活動中心",
    "number_asylum": "53",
    "telephone": "25031369#119",
    "latitude": 25.0816649,
    "longitude": 121.546886,
    "Detail": ""
  },
  {
    "Name": "林森區民活動中心",
    "disaster_type": "颱洪",
    "region": "中山區",
    "addr": "林森北路67巷7號2、3樓",
    "fac_type": "活動中心",
    "number_asylum": "51",
    "telephone": "25031369#119",
    "latitude": 25.048643,
    "longitude": 121.524894,
    "Detail": ""
  },
  {
    "Name": "民安區民活動中心",
    "disaster_type": "颱洪",
    "region": "中山區",
    "addr": "長安西路3號3樓之3",
    "fac_type": "活動中心",
    "number_asylum": "64",
    "telephone": "25031369#119",
    "latitude": 25.0502099,
    "longitude": 121.5209542,
    "Detail": ""
  },
  {
    "Name": "長安區民活動中心",
    "disaster_type": "颱洪",
    "region": "中山區",
    "addr": "長安西路40巷9號1、2樓",
    "fac_type": "活動中心",
    "number_asylum": "54",
    "telephone": "25031369#119",
    "latitude": 25.049385,
    "longitude": 121.520349,
    "Detail": ""
  },
  {
    "Name": "長春區民活動中心",
    "disaster_type": "颱洪",
    "region": "中山區",
    "addr": "長春路299號3樓",
    "fac_type": "活動中心",
    "number_asylum": "33",
    "telephone": "25031369#119",
    "latitude": 25.0547293,
    "longitude": 121.5423362,
    "Detail": ""
  },
  {
    "Name": "松江區民活動中心",
    "disaster_type": "颱洪",
    "region": "中山區",
    "addr": "錦州街222號2樓",
    "fac_type": "活動中心",
    "number_asylum": "53",
    "telephone": "25031369#119",
    "latitude": 25.0601175,
    "longitude": 121.5321816,
    "Detail": ""
  },
  {
    "Name": "松花區民活動中心",
    "disaster_type": "颱洪",
    "region": "中山區",
    "addr": "合江街137號4樓",
    "fac_type": "活動中心",
    "number_asylum": "154",
    "telephone": "25031369#119",
    "latitude": 25.061645,
    "longitude": 121.539362,
    "Detail": ""
  },
  {
    "Name": "新庄區民活動中心",
    "disaster_type": "颱洪",
    "region": "中山區",
    "addr": "新生北路3段特50之1號",
    "fac_type": "活動中心",
    "number_asylum": "86",
    "telephone": "25031369#119",
    "latitude": 25.064993,
    "longitude": 121.527289,
    "Detail": ""
  },
  {
    "Name": "興亞區民活動中心",
    "disaster_type": "颱洪",
    "region": "中山區",
    "addr": "松江路26巷18號",
    "fac_type": "活動中心",
    "number_asylum": "71",
    "telephone": "25031369#119",
    "latitude": 25.0469609,
    "longitude": 121.532006,
    "Detail": ""
  },
  {
    "Name": "下埤區民活動中心",
    "disaster_type": "颱洪",
    "region": "中山區",
    "addr": "龍江路429巷10號3樓",
    "fac_type": "活動中心",
    "number_asylum": "42",
    "telephone": "25031369#119",
    "latitude": 25.047635,
    "longitude": 121.540291,
    "Detail": ""
  },
  {
    "Name": "北安區民活動中心",
    "disaster_type": "颱洪",
    "region": "中山區",
    "addr": "北安路759巷6號",
    "fac_type": "活動中心",
    "number_asylum": "26",
    "telephone": "25031369#119",
    "latitude": 25.079549,
    "longitude": 121.545773,
    "Detail": ""
  },
  {
    "Name": "朱馥區民活動中心",
    "disaster_type": "颱洪",
    "region": "中山區",
    "addr": "龍江路168號地下室",
    "fac_type": "活動中心",
    "number_asylum": "37",
    "telephone": "25031369#119",
    "latitude": 25.0572159,
    "longitude": 121.5406283,
    "Detail": ""
  },
  {
    "Name": "金泰區民活動中心",
    "disaster_type": "颱洪",
    "region": "中山區",
    "addr": "敬業三路160號2樓",
    "fac_type": "活動中心",
    "number_asylum": "65",
    "telephone": "25031369#119",
    "latitude": 25.0795262,
    "longitude": 121.5568655,
    "Detail": ""
  },
  {
    "Name": "中山區民活動中心",
    "disaster_type": "颱洪",
    "region": "中山區",
    "addr": "中山北路2段59巷21號2樓",
    "fac_type": "活動中心",
    "number_asylum": "101",
    "telephone": "25031369#119",
    "latitude": 25.0561172,
    "longitude": 121.5243194,
    "Detail": ""
  },
  {
    "Name": "埤頭區民活動中心",
    "disaster_type": "颱洪",
    "region": "中山區",
    "addr": "市民大道3段209號",
    "fac_type": "活動中心",
    "number_asylum": "46",
    "telephone": "25031369#119",
    "latitude": 25.0457299,
    "longitude": 121.54309,
    "Detail": ""
  },
  {
    "Name": "行孝區民活動中心",
    "disaster_type": "颱洪",
    "region": "中山區",
    "addr": "民族東路282號4樓",
    "fac_type": "活動中心",
    "number_asylum": "106",
    "telephone": "25031369#119",
    "latitude": 25.0681,
    "longitude": 121.535104,
    "Detail": ""
  },
  {
    "Name": "大直二區民活動中心",
    "disaster_type": "颱洪",
    "region": "中山區",
    "addr": "大直街1號4樓",
    "fac_type": "活動中心",
    "number_asylum": "30",
    "telephone": "25031369#119",
    "latitude": 25.080345,
    "longitude": 121.546969,
    "Detail": ""
  },
  {
    "Name": "中原區民活動中心",
    "disaster_type": "颱洪",
    "region": "中山區",
    "addr": "新生北路二段53號2樓",
    "fac_type": "活動中心",
    "number_asylum": "90",
    "telephone": "25031369#119",
    "latitude": 25.061285,
    "longitude": 121.529475,
    "Detail": ""
  },
  {
    "Name": "義信區民活動中心",
    "disaster_type": "颱洪",
    "region": "士林區",
    "addr": "基河路132號B1",
    "fac_type": "活動中心",
    "number_asylum": "300",
    "telephone": "28826200*6013",
    "latitude": 25.0890972,
    "longitude": 121.5228473,
    "Detail": ""
  },
  {
    "Name": "天母區民活動中心",
    "disaster_type": "颱洪",
    "region": "士林區",
    "addr": "中山北路7段154巷6號4樓",
    "fac_type": "活動中心",
    "number_asylum": "300",
    "telephone": "28826200*6013",
    "latitude": 25.123421,
    "longitude": 121.532946,
    "Detail": ""
  },
  {
    "Name": "三玉區民活動中心",
    "disaster_type": "颱洪",
    "region": "士林區",
    "addr": "忠誠路2段53巷7號10樓",
    "fac_type": "活動中心",
    "number_asylum": "200",
    "telephone": "28826200*6013",
    "latitude": 25.1114379,
    "longitude": 121.532297,
    "Detail": ""
  },
  {
    "Name": "承德區民活動中心",
    "disaster_type": "颱洪",
    "region": "士林區",
    "addr": "承德路4段5之1號",
    "fac_type": "活動中心",
    "number_asylum": "100",
    "telephone": "28826200*6013",
    "latitude": 25.079147,
    "longitude": 121.521846,
    "Detail": ""
  },
  {
    "Name": "葫蘆堵區民活動中心",
    "disaster_type": "颱洪",
    "region": "士林區",
    "addr": "延平北路5段136巷1號10樓",
    "fac_type": "活動中心",
    "number_asylum": "100",
    "telephone": "28826200*6013",
    "latitude": 25.082193,
    "longitude": 121.510873,
    "Detail": ""
  },
  {
    "Name": "福中區民活動中心",
    "disaster_type": "颱洪",
    "region": "士林區",
    "addr": "福港街151號10樓",
    "fac_type": "活動中心",
    "number_asylum": "150",
    "telephone": "28826200*6013",
    "latitude": 25.0872804,
    "longitude": 121.5179566,
    "Detail": ""
  },
  {
    "Name": "永新區民活動中心",
    "disaster_type": "颱洪",
    "region": "士林區",
    "addr": "中正路632之1號",
    "fac_type": "活動中心",
    "number_asylum": "100",
    "telephone": "28826200*6013",
    "latitude": 25.086754,
    "longitude": 121.508376,
    "Detail": ""
  },
  {
    "Name": "中洲區民活動中心",
    "disaster_type": "颱洪",
    "region": "士林區",
    "addr": "延平北路9段80號",
    "fac_type": "活動中心",
    "number_asylum": "100",
    "telephone": "28826200*6013",
    "latitude": 25.106337,
    "longitude": 121.474814,
    "Detail": ""
  },
  {
    "Name": "葫東區民活動中心",
    "disaster_type": "颱洪",
    "region": "士林區",
    "addr": "中正路589號",
    "fac_type": "活動中心",
    "number_asylum": "100",
    "telephone": "28826200*6013",
    "latitude": 25.0866228,
    "longitude": 121.5099109,
    "Detail": ""
  },
  {
    "Name": "臨溪區民活動中心",
    "disaster_type": "颱洪",
    "region": "士林區",
    "addr": "至善路2段286號",
    "fac_type": "活動中心",
    "number_asylum": "80",
    "telephone": "28826200*6013",
    "latitude": 25.101036,
    "longitude": 121.551997,
    "Detail": ""
  },
  {
    "Name": "文昌區民活動中心",
    "disaster_type": "颱洪",
    "region": "士林區",
    "addr": "文昌路166之1號",
    "fac_type": "活動中心",
    "number_asylum": "70",
    "telephone": "28826200*6013",
    "latitude": 25.098177,
    "longitude": 121.520488,
    "Detail": ""
  },
  {
    "Name": "芝山岩區民活動中心",
    "disaster_type": "颱洪",
    "region": "士林區",
    "addr": "雨聲街68號 ",
    "fac_type": "活動中心",
    "number_asylum": "100",
    "telephone": "28826200*6013",
    "latitude": 25.104631,
    "longitude": 121.5311375,
    "Detail": ""
  },
  {
    "Name": "德華區民活動中心",
    "disaster_type": "颱洪",
    "region": "士林區",
    "addr": "文昌路211之1號",
    "fac_type": "活動中心",
    "number_asylum": "60",
    "telephone": "28826200*6013",
    "latitude": 25.099945,
    "longitude": 121.520054,
    "Detail": ""
  },
  {
    "Name": "福佳區民活動中心",
    "disaster_type": "颱洪",
    "region": "士林區",
    "addr": "美崙街190號",
    "fac_type": "活動中心",
    "number_asylum": "90",
    "telephone": "28826200*6013",
    "latitude": 25.0971548,
    "longitude": 121.5174731,
    "Detail": ""
  },
  {
    "Name": "劍潭區民活動中心",
    "disaster_type": "颱洪",
    "region": "士林區",
    "addr": "通河街179巷2號3樓",
    "fac_type": "活動中心",
    "number_asylum": "60",
    "telephone": "28826200*6013",
    "latitude": 25.081838,
    "longitude": 121.519574,
    "Detail": ""
  },
  {
    "Name": "富光區民活動中心",
    "disaster_type": "颱洪",
    "region": "士林區",
    "addr": "延平北路5段1巷40號",
    "fac_type": "活動中心",
    "number_asylum": "40",
    "telephone": "28826200*6013",
    "latitude": 25.0790469,
    "longitude": 121.510272,
    "Detail": ""
  },
  {
    "Name": "福林區民活動中心",
    "disaster_type": "颱洪",
    "region": "士林區",
    "addr": "中正路187巷26號",
    "fac_type": "活動中心",
    "number_asylum": "50",
    "telephone": "28826200*6013",
    "latitude": 25.094702,
    "longitude": 121.527387,
    "Detail": ""
  },
  {
    "Name": "陽明區民活動中心",
    "disaster_type": "颱洪",
    "region": "士林區",
    "addr": "菁山路34巷1號",
    "fac_type": "活動中心",
    "number_asylum": "50",
    "telephone": "28826200*6013",
    "latitude": 25.138063,
    "longitude": 121.547307,
    "Detail": ""
  },
  {
    "Name": "舊佳區民活動中心",
    "disaster_type": "颱洪",
    "region": "士林區",
    "addr": "中山北路5段773之1號",
    "fac_type": "活動中心",
    "number_asylum": "50",
    "telephone": "28826200*6013",
    "latitude": 25.0994589,
    "longitude": 121.52666,
    "Detail": ""
  },
  {
    "Name": "福安區民活動中心",
    "disaster_type": "颱洪",
    "region": "士林區",
    "addr": "延平北路7段114號2樓",
    "fac_type": "活動中心",
    "number_asylum": "50",
    "telephone": "28826200*6013",
    "latitude": 25.0973599,
    "longitude": 121.49447,
    "Detail": ""
  },
  {
    "Name": "平等區民活動中心",
    "disaster_type": "颱洪",
    "region": "士林區",
    "addr": "平菁街106巷23號",
    "fac_type": "活動中心",
    "number_asylum": "40",
    "telephone": "28826200*6013",
    "latitude": 25.138042,
    "longitude": 121.571716,
    "Detail": ""
  },
  {
    "Name": "永福區民活動中心",
    "disaster_type": "颱洪",
    "region": "士林區",
    "addr": "仰德大道2段146號",
    "fac_type": "活動中心",
    "number_asylum": "30",
    "telephone": "28826200*6013",
    "latitude": 25.109777,
    "longitude": 121.547819,
    "Detail": ""
  },
  {
    "Name": "仰德區民活動中心",
    "disaster_type": "颱洪",
    "region": "士林區",
    "addr": "德行西路30號",
    "fac_type": "活動中心",
    "number_asylum": "80",
    "telephone": "28826200*6013",
    "latitude": 25.1046581,
    "longitude": 121.5219827,
    "Detail": ""
  },
  {
    "Name": "西湖區民活動中心",
    "disaster_type": "颱洪",
    "region": "內湖區",
    "addr": "內湖路1段285號7樓",
    "fac_type": "活動中心",
    "number_asylum": "200",
    "telephone": "27925828-252",
    "latitude": 25.0824173,
    "longitude": 121.5664945,
    "Detail": ""
  },
  {
    "Name": "港華區民活動中心",
    "disaster_type": "颱洪",
    "region": "內湖區",
    "addr": "環山路2段68巷14號(121.515065,25.08669187)",
    "fac_type": "活動中心",
    "number_asylum": "90",
    "telephone": "27925828-266",
    "latitude": 25.086724,
    "longitude": 121.57507,
    "Detail": ""
  },
  {
    "Name": "陽光區民活動中心",
    "disaster_type": "颱洪",
    "region": "內湖區",
    "addr": "文德路66巷38弄14號",
    "fac_type": "活動中心",
    "number_asylum": "60",
    "telephone": "27925828-255",
    "latitude": 25.0754958,
    "longitude": 121.5812936,
    "Detail": ""
  },
  {
    "Name": "碧山區民活動中心",
    "disaster_type": "颱洪",
    "region": "內湖區",
    "addr": "內湖路3段60巷8號地下室",
    "fac_type": "活動中心",
    "number_asylum": "110",
    "telephone": "27925828-228",
    "latitude": 25.086276,
    "longitude": 121.59248,
    "Detail": ""
  },
  {
    "Name": "行善區民活動中心",
    "disaster_type": "颱洪",
    "region": "內湖區",
    "addr": "行善路25巷13號2樓",
    "fac_type": "活動中心",
    "number_asylum": "120",
    "telephone": "27925828-373",
    "latitude": 25.056124,
    "longitude": 121.576167,
    "Detail": ""
  },
  {
    "Name": "紫星區民活動中心",
    "disaster_type": "颱洪",
    "region": "內湖區",
    "addr": "康寧路1段20號",
    "fac_type": "活動中心",
    "number_asylum": "30",
    "telephone": "27925828-239",
    "latitude": 25.0804572,
    "longitude": 121.5914839,
    "Detail": ""
  },
  {
    "Name": "清白區民活動中心",
    "disaster_type": "颱洪",
    "region": "內湖區",
    "addr": "星雲街161巷3號",
    "fac_type": "活動中心",
    "number_asylum": "140",
    "telephone": "27925828-227",
    "latitude": 25.0811491,
    "longitude": 121.596101,
    "Detail": ""
  },
  {
    "Name": "金龍區民活動中心",
    "disaster_type": "颱洪",
    "region": "內湖區",
    "addr": "金龍路136-1號2樓",
    "fac_type": "活動中心",
    "number_asylum": "30",
    "telephone": "27925828-269",
    "latitude": 25.08575,
    "longitude": 121.590039,
    "Detail": ""
  },
  {
    "Name": "週美區民活動中心",
    "disaster_type": "颱洪",
    "region": "內湖區",
    "addr": "新明路324號4樓",
    "fac_type": "活動中心",
    "number_asylum": "40",
    "telephone": "27925828-236",
    "latitude": 25.0552622,
    "longitude": 121.5816447,
    "Detail": ""
  },
  {
    "Name": "五分區民活動中心",
    "disaster_type": "颱洪",
    "region": "內湖區",
    "addr": "五分街6號5樓",
    "fac_type": "活動中心",
    "number_asylum": "160",
    "telephone": "27925828-226",
    "latitude": 25.0674149,
    "longitude": 121.61261,
    "Detail": ""
  },
  {
    "Name": "安湖區民活動中心",
    "disaster_type": "颱洪",
    "region": "內湖區",
    "addr": "東湖路1號2樓",
    "fac_type": "活動中心",
    "number_asylum": "70",
    "telephone": "27925828-219",
    "latitude": 25.0690079,
    "longitude": 121.612259,
    "Detail": ""
  },
  {
    "Name": "港墘區民活動中心",
    "disaster_type": "颱洪",
    "region": "內湖區",
    "addr": "臺北市內湖區內湖路1段552號",
    "fac_type": "活動中心",
    "number_asylum": "50",
    "telephone": "27925828-261",
    "latitude": 25.0791866,
    "longitude": 121.5772658,
    "Detail": ""
  },
  {
    "Name": "內湖區民活動中心(都更中)",
    "disaster_type": "颱洪",
    "region": "內湖區",
    "addr": "臺北市內湖區內湖路二段342號",
    "fac_type": "活動中心",
    "number_asylum": "50",
    "telephone": "27925828",
    "latitude": 25.0816366,
    "longitude": 121.5895926,
    "Detail": ""
  },
  {
    "Name": "湖興區民活動中心",
    "disaster_type": "颱洪",
    "region": "內湖區",
    "addr": "臺北市內湖區成功路二段320巷19號3樓",
    "fac_type": "活動中心",
    "number_asylum": "80",
    "telephone": "27925828",
    "latitude": 25.067663,
    "longitude": 121.589995,
    "Detail": ""
  },
  {
    "Name": "樂康區民活動中心",
    "disaster_type": "颱洪",
    "region": "內湖區",
    "addr": "臺北市內湖區康樂街150號6樓之1",
    "fac_type": "活動中心",
    "number_asylum": "80",
    "telephone": "27925828",
    "latitude": 25.0724349,
    "longitude": 121.619185,
    "Detail": ""
  },
  {
    "Name": "興業區民活動中心",
    "disaster_type": "颱洪",
    "region": "文山區",
    "addr": "臺北市興隆路2段160號10樓",
    "fac_type": "活動中心",
    "number_asylum": "56",
    "telephone": "29365522#215",
    "latitude": 25.0015855,
    "longitude": 121.5514199,
    "Detail": ""
  },
  {
    "Name": "興隆區民活動中心",
    "disaster_type": "颱洪",
    "region": "文山區",
    "addr": "臺北市興隆路2段97號四樓",
    "fac_type": "活動中心",
    "number_asylum": "20",
    "telephone": "29365522#215",
    "latitude": 24.999671,
    "longitude": 121.547459,
    "Detail": ""
  },
  {
    "Name": "興豐區民活動中心",
    "disaster_type": "颱洪",
    "region": "文山區",
    "addr": "臺北市興隆路2段95巷8號7~9樓",
    "fac_type": "活動中心",
    "number_asylum": "26",
    "telephone": "29365522#215",
    "latitude": 25.0000196,
    "longitude": 121.5468941,
    "Detail": ""
  },
  {
    "Name": "景行區民活動中心",
    "disaster_type": "颱洪",
    "region": "文山區",
    "addr": "臺北市羅斯福路6段393號7樓",
    "fac_type": "活動中心",
    "number_asylum": "36",
    "telephone": "29365522#215",
    "latitude": 24.9921276,
    "longitude": 121.5406037,
    "Detail": ""
  },
  {
    "Name": "景新區民活動中心",
    "disaster_type": "颱洪",
    "region": "文山區",
    "addr": "臺北市景後街151號4樓",
    "fac_type": "活動中心",
    "number_asylum": "38",
    "telephone": "29365522#215",
    "latitude": 24.9901519,
    "longitude": 121.542032,
    "Detail": ""
  },
  {
    "Name": "永建區民活動中心",
    "disaster_type": "颱洪",
    "region": "文山區",
    "addr": "臺北市木柵路1段177號3樓",
    "fac_type": "活動中心",
    "number_asylum": "38",
    "telephone": "29365522#215",
    "latitude": 24.987718,
    "longitude": 121.550996,
    "Detail": ""
  },
  {
    "Name": "實踐區民活動中心",
    "disaster_type": "颱洪",
    "region": "文山區",
    "addr": "臺北市木柵路1段290-1號",
    "fac_type": "活動中心",
    "number_asylum": "20",
    "telephone": "29365522#215",
    "latitude": 24.9880999,
    "longitude": 121.555325,
    "Detail": ""
  },
  {
    "Name": "明義區民活動中心",
    "disaster_type": "颱洪",
    "region": "文山區",
    "addr": "臺北市興隆路4段46巷64號",
    "fac_type": "活動中心",
    "number_asylum": "20",
    "telephone": "29365522#215",
    "latitude": 24.987887,
    "longitude": 121.559276,
    "Detail": ""
  },
  {
    "Name": "木新區民活動中心",
    "disaster_type": "颱洪",
    "region": "文山區",
    "addr": "臺北市木新路3段310巷4號2樓",
    "fac_type": "活動中心",
    "number_asylum": "34",
    "telephone": "29365522#215",
    "latitude": 24.9823857,
    "longitude": 121.5567499,
    "Detail": ""
  },
  {
    "Name": "樟新區民活動中心",
    "disaster_type": "颱洪",
    "region": "文山區",
    "addr": "臺北市一壽街22號9、10樓",
    "fac_type": "活動中心",
    "number_asylum": "87",
    "telephone": "29365522#215",
    "latitude": 24.979578,
    "longitude": 121.556498,
    "Detail": ""
  },
  {
    "Name": "萬興區民活動中心",
    "disaster_type": "颱洪",
    "region": "文山區",
    "addr": "臺北市萬壽路27號7樓",
    "fac_type": "活動中心",
    "number_asylum": "50",
    "telephone": "29365522#215",
    "latitude": 24.988685,
    "longitude": 121.576501,
    "Detail": ""
  },
  {
    "Name": "萬芳區民活動中心",
    "disaster_type": "颱洪",
    "region": "文山區",
    "addr": "臺北市萬美街一段51號3樓",
    "fac_type": "活動中心",
    "number_asylum": "40",
    "telephone": "29365522#215",
    "latitude": 25.002263,
    "longitude": 121.568186,
    "Detail": ""
  },
  {
    "Name": "木柵區民活動中心",
    "disaster_type": "颱洪",
    "region": "文山區",
    "addr": "臺北市保儀路13巷3號4樓(306628.873,2764827.933)",
    "fac_type": "活動中心",
    "number_asylum": "37",
    "telephone": "29365522#215",
    "latitude": 24.988513,
    "longitude": 121.56916,
    "Detail": ""
  },
  {
    "Name": "忠順區民活動中心",
    "disaster_type": "颱洪",
    "region": "文山區",
    "addr": "臺北市忠順街2段22號2樓",
    "fac_type": "活動中心",
    "number_asylum": "19",
    "telephone": "29365522#215",
    "latitude": 24.9846579,
    "longitude": 121.563096,
    "Detail": ""
  },
  {
    "Name": "樟腳區民活動中心",
    "disaster_type": "颱洪",
    "region": "文山區",
    "addr": "臺北市恆光街45號7、8樓",
    "fac_type": "活動中心",
    "number_asylum": "10",
    "telephone": "29365522#215",
    "latitude": 24.9824199,
    "longitude": 121.567309,
    "Detail": ""
  },
  {
    "Name": "行政中心大禮堂",
    "disaster_type": "颱洪",
    "region": "文山區",
    "addr": "臺北市木柵路3段220號10樓",
    "fac_type": "活動中心",
    "number_asylum": "60",
    "telephone": "29365522#323",
    "latitude": 24.98964,
    "longitude": 121.5700826,
    "Detail": ""
  },
  {
    "Name": "文山區公民會館",
    "disaster_type": "颱洪",
    "region": "文山區",
    "addr": "臺北市木柵路3段189號",
    "fac_type": "活動中心",
    "number_asylum": "13",
    "telephone": "29365522#356",
    "latitude": 24.99,
    "longitude": 121.5697371,
    "Detail": ""
  },
  {
    "Name": "北投區區民活動中心",
    "disaster_type": "颱洪",
    "region": "北投區",
    "addr": "臺北市新市街30號6樓",
    "fac_type": "活動中心",
    "number_asylum": "90",
    "telephone": "2891-2105#221",
    "latitude": 25.1324256,
    "longitude": 121.5030005,
    "Detail": ""
  },
  {
    "Name": "柳鄉區民活動中心",
    "disaster_type": "颱洪",
    "region": "萬華區",
    "addr": "環河南路2段102號3樓",
    "fac_type": "活動中心",
    "number_asylum": "20",
    "telephone": "",
    "latitude": 25.0368895,
    "longitude": 121.4954552,
    "Detail": ""
  },
  {
    "Name": "萬大區民活動中心",
    "disaster_type": "颱洪",
    "region": "萬華區",
    "addr": "萬大路臨614之1號",
    "fac_type": "活動中心",
    "number_asylum": "15",
    "telephone": "",
    "latitude": 25.017284,
    "longitude": 121.495764,
    "Detail": ""
  },
  {
    "Name": "頂碩區民活動中心",
    "disaster_type": "颱洪",
    "region": "萬華區",
    "addr": "興寧街2號3樓",
    "fac_type": "活動中心",
    "number_asylum": "20",
    "telephone": "",
    "latitude": 25.03228,
    "longitude": 121.5022179,
    "Detail": ""
  },
  {
    "Name": "福星區民活動中心",
    "disaster_type": "颱洪",
    "region": "萬華區",
    "addr": "西寧南路14之3號",
    "fac_type": "活動中心",
    "number_asylum": "20",
    "telephone": "",
    "latitude": 25.0467659,
    "longitude": 121.506958,
    "Detail": ""
  },
  {
    "Name": "新富區民活動中心",
    "disaster_type": "颱洪",
    "region": "萬華區",
    "addr": "廣州街152巷10號",
    "fac_type": "活動中心",
    "number_asylum": "15",
    "telephone": "",
    "latitude": 25.0359517,
    "longitude": 121.4968189,
    "Detail": ""
  },
  {
    "Name": "長順區民活動中心",
    "disaster_type": "颱洪",
    "region": "萬華區",
    "addr": "長順街臨127號",
    "fac_type": "活動中心",
    "number_asylum": "20",
    "telephone": "",
    "latitude": 25.032359,
    "longitude": 121.488904,
    "Detail": ""
  },
  {
    "Name": "萬華區民活動中心",
    "disaster_type": "颱洪",
    "region": "萬華區",
    "addr": "東園街19號2樓",
    "fac_type": "活動中心",
    "number_asylum": "20",
    "telephone": "",
    "latitude": 25.027922,
    "longitude": 121.495703,
    "Detail": ""
  },
  {
    "Name": "昆明區民活動中心",
    "disaster_type": "颱洪",
    "region": "萬華區",
    "addr": "昆明街284號3樓",
    "fac_type": "活動中心",
    "number_asylum": "15",
    "telephone": "",
    "latitude": 25.0386001,
    "longitude": 121.5038723,
    "Detail": ""
  },
  {
    "Name": "青山區民活動中心",
    "disaster_type": "颱洪",
    "region": "萬華區",
    "addr": "環河南路二段臨5之1號",
    "fac_type": "活動中心",
    "number_asylum": "20",
    "telephone": "",
    "latitude": 25.039720,
    "longitude": 121.497915,
    "Detail": ""
  },
  {
    "Name": "菜園區民活動中心",
    "disaster_type": "颱洪",
    "region": "萬華區",
    "addr": "環河南路一段臨280之3號",
    "fac_type": "活動中心",
    "number_asylum": "20",
    "telephone": "",
    "latitude": 25.045777,
    "longitude": 121.502619,
    "Detail": ""
  },
  {
    "Name": "萬青區民活動中心",
    "disaster_type": "颱洪",
    "region": "萬華區",
    "addr": "萬大路411號2樓",
    "fac_type": "活動中心",
    "number_asylum": "50",
    "telephone": "",
    "latitude": 25.021822,
    "longitude": 121.49906,
    "Detail": ""
  },
  {
    "Name": "興義區民活動中心",
    "disaster_type": "颱洪",
    "region": "萬華區",
    "addr": "興義街23號一樓",
    "fac_type": "活動中心",
    "number_asylum": "20",
    "telephone": "",
    "latitude": 25.0269039,
    "longitude": 121.492258,
    "Detail": ""
  },
  {
    "Name": "雙園區民活動中心",
    "disaster_type": "颱洪",
    "region": "萬華區",
    "addr": "西園路二段9號1樓",
    "fac_type": "活動中心",
    "number_asylum": "10",
    "telephone": "",
    "latitude": 25.032339,
    "longitude": 121.498206,
    "Detail": ""
  },
  {
    "Name": "保生區民活動中心",
    "disaster_type": "颱洪",
    "region": "大同區",
    "addr": "重慶北路三段313巷25號",
    "fac_type": "活動中心",
    "number_asylum": "26",
    "telephone": "25975323轉607",
    "latitude": 25.0741229,
    "longitude": 121.514877,
    "Detail": ""
  },
  {
    "Name": "大龍區民活動中心",
    "disaster_type": "颱洪",
    "region": "",
    "addr": "重慶北路三段347號地下1樓(大同活動中心)",
    "fac_type": "",
    "number_asylum": "0",
    "telephone": "25975323轉607",
    "latitude": 25.074936,
    "longitude": 121.51416,
    "Detail": ""
  },
  {
    "Name": "老師區民活動中心",
    "disaster_type": "颱洪",
    "region": "大同區",
    "addr": "敦煌路160之2號",
    "fac_type": "活動中心",
    "number_asylum": "23",
    "telephone": "25975323轉607",
    "latitude": 25.0763299,
    "longitude": 121.513676,
    "Detail": ""
  },
  {
    "Name": "延平區民活動中心",
    "disaster_type": "颱洪",
    "region": "大同區",
    "addr": "保安街47之1號3樓",
    "fac_type": "活動中心",
    "number_asylum": "33",
    "telephone": "25975323轉607",
    "latitude": 25.0592239,
    "longitude": 121.512054,
    "Detail": ""
  },
  {
    "Name": "雙連區民活動中心　",
    "disaster_type": "颱洪",
    "region": "大同區",
    "addr": "萬全街42號",
    "fac_type": "活動中心",
    "number_asylum": "20",
    "telephone": "25975323轉607",
    "latitude": 25.0586159,
    "longitude": 121.520012,
    "Detail": ""
  },
  {
    "Name": "光能區民活動中心　",
    "disaster_type": "颱洪",
    "region": "",
    "addr": "承德路二段33號5樓\n(大同活動中心)",
    "fac_type": "",
    "number_asylum": "0",
    "telephone": "25975323轉607",
    "latitude": 25.0545876,
    "longitude": 121.5185145,
    "Detail": ""
  },
  {
    "Name": "臺北橋區民活動中心",
    "disaster_type": "颱洪",
    "region": "大同區",
    "addr": "迪化街一段374號2樓",
    "fac_type": "活動中心",
    "number_asylum": "27",
    "telephone": "25975323轉607",
    "latitude": 25.0631041,
    "longitude": 121.5092905,
    "Detail": ""
  },
  {
    "Name": "玉泉區民活動中心　",
    "disaster_type": "颱洪",
    "region": "大同區",
    "addr": "環河北路一段96號(300338,2772012)",
    "fac_type": "活動中心",
    "number_asylum": "16",
    "telephone": "25975323轉607",
    "latitude": 25.0550506,
    "longitude": 121.5078245,
    "Detail": ""
  },
  {
    "Name": "國慶區民活動中心　",
    "disaster_type": "颱洪",
    "region": "大同區",
    "addr": "重慶北路三段76號4樓",
    "fac_type": "活動中心",
    "number_asylum": "50",
    "telephone": "25975323轉607",
    "latitude": 25.066126,
    "longitude": 121.51346,
    "Detail": ""
  },
  {
    "Name": "建南區民活動中心",
    "disaster_type": "颱洪",
    "region": "大安區",
    "addr": "信義路三段134巷82號2樓",
    "fac_type": "活動中心",
    "number_asylum": "120",
    "telephone": "23511711轉8205",
    "latitude": 25.029434,
    "longitude": 121.53923,
    "Detail": ""
  },
  {
    "Name": "成功區民活動中心",
    "disaster_type": "颱洪",
    "region": "大安區",
    "addr": "四維路198巷30弄9號",
    "fac_type": "活動中心",
    "number_asylum": "85",
    "telephone": "23511711轉8205",
    "latitude": 25.0263049,
    "longitude": 121.546098,
    "Detail": ""
  },
  {
    "Name": "錦安區民活動中心",
    "disaster_type": "颱洪",
    "region": "大安區",
    "addr": "永康街60號4樓",
    "fac_type": "活動中心",
    "number_asylum": "70",
    "telephone": "23511711轉8205",
    "latitude": 25.028559,
    "longitude": 121.529601,
    "Detail": ""
  },
  {
    "Name": "錦安二區民活動中心",
    "disaster_type": "颱洪",
    "region": "大安區",
    "addr": "和平東路一段121號B2",
    "fac_type": "活動中心",
    "number_asylum": "75",
    "telephone": "23511711轉8205",
    "latitude": 25.0269427,
    "longitude": 121.5272672,
    "Detail": ""
  },
  {
    "Name": "辛亥區民活動中心",
    "disaster_type": "颱洪",
    "region": "大安區",
    "addr": "辛亥路一段臨141號",
    "fac_type": "活動中心",
    "number_asylum": "70",
    "telephone": "23511711轉8205",
    "latitude": 25.0214762,
    "longitude": 121.543564,
    "Detail": ""
  },
  {
    "Name": "青峰區民活動中心",
    "disaster_type": "颱洪",
    "region": "大安區",
    "addr": "辛亥路三段223號3樓",
    "fac_type": "活動中心",
    "number_asylum": "65",
    "telephone": "23511711轉8205",
    "latitude": 25.016022,
    "longitude": 121.550788,
    "Detail": ""
  },
  {
    "Name": "瑞安區民活動中心",
    "disaster_type": "颱洪",
    "region": "大安區",
    "addr": "瑞安街71巷2號3樓",
    "fac_type": "活動中心",
    "number_asylum": "45",
    "telephone": "23511711轉8205",
    "latitude": 25.028037,
    "longitude": 121.541409,
    "Detail": ""
  },
  {
    "Name": "通安區民活動中心",
    "disaster_type": "颱洪",
    "region": "大安區",
    "addr": "通安街98號",
    "fac_type": "活動中心",
    "number_asylum": "45",
    "telephone": "23511711轉8205",
    "latitude": 25.0299067,
    "longitude": 121.553083,
    "Detail": ""
  },
  {
    "Name": "光信區民活動中心",
    "disaster_type": "颱洪",
    "region": "大安區",
    "addr": "延吉街236巷17號2樓",
    "fac_type": "活動中心",
    "number_asylum": "30",
    "telephone": "23511711轉8205",
    "latitude": 25.036117,
    "longitude": 121.555021,
    "Detail": ""
  },
  {
    "Name": "中華區民活動中心",
    "disaster_type": "颱洪",
    "region": "中正區",
    "addr": "中華路2段291號地下室",
    "fac_type": "活動中心",
    "number_asylum": "35",
    "telephone": "23416721 #255",
    "latitude": 25.029662,
    "longitude": 121.504541,
    "Detail": ""
  },
  {
    "Name": "水源區民活動中心",
    "disaster_type": "颱洪",
    "region": "中正區",
    "addr": "羅斯福路4段92號4樓",
    "fac_type": "活動中心",
    "number_asylum": "35",
    "telephone": "23416721 #255",
    "latitude": 25.0137429,
    "longitude": 121.535005,
    "Detail": ""
  },
  {
    "Name": "梅花區民活動中心",
    "disaster_type": "颱洪",
    "region": "中正區",
    "addr": "林森北路5巷4號",
    "fac_type": "活動中心",
    "number_asylum": "15",
    "telephone": "23416721 #255",
    "latitude": 25.0451949,
    "longitude": 121.523806,
    "Detail": ""
  },
  {
    "Name": "龍興區民活動中心",
    "disaster_type": "颱洪",
    "region": "中正區",
    "addr": "三元街131號4樓",
    "fac_type": "活動中心",
    "number_asylum": "20",
    "telephone": "23416721 #255",
    "latitude": 25.028125,
    "longitude": 121.510961,
    "Detail": ""
  },
  {
    "Name": "自強區民活動中心",
    "disaster_type": "颱洪",
    "region": "中正區",
    "addr": "重慶南路3段臨172-1號地下室",
    "fac_type": "活動中心",
    "number_asylum": "40",
    "telephone": "23416721 #255",
    "latitude": 25.023073,
    "longitude": 121.516550,
    "Detail": ""
  },
  {
    "Name": "幸安區民活動中心",
    "disaster_type": "颱洪",
    "region": "中正區",
    "addr": "濟南路2段46號3樓",
    "fac_type": "活動中心",
    "number_asylum": "15",
    "telephone": "23416721 #255",
    "latitude": 25.040316,
    "longitude": 121.530902,
    "Detail": ""
  },
  {
    "Name": "富水區民活動中心",
    "disaster_type": "颱洪",
    "region": "中正區",
    "addr": "水源路臨28號",
    "fac_type": "活動中心",
    "number_asylum": "15",
    "telephone": "23416721 #255",
    "latitude": 25.024745,
    "longitude": 121.53756,
    "Detail": ""
  },
  {
    "Name": "幸市區民活動中心",
    "disaster_type": "颱洪",
    "region": "中正區",
    "addr": "臨沂街10巷1號   ",
    "fac_type": "活動中心",
    "number_asylum": "15",
    "telephone": "23416721 #255",
    "latitude": 25.041674,
    "longitude": 121.530285,
    "Detail": ""
  },
  {
    "Name": "敦化區民活動中心",
    "disaster_type": "颱洪",
    "region": "松山區",
    "addr": "八德路3段12巷52弄2之1號",
    "fac_type": "活動中心",
    "number_asylum": "50",
    "telephone": "87878787#827",
    "latitude": 25.046309,
    "longitude": 121.55038,
    "Detail": ""
  },
  {
    "Name": "鵬程區民活動中心",
    "disaster_type": "颱洪",
    "region": "松山區",
    "addr": "健康路399號3樓",
    "fac_type": "活動中心",
    "number_asylum": "50",
    "telephone": "87878787#827",
    "latitude": 25.054639,
    "longitude": 121.568808,
    "Detail": ""
  },
  {
    "Name": "中正區民活動中心",
    "disaster_type": "颱洪",
    "region": "松山區",
    "addr": "長安東路2段229號",
    "fac_type": "活動中心",
    "number_asylum": "50",
    "telephone": "87878787#827",
    "latitude": 25.0483776,
    "longitude": 121.5458959,
    "Detail": ""
  },
  {
    "Name": "三民區民活動中心",
    "disaster_type": "颱洪",
    "region": "松山區",
    "addr": "民生東路5段163之1號8樓",
    "fac_type": "活動中心",
    "number_asylum": "60",
    "telephone": "87878787#827",
    "latitude": 25.059274,
    "longitude": 121.562837,
    "Detail": ""
  },
  {
    "Name": "民權區民活動中心",
    "disaster_type": "颱洪",
    "region": "松山區",
    "addr": "民權東路5段臨43號",
    "fac_type": "活動中心",
    "number_asylum": "25",
    "telephone": "87878787#827",
    "latitude": 25.063480,
    "longitude": 121.566842,
    "Detail": ""
  },
  {
    "Name": "安平區民活動中心",
    "disaster_type": "颱洪",
    "region": "松山區",
    "addr": "南京東路5段291巷44弄23號之1",
    "fac_type": "活動中心",
    "number_asylum": "26",
    "telephone": "87878787#827",
    "latitude": 25.053451,
    "longitude": 121.565586,
    "Detail": ""
  },
  {
    "Name": "龍田區民活動中心",
    "disaster_type": "颱洪",
    "region": "松山區",
    "addr": "光復北路230巷21號地下1樓",
    "fac_type": "活動中心",
    "number_asylum": "50",
    "telephone": "87878787#827",
    "latitude": 25.0495134,
    "longitude": 121.5579996,
    "Detail": ""
  },
  {
    "Name": "復盛區民活動中心",
    "disaster_type": "颱洪",
    "region": "松山區",
    "addr": "市民大道5段99號",
    "fac_type": "活動中心",
    "number_asylum": "15",
    "telephone": "87878787#827",
    "latitude": 25.0477411,
    "longitude": 121.5613359,
    "Detail": ""
  },
  {
    "Name": "民有區民活動中心",
    "disaster_type": "颱洪",
    "region": "松山區",
    "addr": "民權東路三段140巷15號4樓",
    "fac_type": "活動中心",
    "number_asylum": "40",
    "telephone": "87878787#827",
    "latitude": 25.060364,
    "longitude": 121.5471001,
    "Detail": ""
  },
  {
    "Name": "自強區民活動中心",
    "disaster_type": "颱洪",
    "region": "松山區",
    "addr": "三民路35巷9號",
    "fac_type": "活動中心",
    "number_asylum": "19",
    "telephone": "87878787#827",
    "latitude": 25.055580,
    "longitude": 121.563625,
    "Detail": ""
  },
  {
    "Name": "精忠區民活動中心",
    "disaster_type": "颱洪",
    "region": "松山區",
    "addr": "民生東路4段133號4樓",
    "fac_type": "活動中心",
    "number_asylum": "35",
    "telephone": "87878787#827",
    "latitude": 25.0584992,
    "longitude": 121.5547268,
    "Detail": ""
  },
  {
    "Name": "新聚區民活動中心",
    "disaster_type": "颱洪",
    "region": "松山區",
    "addr": "南京東路5段374號",
    "fac_type": "活動中心",
    "number_asylum": "23",
    "telephone": "87878787#827",
    "latitude": 25.0511311,
    "longitude": 121.5694386,
    "Detail": ""
  },
  {
    "Name": "西村區民活動中心",
    "disaster_type": "颱洪",
    "region": "信義區",
    "addr": "基隆路一段364巷22號",
    "fac_type": "活動中心",
    "number_asylum": "50",
    "telephone": "27239777#819",
    "latitude": 25.03501,
    "longitude": 121.559205,
    "Detail": ""
  },
  {
    "Name": "正和區民活動中心",
    "disaster_type": "颱洪",
    "region": "信義區",
    "addr": "仁愛路四段452巷3號",
    "fac_type": "活動中心",
    "number_asylum": "15",
    "telephone": "27239777#819",
    "latitude": 25.0371489,
    "longitude": 121.5592375,
    "Detail": ""
  },
  {
    "Name": "興雅區民活動中心",
    "disaster_type": "颱洪",
    "region": "信義區",
    "addr": "松隆路36號3樓",
    "fac_type": "活動中心",
    "number_asylum": "25",
    "telephone": "27239777#819",
    "latitude": 25.0433609,
    "longitude": 121.567473,
    "Detail": ""
  },
  {
    "Name": "永春區民活動中心",
    "disaster_type": "颱洪",
    "region": "信義區",
    "addr": "松山路294號4樓",
    "fac_type": "活動中心",
    "number_asylum": "20",
    "telephone": "27239777#819",
    "latitude": 25.0430691,
    "longitude": 121.5775774,
    "Detail": ""
  },
  {
    "Name": "景勤區民活動中心",
    "disaster_type": "颱洪",
    "region": "信義區",
    "addr": "吳興街156巷6號6樓",
    "fac_type": "活動中心",
    "number_asylum": "15",
    "telephone": "27239777#819",
    "latitude": 25.029062,
    "longitude": 121.561168,
    "Detail": ""
  },
  {
    "Name": "黎忠區民活動中心",
    "disaster_type": "颱洪",
    "region": "信義區",
    "addr": "和平東路三段391巷16號2樓",
    "fac_type": "活動中心",
    "number_asylum": "35",
    "telephone": "27239777#819",
    "latitude": 25.020185,
    "longitude": 121.558089,
    "Detail": ""
  },
  {
    "Name": "三張區民活動中心",
    "disaster_type": "颱洪",
    "region": "信義區",
    "addr": "莊敬路423巷7弄2號1樓",
    "fac_type": "活動中心",
    "number_asylum": "20",
    "telephone": "27239777#819",
    "latitude": 25.0286879,
    "longitude": 121.566612,
    "Detail": ""
  },
  {
    "Name": "六合區民活動中心",
    "disaster_type": "颱洪",
    "region": "信義區",
    "addr": "松仁路240巷19號3樓",
    "fac_type": "活動中心",
    "number_asylum": "15",
    "telephone": "27239777#819",
    "latitude": 25.0245225,
    "longitude": 121.5688737,
    "Detail": ""
  },
  {
    "Name": "惠安區民活動中心",
    "disaster_type": "颱洪",
    "region": "信義區",
    "addr": "吳興街506巷21號1樓",
    "fac_type": "活動中心",
    "number_asylum": "20",
    "telephone": "27239777#819",
    "latitude": 25.022989,
    "longitude": 121.568487,
    "Detail": ""
  },
  {
    "Name": "富安國小",
    "disaster_type": "颱洪",
    "region": "士林區",
    "addr": "臺北市士林區延平北路8段135號",
    "fac_type": "學校",
    "number_asylum": "50",
    "telephone": "28103192#631",
    "latitude": 25.1058608,
    "longitude": 121.4824562,
    "Detail": ""
  },
  {
    "Name": "社子國小",
    "disaster_type": "颱洪",
    "region": "士林區",
    "addr": "臺北市士林區延平北路6段308號",
    "fac_type": "優先安置學校",
    "number_asylum": "192",
    "telephone": "28122505#830",
    "latitude": 25.0897973,
    "longitude": 121.5029363,
    "Detail": ""
  },
  {
    "Name": "芝山國小",
    "disaster_type": "颱洪",
    "region": "士林區",
    "addr": "臺北市士林區德行東路285號",
    "fac_type": "學校",
    "number_asylum": "40",
    "telephone": "28316115#240 ",
    "latitude": 25.1102509,
    "longitude": 121.5364269,
    "Detail": ""
  },
  {
    "Name": "九如活動中心",
    "disaster_type": "颱洪",
    "region": "南港區",
    "addr": "臺北市南港區研究院路3段68巷9號2樓",
    "fac_type": "活動中心",
    "number_asylum": "25",
    "telephone": "27831343",
    "latitude": 25.0352419,
    "longitude": 121.614332,
    "Detail": ""
  },
  {
    "Name": "中研區民活動中心",
    "disaster_type": "颱洪",
    "region": "南港區",
    "addr": "臺北市南港區研究院路2段70巷12號2樓",
    "fac_type": "活動中心",
    "number_asylum": "40",
    "telephone": "27831343",
    "latitude": 25.0454169,
    "longitude": 121.614487,
    "Detail": ""
  },
  {
    "Name": "三重區民活動中心",
    "disaster_type": "颱洪",
    "region": "南港區",
    "addr": "臺北市南港區興東街1號2號",
    "fac_type": "活動中心",
    "number_asylum": "30",
    "telephone": "27831343",
    "latitude": 25.055596,
    "longitude": 121.613082,
    "Detail": ""
  },
  {
    "Name": "南港區民活動中心",
    "disaster_type": "颱洪",
    "region": "南港區",
    "addr": "臺北市南港區市民大道八段367號2樓",
    "fac_type": "活動中心",
    "number_asylum": "15",
    "telephone": "27831343",
    "latitude": 25.0537317,
    "longitude": 121.6079597,
    "Detail": ""
  },
  {
    "Name": "東新區民活動中心",
    "disaster_type": "颱洪",
    "region": "南港區",
    "addr": "臺北市南港區東明街99號2樓",
    "fac_type": "活動中心",
    "number_asylum": "30",
    "telephone": "27831343",
    "latitude": 25.0545379,
    "longitude": 121.600061,
    "Detail": ""
  },
  {
    "Name": "西新區民活動中心",
    "disaster_type": "颱洪",
    "region": "南港區",
    "addr": "臺北市南港區成功路1段99號",
    "fac_type": "活動中心",
    "number_asylum": "25",
    "telephone": "27831343",
    "latitude": 25.0578596,
    "longitude": 121.5927309,
    "Detail": ""
  },
  {
    "Name": "成德區民活動中心",
    "disaster_type": "颱洪",
    "region": "南港區",
    "addr": "臺北市南港區同德路100號3樓",
    "fac_type": "活動中心",
    "number_asylum": "50",
    "telephone": "27831343",
    "latitude": 25.046125,
    "longitude": 121.586785,
    "Detail": ""
  },
  {
    "Name": "仁福區民活動中心",
    "disaster_type": "颱洪",
    "region": "南港區",
    "addr": "臺北市南港區福德街443號1樓",
    "fac_type": "活動中心",
    "number_asylum": "35",
    "telephone": "27831343",
    "latitude": 25.040003,
    "longitude": 121.590631,
    "Detail": ""
  },
  {
    "Name": "舊莊區民活動中心",
    "disaster_type": "颱洪",
    "region": "南港區",
    "addr": "臺北市南港區舊莊街1段91巷11號",
    "fac_type": "活動中心",
    "number_asylum": "40",
    "telephone": "27831343",
    "latitude": 25.0413277,
    "longitude": 121.6194384,
    "Detail": ""
  },
  {
    "Name": "南港國小",
    "disaster_type": "颱洪",
    "region": "南港區",
    "addr": "臺北市南港區惠民街67號",
    "fac_type": "學校",
    "number_asylum": "50",
    "telephone": "27834678#2302",
    "latitude": 25.0576893,
    "longitude": 121.610112,
    "Detail": ""
  },
  {
    "Name": "育成高中",
    "disaster_type": "颱洪",
    "region": "南港區",
    "addr": "臺北市南港區重陽路366號",
    "fac_type": "優先安置學校",
    "number_asylum": "375",
    "telephone": "26530475#551",
    "latitude": 25.0585978,
    "longitude": 121.6093328,
    "Detail": ""
  },
  {
    "Name": "修德國小",
    "disaster_type": "颱洪",
    "region": "南港區",
    "addr": "臺北市南港區東新街118巷86號",
    "fac_type": "優先安置學校",
    "number_asylum": "95",
    "telephone": "27880500#151",
    "latitude": 25.0455233,
    "longitude": 121.5896297,
    "Detail": ""
  },
  {
    "Name": "舊莊國小",
    "disaster_type": "颱洪",
    "region": "南港區",
    "addr": "臺北市南港區舊莊街1段100號",
    "fac_type": "優先安置學校",
    "number_asylum": "92",
    "telephone": "27821418#130",
    "latitude": 25.0402901,
    "longitude": 121.6194999,
    "Detail": ""
  },
  {
    "Name": "石牌國中",
    "disaster_type": "颱洪",
    "region": "北投區",
    "addr": "臺北市北投區石牌路1段139號",
    "fac_type": "學校",
    "number_asylum": "100",
    "telephone": "28224682#250",
    "latitude": 25.1149915,
    "longitude": 121.5141752,
    "Detail": ""
  },
  {
    "Name": "北投國小",
    "disaster_type": "颱洪",
    "region": "北投區",
    "addr": "臺北市北投區中央北路1段173號",
    "fac_type": "優先安置學校",
    "number_asylum": "195",
    "telephone": "28912052#131",
    "latitude": 25.135573,
    "longitude": 121.498061,
    "Detail": ""
  },
  {
    "Name": "泉源國小",
    "disaster_type": "颱洪",
    "region": "北投區",
    "addr": "臺北市北投區東昇路34號",
    "fac_type": "學校",
    "number_asylum": "30",
    "telephone": "28951258#141",
    "latitude": 25.1492158,
    "longitude": 121.5243642,
    "Detail": ""
  },
  {
    "Name": "湖山國小",
    "disaster_type": "颱洪",
    "region": "北投區",
    "addr": "臺北市北投區湖底路11號",
    "fac_type": "學校",
    "number_asylum": "30",
    "telephone": "28610148#130",
    "latitude": 25.1497385,
    "longitude": 121.5354569,
    "Detail": ""
  },
  {
    "Name": "永安國小",
    "disaster_type": "颱洪",
    "region": "中山區",
    "addr": "臺北市中山區明水路397巷19弄1號",
    "fac_type": "學校",
    "number_asylum": "60",
    "telephone": "25335672#230",
    "latitude": 25.0787761,
    "longitude": 121.5494063,
    "Detail": ""
  },
  {
    "Name": "中山國小",
    "disaster_type": "颱洪",
    "region": "中山區",
    "addr": "臺北市中山區民權東路1段69號",
    "fac_type": "優先安置學校",
    "number_asylum": "290",
    "telephone": "25914085#36",
    "latitude": 25.0628162,
    "longitude": 121.5256755,
    "Detail": ""
  },
  {
    "Name": "麗山高中",
    "disaster_type": "颱洪",
    "region": "內湖區",
    "addr": "臺北市內湖區環山路2段100號",
    "fac_type": "學校",
    "number_asylum": "60",
    "telephone": "26570435#400",
    "latitude": 25.0840979,
    "longitude": 121.577832,
    "Detail": ""
  },
  {
    "Name": "新湖國小",
    "disaster_type": "颱洪",
    "region": "內湖區",
    "addr": "臺北市內湖區民權東路6段138號",
    "fac_type": "學校",
    "number_asylum": "40",
    "telephone": "2796-3721#120  ",
    "latitude": 25.0688174,
    "longitude": 121.5887357,
    "Detail": ""
  },
  {
    "Name": "南湖國小",
    "disaster_type": "颱洪",
    "region": "內湖區",
    "addr": "臺北市內湖區康寧路3段200號",
    "fac_type": "學校",
    "number_asylum": "50",
    "telephone": "26321296#51",
    "latitude": 25.0690727,
    "longitude": 121.6120357,
    "Detail": ""
  },
  {
    "Name": "龍山國中",
    "disaster_type": "颱洪",
    "region": "萬華區",
    "addr": "臺北市萬華區南寧路46號",
    "fac_type": "優先安置學校",
    "number_asylum": "367",
    "telephone": "23362789#500",
    "latitude": 25.0360667,
    "longitude": 121.504607,
    "Detail": ""
  },
  {
    "Name": "老松國小",
    "disaster_type": "颱洪",
    "region": "萬華區",
    "addr": "臺北市萬華區桂林路64號",
    "fac_type": "學校",
    "number_asylum": "50",
    "telephone": "23361266#180 23361266#130",
    "latitude": 25.038046,
    "longitude": 121.502725,
    "Detail": ""
  },
  {
    "Name": "東園國小",
    "disaster_type": "颱洪",
    "region": "萬華區",
    "addr": "臺北市萬華區東園街195號",
    "fac_type": "優先安置學校",
    "number_asylum": "102",
    "telephone": "23034803#1501",
    "latitude": 25.0231474,
    "longitude": 121.497884,
    "Detail": ""
  },
  {
    "Name": "武功國小",
    "disaster_type": "颱洪",
    "region": "文山區",
    "addr": "臺北市文山區興隆路1段68號",
    "fac_type": "學校",
    "number_asylum": "50",
    "telephone": "29314360#19",
    "latitude": 25.0038915,
    "longitude": 121.5404919,
    "Detail": ""
  },
  {
    "Name": "興華國小",
    "disaster_type": "颱洪",
    "region": "文山區",
    "addr": "臺北市文山區興隆路3段125巷6號",
    "fac_type": "學校",
    "number_asylum": "30",
    "telephone": "22393070#130",
    "latitude": 24.9988821,
    "longitude": 121.5589184,
    "Detail": ""
  },
  {
    "Name": "北政國中",
    "disaster_type": "颱洪",
    "region": "文山區",
    "addr": "臺北市文山區指南路3段2巷14號",
    "fac_type": "學校",
    "number_asylum": "20",
    "telephone": "29393651#51",
    "latitude": 24.9849798,
    "longitude": 121.5782554,
    "Detail": ""
  },
  {
    "Name": "民族國小",
    "disaster_type": "颱洪",
    "region": "松山區",
    "addr": "臺北市松山區民生東路4段97巷7號",
    "fac_type": "學校",
    "number_asylum": "40",
    "telephone": "27124872#935",
    "latitude": 25.0594726,
    "longitude": 121.5518154,
    "Detail": ""
  },
  {
    "Name": "西松國小",
    "disaster_type": "颱洪",
    "region": "松山區",
    "addr": "臺北市松山區三民路5號",
    "fac_type": "學校",
    "number_asylum": "50",
    "telephone": "27609221#203",
    "latitude": 25.0521927,
    "longitude": 121.5636201,
    "Detail": ""
  },
  {
    "Name": "民權國小",
    "disaster_type": "颱洪",
    "region": "松山區",
    "addr": "臺北市松山區民權東路4段200號",
    "fac_type": "優先安置學校",
    "number_asylum": "189",
    "telephone": "27652327",
    "latitude": 25.0625096,
    "longitude": 121.5622982,
    "Detail": ""
  },
  {
    "Name": "明倫高中",
    "disaster_type": "颱洪",
    "region": "大同區",
    "addr": "臺北市大同區承德路3段336號",
    "fac_type": "學校",
    "number_asylum": "70",
    "telephone": "25961567#151",
    "latitude": 25.0754481,
    "longitude": 121.5199048,
    "Detail": ""
  },
  {
    "Name": "永樂國小",
    "disaster_type": "颱洪",
    "region": "大同區",
    "addr": "臺北市大同區延平北路2段266號",
    "fac_type": "學校",
    "number_asylum": "50",
    "telephone": "25534882#132",
    "latitude": 25.061301,
    "longitude": 121.5111152,
    "Detail": ""
  },
  {
    "Name": "建成國中",
    "disaster_type": "颱洪",
    "region": "大同區",
    "addr": "臺北市大同區長安西路37之1號",
    "fac_type": "優先安置學校",
    "number_asylum": "55",
    "telephone": "25587042#650",
    "latitude": 25.0516477,
    "longitude": 121.5186207,
    "Detail": ""
  },
  {
    "Name": "北一女中",
    "disaster_type": "颱洪",
    "region": "中正區",
    "addr": "臺北市中正區重慶南路1段 165 號",
    "fac_type": "學校",
    "number_asylum": "60",
    "telephone": "23820484#600",
    "latitude": 25.0385611,
    "longitude": 121.5131031,
    "Detail": ""
  },
  {
    "Name": "成功高中",
    "disaster_type": "颱洪",
    "region": "中正區",
    "addr": "臺北市中正區濟南路1段71號",
    "fac_type": "學校",
    "number_asylum": "30",
    "telephone": "23216256#231",
    "latitude": 25.0423394,
    "longitude": 121.5236702,
    "Detail": ""
  },
  {
    "Name": "教大附小",
    "disaster_type": "颱洪",
    "region": "中正區",
    "addr": "臺北市中正區公園路29號",
    "fac_type": "優先安置學校",
    "number_asylum": "157",
    "telephone": "23110395#660",
    "latitude": 25.0360623,
    "longitude": 121.515212,
    "Detail": ""
  },
  {
    "Name": "公館國小",
    "disaster_type": "颱洪",
    "region": "大安區",
    "addr": "臺北市大安區基隆路4段41巷68弄2號",
    "fac_type": "學校",
    "number_asylum": "50",
    "telephone": "27351734#230",
    "latitude": 25.0124219,
    "longitude": 121.5428437,
    "Detail": ""
  },
  {
    "Name": "大安國小",
    "disaster_type": "颱洪",
    "region": "大安區",
    "addr": "臺北市大安區臥龍街129號",
    "fac_type": "優先安置學校",
    "number_asylum": "60",
    "telephone": "27322332#831",
    "latitude": 25.0200121,
    "longitude": 121.5490912,
    "Detail": ""
  },
  {
    "Name": "芳和國中",
    "disaster_type": "颱洪",
    "region": "大安區",
    "addr": "臺北市大安區臥龍街170號",
    "fac_type": "學校",
    "number_asylum": "30",
    "telephone": "27321961#51",
    "latitude": 25.0186851,
    "longitude": 121.5503014,
    "Detail": ""
  },
  {
    "Name": "光復國小",
    "disaster_type": "颱洪",
    "region": "信義區",
    "addr": "臺北市信義區光復南路271號",
    "fac_type": "學校",
    "number_asylum": "40",
    "telephone": "27585076#830",
    "latitude": 25.0402629,
    "longitude": 121.5578797,
    "Detail": ""
  },
  {
    "Name": "松山工農",
    "disaster_type": "颱洪",
    "region": "信義區",
    "addr": "臺北市信義區忠孝東路5段236巷15號",
    "fac_type": "學校",
    "number_asylum": "50",
    "telephone": "27226616#601",
    "latitude": 25.0396454,
    "longitude": 121.5720304,
    "Detail": ""
  },
  {
    "Name": "瑠公國中",
    "disaster_type": "颱洪",
    "region": "信義區",
    "addr": "臺北市信義區福德街221巷15號",
    "fac_type": "學校",
    "number_asylum": "30",
    "telephone": "27261481#400",
    "latitude": 25.0370881,
    "longitude": 121.5853391,
    "Detail": ""
  },
  {
    "Name": "陽明山國小",
    "disaster_type": "颱洪",
    "region": "士林區",
    "addr": "臺北市士林區新安里仰德大道3段 61 號",
    "fac_type": "優先安置學校",
    "number_asylum": "50",
    "telephone": "28616366*131",
    "latitude": 25.1193509,
    "longitude": 121.5527913,
    "Detail": ""
  },
  {
    "Name": "溪山國小",
    "disaster_type": "颱洪",
    "region": "士林區",
    "addr": "臺北市士林區至善路三段199號",
    "fac_type": "優先安置學校",
    "number_asylum": "50",
    "telephone": "2841-1010轉17",
    "latitude": 25.1196984,
    "longitude": 121.5799486,
    "Detail": ""
  },
  {
    "Name": "至善國中",
    "disaster_type": "颱洪",
    "region": "士林區",
    "addr": "臺北市士林區至善路2段360號",
    "fac_type": "優先安置學校",
    "number_asylum": "170",
    "telephone": "28411350#15",
    "latitude": 25.1035869,
    "longitude": 121.5554252,
    "Detail": ""
  },
  {
    "Name": "士林國小",
    "disaster_type": "颱洪",
    "region": "士林區",
    "addr": "臺北市士林區大東路165號",
    "fac_type": "優先安置學校",
    "number_asylum": "225",
    "telephone": "28812231#232",
    "latitude": 25.0933033,
    "longitude": 121.5248818,
    "Detail": ""
  },
  {
    "Name": "新民國中",
    "disaster_type": "颱洪",
    "region": "北投區",
    "addr": "臺北市北投區新民路10號",
    "fac_type": "優先安置學校",
    "number_asylum": "207",
    "telephone": "28979001#500",
    "latitude": 25.1380991,
    "longitude": 121.5076354,
    "Detail": ""
  },
  {
    "Name": "逸仙國小",
    "disaster_type": "颱洪",
    "region": "北投區",
    "addr": "臺北市北投區新民路2號",
    "fac_type": "優先安置學校",
    "number_asylum": "164",
    "telephone": "28914537#34",
    "latitude": 25.1383709,
    "longitude": 121.5051619,
    "Detail": ""
  },
  {
    "Name": "碧湖國小",
    "disaster_type": "颱洪",
    "region": "內湖區",
    "addr": "臺北市內湖區金龍路100號",
    "fac_type": "優先安置學校",
    "number_asylum": "134",
    "telephone": "27907161#151",
    "latitude": 25.0853014,
    "longitude": 121.5911039,
    "Detail": ""
  },
  {
    "Name": "麗山國小",
    "disaster_type": "颱洪",
    "region": "內湖區",
    "addr": "臺北市內湖區港華街100號",
    "fac_type": "優先安置學校",
    "number_asylum": "193",
    "telephone": "26574158#511",
    "latitude": 25.0836669,
    "longitude": 121.5724591,
    "Detail": ""
  },
  {
    "Name": "吳興國小",
    "disaster_type": "颱洪",
    "region": "信義區",
    "addr": "臺北市信義區松仁路226號",
    "fac_type": "優先安置學校",
    "number_asylum": "60",
    "telephone": "27200226#50",
    "latitude": 25.0257427,
    "longitude": 121.5687156,
    "Detail": ""
  },
  {
    "Name": "青年公園",
    "disaster_type": "颱洪",
    "region": "萬華區",
    "addr": "臺北市萬華區水源路199號",
    "fac_type": "防災公園",
    "number_asylum": "33756",
    "telephone": "2303-2451",
    "latitude": 25.022041,
    "longitude": 121.506907,
    "Detail": ""
  },
  {
    "Name": "二二八和平公園",
    "disaster_type": "颱洪",
    "region": "中正區",
    "addr": "臺北市中正區-凱達格蘭大道3號",
    "fac_type": "防災公園",
    "number_asylum": "7909",
    "telephone": "2303-2451",
    "latitude": 25.0403631,
    "longitude": 121.515469,
    "Detail": ""
  },
  {
    "Name": "大安森林公園",
    "disaster_type": "颱洪",
    "region": "大安區",
    "addr": "臺北市大安區新生南路以東、信義路3段以南",
    "fac_type": "防災公園",
    "number_asylum": "47436",
    "telephone": "2303-2451",
    "latitude": 25.033000,
    "longitude": 121.533465,
    "Detail": ""
  },
  {
    "Name": "玉泉公園",
    "disaster_type": "颱洪",
    "region": "大同區",
    "addr": "臺北市大同區西寧北路28號",
    "fac_type": "防災公園",
    "number_asylum": "2183",
    "telephone": "25850192",
    "latitude": 25.0497229,
    "longitude": 121.507347,
    "Detail": ""
  },
  {
    "Name": "榮星花園公園",
    "disaster_type": "颱洪",
    "region": "中山區",
    "addr": "臺北市中山區民權東路3段1號",
    "fac_type": "防災公園",
    "number_asylum": "2432",
    "telephone": "2585-1430",
    "latitude": 25.063371,
    "longitude": 121.538864,
    "Detail": ""
  },
  {
    "Name": "民權公園",
    "disaster_type": "颱洪",
    "region": "松山區",
    "addr": "臺北市松山區民權國小旁",
    "fac_type": "防災公園",
    "number_asylum": "2778",
    "telephone": "25850192",
    "latitude": 25.0591662,
    "longitude": 121.5589142,
    "Detail": ""
  },
  {
    "Name": "碧湖公園",
    "disaster_type": "颱洪",
    "region": "內湖區",
    "addr": "臺北市內湖區內湖路二段175號",
    "fac_type": "防災公園",
    "number_asylum": "1590",
    "telephone": "25850192",
    "latitude": 25.08221,
    "longitude": 121.581229,
    "Detail": ""
  },
  {
    "Name": "松德公園",
    "disaster_type": "颱洪",
    "region": "信義區",
    "addr": "臺北市信義區松德路180巷興雅國中西側",
    "fac_type": "防災公園",
    "number_asylum": "1346",
    "telephone": "2788-4255",
    "latitude": 25.0356485,
    "longitude": 121.5735352,
    "Detail": ""
  },
  {
    "Name": "南港公園",
    "disaster_type": "颱洪",
    "region": "南港區",
    "addr": "臺北市南港區東新街170-1號",
    "fac_type": "防災公園",
    "number_asylum": "8661",
    "telephone": "2788-4255",
    "latitude": 25.046018,
    "longitude": 121.591209,
    "Detail": ""
  },
  {
    "Name": "景華公園",
    "disaster_type": "颱洪",
    "region": "文山區",
    "addr": "臺北市文山區景興路與景華街交叉口",
    "fac_type": "防災公園",
    "number_asylum": "1350",
    "telephone": "2788-4255",
    "latitude": 24.995335,
    "longitude": 121.543121,
    "Detail": ""
  },
  {
    "Name": "士林官邸公園",
    "disaster_type": "颱洪",
    "region": "士林區",
    "addr": "臺北市士林區福林路60號",
    "fac_type": "防災公園",
    "number_asylum": "1362",
    "telephone": "2881-2512",
    "latitude": 25.094898,
    "longitude": 121.530152,
    "Detail": ""
  },
  {
    "Name": "復興公園",
    "disaster_type": "颱洪",
    "region": "北投區",
    "addr": "臺北市北投區中和街200號",
    "fac_type": "防災公園",
    "number_asylum": "3623",
    "telephone": "2861-6533",
    "latitude": 25.1389895,
    "longitude": 121.5023793,
    "Detail": ""
  },
  {
    "Name": "吳氏宗祠",
    "disaster_type": "颱洪",
    "region": "北投區",
    "addr": "臺北市北投區復興三路348號(299810.625,2783304.27)",
    "fac_type": "寺廟",
    "number_asylum": "50",
    "telephone": "28972300",
    "latitude": 25.155525,
    "longitude": 121.502228,
    "Detail": ""
  },
  {
    "Name": "慈航寺",
    "disaster_type": "颱洪",
    "region": "北投區",
    "addr": "臺北市北投區中和街456號",
    "fac_type": "寺廟",
    "number_asylum": "50",
    "telephone": "",
    "latitude": 25.14538,
    "longitude": 121.496461,
    "Detail": ""
  },
  {
    "Name": "溪山里里民活動場所",
    "disaster_type": "颱洪",
    "region": "士林區",
    "addr": "臺北市士林區至善路三段258號",
    "fac_type": "活動中心",
    "number_asylum": "70",
    "telephone": "02-28411119",
    "latitude": 25.1193252,
    "longitude": 121.5827007,
    "Detail": ""
  },
  {
    "Name": "泰和里辦公處",
    "disaster_type": "颱洪",
    "region": "信義區",
    "addr": "臺北市信義區吳興街583巷80號1樓",
    "fac_type": "活動中心",
    "number_asylum": "20",
    "telephone": "02-87862076",
    "latitude": 25.021303,
    "longitude": 121.570082,
    "Detail": ""
  },
  {
    "Name": "臺北田徑場",
    "disaster_type": "颱洪",
    "region": "松山區",
    "addr": "臺北市松山區敦化北路3號",
    "fac_type": "運動場館",
    "number_asylum": "440",
    "telephone": "02-25700651#11509",
    "latitude": 25.0497249,
    "longitude": 121.5525223,
    "Detail": ""
  },
  {
    "Name": "臺北體育館",
    "disaster_type": "颱洪",
    "region": "松山區",
    "addr": "臺北市松山區南京東路4段10號",
    "fac_type": "運動場館",
    "number_asylum": "1000",
    "telephone": "02-25702330#6512",
    "latitude": 25.051292,
    "longitude": 121.5520941,
    "Detail": ""
  },
  {
    "Name": "臺北市極限運動訓練中心",
    "disaster_type": "颱洪",
    "region": "南港區",
    "addr": "臺北市南港區忠孝東路七段382號",
    "fac_type": "運動場館",
    "number_asylum": "138",
    "telephone": "02-25702330#6530",
    "latitude": 25.0524083,
    "longitude": 121.6097028,
    "Detail": ""
  },
  {
    "Name": "天母棒球場",
    "disaster_type": "颱洪",
    "region": "士林區",
    "addr": "臺北市士林區忠誠路二段71號",
    "fac_type": "運動場館",
    "number_asylum": "1000",
    "telephone": "02-25702330#6513",
    "latitude": 25.1090894,
    "longitude": 121.5305657,
    "Detail": ""
  },
  {
    "Name": "新生公園棒球場",
    "disaster_type": "颱洪",
    "region": "中山區",
    "addr": "臺北市中山區新生北路3段105號",
    "fac_type": "運動場館",
    "number_asylum": "60",
    "telephone": "02-25702330#6508",
    "latitude": 25.0685824,
    "longitude": 121.5296094,
    "Detail": ""
  },
  {
    "Name": "青年公園棒球場",
    "disaster_type": "颱洪",
    "region": "萬華區",
    "addr": "臺北市萬華區水源路199號",
    "fac_type": "運動場館",
    "number_asylum": "68",
    "telephone": "25702330#6530 ",
    "latitude": 25.022041,
    "longitude": 121.506907,
    "Detail": ""
  },
  {
    "Name": "景美游泳池",
    "disaster_type": "颱洪",
    "region": "文山區",
    "addr": "臺北市文山區羅斯福路5段176巷50號",
    "fac_type": "運動場館",
    "number_asylum": "55",
    "telephone": "25702330#6522 ",
    "latitude": 25.0036069,
    "longitude": 121.536373,
    "Detail": ""
  },
  {
    "Name": "臺北市中山運動中心",
    "disaster_type": "颱洪",
    "region": "中山區",
    "addr": "臺北市中山區中山北路2段44巷2號",
    "fac_type": "運動場館",
    "number_asylum": "184",
    "telephone": "25702330#6422 ",
    "latitude": 25.0548895,
    "longitude": 121.5213932,
    "Detail": ""
  },
  {
    "Name": "臺北市北投運動中心",
    "disaster_type": "颱洪",
    "region": "北投區",
    "addr": "臺北市北投區石牌路1段39巷100號",
    "fac_type": "運動場館",
    "number_asylum": "384",
    "telephone": "25702330#6426 ",
    "latitude": 25.1164729,
    "longitude": 121.509768,
    "Detail": ""
  },
  {
    "Name": "臺北市中正運動中心",
    "disaster_type": "颱洪",
    "region": "中正區",
    "addr": "臺北市中正區信義路1段1號",
    "fac_type": "運動場館",
    "number_asylum": "250",
    "telephone": "25702330#6427 ",
    "latitude": 25.0382226,
    "longitude": 121.5193082,
    "Detail": ""
  },
  {
    "Name": "臺北市南港運動中心",
    "disaster_type": "颱洪",
    "region": "南港區",
    "addr": "臺北市南港區玉成街69號",
    "fac_type": "運動場館",
    "number_asylum": "240",
    "telephone": "25702330#6424 ",
    "latitude": 25.048938,
    "longitude": 121.5818399,
    "Detail": ""
  },
  {
    "Name": "臺北市萬華運動中心",
    "disaster_type": "颱洪",
    "region": "萬華區",
    "addr": "臺北市萬華區西寧南路6之1號",
    "fac_type": "運動場館",
    "number_asylum": "226",
    "telephone": "25702330#6422 ",
    "latitude": 25.0474081,
    "longitude": 121.5067531,
    "Detail": ""
  },
  {
    "Name": "臺北市士林運動中心",
    "disaster_type": "颱洪",
    "region": "士林區",
    "addr": "臺北市士林區士商路1號",
    "fac_type": "運動場館",
    "number_asylum": "171",
    "telephone": "25702330#6424 ",
    "latitude": 25.089668,
    "longitude": 121.521411,
    "Detail": ""
  },
  {
    "Name": "臺北市內湖運動中心",
    "disaster_type": "颱洪",
    "region": "內湖區",
    "addr": "臺北市內湖區洲子街12號",
    "fac_type": "運動場館",
    "number_asylum": "219",
    "telephone": "25702330#6427 ",
    "latitude": 25.0782334,
    "longitude": 121.5751539,
    "Detail": ""
  },
  {
    "Name": "臺北市信義運動中心",
    "disaster_type": "颱洪",
    "region": "信義區",
    "addr": "臺北市信義區松勤路100號",
    "fac_type": "運動場館",
    "number_asylum": "522",
    "telephone": "25702330#6424 ",
    "latitude": 25.0318684,
    "longitude": 121.5666793,
    "Detail": ""
  },
  {
    "Name": "臺北市松山運動中心",
    "disaster_type": "颱洪",
    "region": "松山區",
    "addr": "臺北市松山區敦化北路1號",
    "fac_type": "運動場館",
    "number_asylum": "436",
    "telephone": "25702330#6427 ",
    "latitude": 25.048607,
    "longitude": 121.550231,
    "Detail": ""
  },
  {
    "Name": "臺北市大同運動中心",
    "disaster_type": "颱洪",
    "region": "大同區",
    "addr": "臺北市大同區大龍51號",
    "fac_type": "運動場館",
    "number_asylum": "1000",
    "telephone": "25702330#6427 ",
    "latitude": 25.0647693,
    "longitude": 121.5161459,
    "Detail": ""
  },
  {
    "Name": "臺北市大安運動中心",
    "disaster_type": "颱洪",
    "region": "大安區",
    "addr": "臺北市大安區辛亥路3段55號",
    "fac_type": "運動場館",
    "number_asylum": "389",
    "telephone": "25702330#6424 ",
    "latitude": 25.0207769,
    "longitude": 121.545636,
    "Detail": ""
  },
  {
    "Name": "臺北市文山運動中心",
    "disaster_type": "颱洪",
    "region": "文山區",
    "addr": "臺北市文山區興隆路3段222號",
    "fac_type": "運動場館",
    "number_asylum": "189",
    "telephone": "25702330#6426 ",
    "latitude": 24.9970166,
    "longitude": 121.559673,
    "Detail": ""
  },
  {
    "Name": "建國營區",
    "disaster_type": "颱洪",
    "region": "大安區",
    "addr": "臺北市文山區辛亥路2段85號",
    "fac_type": "國軍營區",
    "number_asylum": "160",
    "telephone": "",
    "latitude": 25.0228439,
    "longitude": 121.53805,
    "Detail": ""
  },
  {
    "Name": "永春坡營區",
    "disaster_type": "颱洪",
    "region": "信義區",
    "addr": "臺北市信義區松山路653號",
    "fac_type": "國軍營區",
    "number_asylum": "100",
    "telephone": "",
    "latitude": 25.034058,
    "longitude": 121.579726,
    "Detail": ""
  },
  {
    "Name": "興德里營區",
    "disaster_type": "颱洪",
    "region": "文山區",
    "addr": "臺北市文山區興德路55號",
    "fac_type": "國軍營區",
    "number_asylum": "200",
    "telephone": "",
    "latitude": 25.0029139,
    "longitude": 121.557177,
    "Detail": ""
  },
  {
    "Name": "復興崗營區",
    "disaster_type": "颱洪",
    "region": "北投區",
    "addr": "中央北路二段70號",
    "fac_type": "國軍營區",
    "number_asylum": "200",
    "telephone": "",
    "latitude": 25.1394823,
    "longitude": 121.4915784,
    "Detail": ""
  },
  {
    "Name": "平等國小",
    "disaster_type": "颱洪",
    "region": "士林區",
    "addr": "士林區平等里平菁街101號",
    "fac_type": "學校",
    "number_asylum": "20",
    "telephone": "28610503#12",
    "latitude": 25.1291056,
    "longitude": 121.5765107,
    "Detail": ""
  },
  {
    "Name": "雙溪國小",
    "disaster_type": "颱洪",
    "region": "士林區",
    "addr": "士林區中社路2段66號",
    "fac_type": "學校",
    "number_asylum": "30",
    "telephone": "28411038*25",
    "latitude": 25.1060693,
    "longitude": 121.5638863,
    "Detail": ""
  },
  {
    "Name": "福安國中",
    "disaster_type": "颱洪",
    "region": "士林區",
    "addr": "士林區延平北路7段250號",
    "fac_type": "學校",
    "number_asylum": "30",
    "telephone": "2810-8766#141",
    "latitude": 25.102842,
    "longitude": 121.4880503,
    "Detail": ""
  },
  {
    "Name": "劍潭國小",
    "disaster_type": "颱洪",
    "region": "士林區",
    "addr": "士林區通河街16號",
    "fac_type": "學校",
    "number_asylum": "30",
    "telephone": " 28855491#831",
    "latitude": 25.0799443,
    "longitude": 121.522988,
    "Detail": ""
  },
  {
    "Name": "三玉國小",
    "disaster_type": "颱洪",
    "region": "士林區",
    "addr": "士林區天母東路116號",
    "fac_type": "學校",
    "number_asylum": "30",
    "telephone": "28751369#717",
    "latitude": 25.1180236,
    "longitude": 121.5373072,
    "Detail": ""
  },
  {
    "Name": "蘭雅國小",
    "disaster_type": "颱洪",
    "region": "士林區",
    "addr": "士林區磺溪57號",
    "fac_type": "學校",
    "number_asylum": "30",
    "telephone": "28366052#207",
    "latitude": 25.1084122,
    "longitude": 121.5231591,
    "Detail": ""
  },
  {
    "Name": "葫蘆國小",
    "disaster_type": "颱洪",
    "region": "士林區",
    "addr": "士林區環河北路3段95號",
    "fac_type": "學校",
    "number_asylum": "35",
    "telephone": "28129586#831",
    "latitude": 25.0837421,
    "longitude": 121.5069619,
    "Detail": ""
  },
  {
    "Name": "士林國中",
    "disaster_type": "颱洪",
    "region": "士林區",
    "addr": "士林區中正路345號",
    "fac_type": "學校",
    "number_asylum": "39",
    "telephone": "88613411轉520",
    "latitude": 25.094368,
    "longitude": 121.5225756,
    "Detail": ""
  },
  {
    "Name": "格致國中",
    "disaster_type": "颱洪",
    "region": "士林區",
    "addr": "士林區仰德大道4段75號",
    "fac_type": "學校",
    "number_asylum": "47",
    "telephone": "28610079*108",
    "latitude": 25.1308499,
    "longitude": 121.546354,
    "Detail": ""
  },
  {
    "Name": "士東國小",
    "disaster_type": "颱洪",
    "region": "士林區",
    "addr": "士林區中山北路6段392號",
    "fac_type": "學校",
    "number_asylum": "50",
    "telephone": "28710064*242",
    "latitude": 25.1128811,
    "longitude": 121.5267641,
    "Detail": ""
  },
  {
    "Name": "士林高商",
    "disaster_type": "颱洪",
    "region": "士林區",
    "addr": "士林區士商路150號",
    "fac_type": "學校",
    "number_asylum": "54",
    "telephone": "28313114#406",
    "latitude": 25.0945958,
    "longitude": 121.5166109,
    "Detail": ""
  },
  {
    "Name": "文昌國小",
    "disaster_type": "颱洪",
    "region": "士林區",
    "addr": "士林區文林路615巷20號",
    "fac_type": "學校",
    "number_asylum": "75",
    "telephone": "28365411*130",
    "latitude": 25.099413,
    "longitude": 121.5212888,
    "Detail": ""
  },
  {
    "Name": "天母國中",
    "disaster_type": "颱洪",
    "region": "士林區",
    "addr": "士林區天母東路120號",
    "fac_type": "學校",
    "number_asylum": "99",
    "telephone": "28754864#275",
    "latitude": 25.1180132,
    "longitude": 121.5381469,
    "Detail": ""
  },
  {
    "Name": "陽明高中",
    "disaster_type": "颱洪",
    "region": "士林區",
    "addr": "士林區中正路510號",
    "fac_type": "學校",
    "number_asylum": "110",
    "telephone": "28316675-141",
    "latitude": 25.0918395,
    "longitude": 121.5171309,
    "Detail": ""
  },
  {
    "Name": "雨農國小",
    "disaster_type": "颱洪",
    "region": "士林區",
    "addr": "士林區忠義街1號",
    "fac_type": "學校",
    "number_asylum": "124",
    "telephone": "2832-9700#101",
    "latitude": 25.1052602,
    "longitude": 121.5298543,
    "Detail": ""
  },
  {
    "Name": "蘭雅國中",
    "disaster_type": "颱洪",
    "region": "士林區",
    "addr": "士林區忠誠路2段51號",
    "fac_type": "學校",
    "number_asylum": "130",
    "telephone": "28329377",
    "latitude": 25.1106051,
    "longitude": 121.5308972,
    "Detail": ""
  },
  {
    "Name": "百齡國小",
    "disaster_type": "颱洪",
    "region": "士林區",
    "addr": "士林區福港街205號",
    "fac_type": "學校",
    "number_asylum": "137",
    "telephone": "28817683*52",
    "latitude": 25.0862066,
    "longitude": 121.5178502,
    "Detail": ""
  },
  {
    "Name": "福林國小",
    "disaster_type": "颱洪",
    "region": "士林區",
    "addr": "士林區福志路75號",
    "fac_type": "優先安置學校",
    "number_asylum": "142",
    "telephone": "28316293-226",
    "latitude": 25.0986823,
    "longitude": 121.5295952,
    "Detail": ""
  },
  {
    "Name": "天母國小",
    "disaster_type": "颱洪",
    "region": "士林區",
    "addr": "士林區天玉街12號",
    "fac_type": "學校",
    "number_asylum": "200",
    "telephone": "28723336*9502",
    "latitude": 25.1197914,
    "longitude": 121.5275331,
    "Detail": ""
  },
  {
    "Name": "雨聲國小",
    "disaster_type": "颱洪",
    "region": "士林區",
    "addr": "士林區至誠路1段62巷70號",
    "fac_type": "學校",
    "number_asylum": "300",
    "telephone": "28324532轉231",
    "latitude": 25.1026617,
    "longitude": 121.5352647,
    "Detail": ""
  },
  {
    "Name": "百齡高中",
    "disaster_type": "颱洪",
    "region": "士林區",
    "addr": "士林區承德路4段177號",
    "fac_type": "學校",
    "number_asylum": "300",
    "telephone": "28831568#307",
    "latitude": 25.0869897,
    "longitude": 121.5230618,
    "Detail": ""
  },
  {
    "Name": "明倫國小",
    "disaster_type": "颱洪",
    "region": "大同區",
    "addr": "大同區承德路3段285號",
    "fac_type": "學校",
    "number_asylum": "30",
    "telephone": "25928889轉17",
    "latitude": 25.0732086,
    "longitude": 121.5195399,
    "Detail": ""
  },
  {
    "Name": "大龍國小",
    "disaster_type": "颱洪",
    "region": "大同區",
    "addr": "大同區哈密街47號",
    "fac_type": "學校",
    "number_asylum": "30",
    "telephone": "25942635-835",
    "latitude": 25.0734012,
    "longitude": 121.5167088,
    "Detail": ""
  },
  {
    "Name": "重慶國中",
    "disaster_type": "颱洪",
    "region": "大同區",
    "addr": "大同區敦煌路19號",
    "fac_type": "優先安置學校",
    "number_asylum": "60",
    "telephone": "25948631＃242",
    "latitude": 25.0759489,
    "longitude": 121.5179258,
    "Detail": ""
  },
  {
    "Name": "延平國小",
    "disaster_type": "颱洪",
    "region": "大同區",
    "addr": "大同區昌吉街97號",
    "fac_type": "優先安置學校",
    "number_asylum": "88",
    "telephone": "25942439轉231\necho4356@yahoo.com.tw",
    "latitude": 25.0660079,
    "longitude": 121.5125023,
    "Detail": ""
  },
  {
    "Name": "民權國中",
    "disaster_type": "颱洪",
    "region": "大同區",
    "addr": "大同區重慶北路3段1號",
    "fac_type": "學校",
    "number_asylum": "30",
    "telephone": "25931951#132",
    "latitude": 25.063737,
    "longitude": 121.5138782,
    "Detail": ""
  },
  {
    "Name": "蘭州國中",
    "disaster_type": "颱洪",
    "region": "大同區",
    "addr": "大同區大龍街187巷1號",
    "fac_type": "學校",
    "number_asylum": "30",
    "telephone": "25918269#500",
    "latitude": 25.069322,
    "longitude": 121.5167356,
    "Detail": ""
  },
  {
    "Name": "忠孝國中",
    "disaster_type": "颱洪",
    "region": "大同區",
    "addr": "大同區西寧北路32號",
    "fac_type": "優先安置學校",
    "number_asylum": "131",
    "telephone": "25524890轉73",
    "latitude": 25.0512359,
    "longitude": 121.508221,
    "Detail": ""
  },
  {
    "Name": "太平國小",
    "disaster_type": "颱洪",
    "region": "大同區",
    "addr": "大同區延平北路2段239號",
    "fac_type": "學校",
    "number_asylum": "50",
    "telephone": "25532229#828",
    "latitude": 25.0613828,
    "longitude": 121.5114493,
    "Detail": ""
  },
  {
    "Name": "成淵高中",
    "disaster_type": "颱洪",
    "region": "大同區",
    "addr": "大同區承德路2段235號",
    "fac_type": "學校",
    "number_asylum": "75",
    "telephone": "25531969-150",
    "latitude": 25.0611818,
    "longitude": 121.5184618,
    "Detail": ""
  },
  {
    "Name": "大橋國小",
    "disaster_type": "颱洪",
    "region": "大同區",
    "addr": "大同區重慶北路3段2號",
    "fac_type": "學校",
    "number_asylum": "86",
    "telephone": "25944413-145",
    "latitude": 25.0642905,
    "longitude": 121.5133346,
    "Detail": ""
  },
  {
    "Name": "蓬萊國小",
    "disaster_type": "颱洪",
    "region": "大同區",
    "addr": "大同區寧夏路35號",
    "fac_type": "學校",
    "number_asylum": "104",
    "telephone": "25569835*510",
    "latitude": 25.05642,
    "longitude": 121.5155556,
    "Detail": ""
  },
  {
    "Name": "日新國小",
    "disaster_type": "颱洪",
    "region": "大同區",
    "addr": "大同區太原路151號",
    "fac_type": "學校",
    "number_asylum": "137",
    "telephone": "25584819*33",
    "latitude": 25.0544042,
    "longitude": 121.5164822,
    "Detail": ""
  },
  {
    "Name": "大同國小",
    "disaster_type": "颱洪",
    "region": "大同區",
    "addr": "大同區大龍街51號",
    "fac_type": "學校",
    "number_asylum": "183",
    "telephone": "25965407＃351",
    "latitude": 25.0647693,
    "longitude": 121.5161459,
    "Detail": ""
  },
  {
    "Name": "雙蓮國小",
    "disaster_type": "颱洪",
    "region": "大同區",
    "addr": "大同區錦西街51號",
    "fac_type": "學校",
    "number_asylum": "300",
    "telephone": "25570309",
    "latitude": 25.060161,
    "longitude": 121.5166898,
    "Detail": ""
  },
  {
    "Name": "建安國小",
    "disaster_type": "颱洪",
    "region": "大安區",
    "addr": "大安區大安路2段99號",
    "fac_type": "學校",
    "number_asylum": "30",
    "telephone": "27077119-141",
    "latitude": 25.0293959,
    "longitude": 121.5461418,
    "Detail": ""
  },
  {
    "Name": "新生國小",
    "disaster_type": "颱洪",
    "region": "大安區",
    "addr": "大安區新生南路2段36號",
    "fac_type": "學校",
    "number_asylum": "35",
    "telephone": "23913122轉231",
    "latitude": 25.0298199,
    "longitude": 121.53362,
    "Detail": ""
  },
  {
    "Name": "仁愛國小",
    "disaster_type": "颱洪",
    "region": "大安區",
    "addr": "大安區安和路1段60號",
    "fac_type": "學校",
    "number_asylum": "53",
    "telephone": "27095010/107",
    "latitude": 25.0357812,
    "longitude": 121.5523501,
    "Detail": ""
  },
  {
    "Name": "金華國小",
    "disaster_type": "颱洪",
    "region": "大安區",
    "addr": "大安區愛國東路79巷11號",
    "fac_type": "學校",
    "number_asylum": "56",
    "telephone": "23917402-831",
    "latitude": 25.0322781,
    "longitude": 121.527681,
    "Detail": ""
  },
  {
    "Name": "古亭國小",
    "disaster_type": "颱洪",
    "region": "大安區",
    "addr": "大安區羅斯福路3段",
    "fac_type": "學校",
    "number_asylum": "62",
    "telephone": "23639795#32",
    "latitude": 25.0205827,
    "longitude": 121.5287775,
    "Detail": ""
  },
  {
    "Name": "幸安國小",
    "disaster_type": "颱洪",
    "region": "大安區",
    "addr": "大安區仁愛路3段22號",
    "fac_type": "優先安置學校",
    "number_asylum": "200",
    "telephone": "27074191＃3301",
    "latitude": 25.0376279,
    "longitude": 121.5349516,
    "Detail": ""
  },
  {
    "Name": "龍安國小",
    "disaster_type": "颱洪",
    "region": "大安區",
    "addr": "大安區新生南路3段33號",
    "fac_type": "學校",
    "number_asylum": "120",
    "telephone": "23632077*731",
    "latitude": 25.0239215,
    "longitude": 121.5348854,
    "Detail": ""
  },
  {
    "Name": "仁愛國中",
    "disaster_type": "颱洪",
    "region": "大安區",
    "addr": "大安區仁愛路4段130號",
    "fac_type": "學校",
    "number_asylum": "125",
    "telephone": "23255823#222",
    "latitude": 25.0375287,
    "longitude": 121.5506735,
    "Detail": ""
  },
  {
    "Name": "龍門國中",
    "disaster_type": "颱洪",
    "region": "大安區",
    "addr": "大安區建國南路2段269號",
    "fac_type": "優先安置學校",
    "number_asylum": "300",
    "telephone": "27330299-1403",
    "latitude": 25.0246733,
    "longitude": 121.5382078,
    "Detail": ""
  },
  {
    "Name": "銘傳國小",
    "disaster_type": "颱洪",
    "region": "大安區",
    "addr": "大安區羅斯福路4段21號",
    "fac_type": "學校",
    "number_asylum": "161",
    "telephone": "23639815*16",
    "latitude": 25.0141729,
    "longitude": 121.5353457,
    "Detail": ""
  },
  {
    "Name": "大安高工",
    "disaster_type": "颱洪",
    "region": "大安區",
    "addr": "大安區復興南路2段52號",
    "fac_type": "學校",
    "number_asylum": "204",
    "telephone": "27071084#1405",
    "latitude": 25.031964,
    "longitude": 121.5432979,
    "Detail": ""
  },
  {
    "Name": "大安國中",
    "disaster_type": "颱洪",
    "region": "大安區",
    "addr": "大安區大安路2段63號",
    "fac_type": "學校",
    "number_asylum": "274",
    "telephone": "27557131轉113",
    "latitude": 25.0308449,
    "longitude": 121.5461699,
    "Detail": ""
  },
  {
    "Name": "民族國中",
    "disaster_type": "颱洪",
    "region": "大安區",
    "addr": "大安區羅斯福路4段113巷13號",
    "fac_type": "優先安置學校",
    "number_asylum": "139",
    "telephone": "27322935*234",
    "latitude": 25.0111861,
    "longitude": 121.5388738,
    "Detail": ""
  },
  {
    "Name": "懷生國中",
    "disaster_type": "颱洪",
    "region": "大安區",
    "addr": "大安區忠孝東路3段248巷30號",
    "fac_type": "學校",
    "number_asylum": "300",
    "telephone": "27215078-36",
    "latitude": 25.0403242,
    "longitude": 121.5411803,
    "Detail": ""
  },
  {
    "Name": "和平高中",
    "disaster_type": "颱洪",
    "region": "大安區",
    "addr": "大安區臥龍街100號",
    "fac_type": "學校",
    "number_asylum": "300",
    "telephone": "27324300-153",
    "latitude": 25.0196271,
    "longitude": 121.5491479,
    "Detail": ""
  },
  {
    "Name": "金華國中",
    "disaster_type": "颱洪",
    "region": "大安區",
    "addr": "大安區新生南路2段32號",
    "fac_type": "學校",
    "number_asylum": "300",
    "telephone": "33931799#522",
    "latitude": 25.0312012,
    "longitude": 121.533178,
    "Detail": ""
  },
  {
    "Name": "大直高中",
    "disaster_type": "颱洪",
    "region": "中山區",
    "addr": "中山區北安路420號",
    "fac_type": "學校",
    "number_asylum": "300",
    "telephone": "25334017轉142",
    "latitude": 25.0794612,
    "longitude": 121.5431734,
    "Detail": ""
  },
  {
    "Name": "長安國小",
    "disaster_type": "颱洪",
    "region": "中山區",
    "addr": "中山區吉林路15號",
    "fac_type": "學校",
    "number_asylum": "300",
    "telephone": "25617600#130",
    "latitude": 25.0497428,
    "longitude": 121.5301663,
    "Detail": ""
  },
  {
    "Name": "大佳國小",
    "disaster_type": "颱洪",
    "region": "中山區",
    "addr": "中山區濱江街107號",
    "fac_type": "學校",
    "number_asylum": "30",
    "telephone": "25035816＃110",
    "latitude": 25.0733443,
    "longitude": 121.5363584,
    "Detail": ""
  },
  {
    "Name": "懷生國小",
    "disaster_type": "颱洪",
    "region": "中山區",
    "addr": "中山區安東街16巷2號",
    "fac_type": "學校",
    "number_asylum": "30",
    "telephone": "27710846-511",
    "latitude": 25.0452404,
    "longitude": 121.5417844,
    "Detail": ""
  },
  {
    "Name": "北安國中",
    "disaster_type": "颱洪",
    "region": "中山區",
    "addr": "中山區明水路325號",
    "fac_type": "學校",
    "number_asylum": "30",
    "telephone": "25333888-240",
    "latitude": 25.077734,
    "longitude": 121.5416463,
    "Detail": ""
  },
  {
    "Name": "長安國中",
    "disaster_type": "颱洪",
    "region": "中山區",
    "addr": "中山區松江路70巷11號",
    "fac_type": "學校",
    "number_asylum": "41",
    "telephone": "25112382#128",
    "latitude": 25.049368,
    "longitude": 121.531854,
    "Detail": ""
  },
  {
    "Name": "長春國小",
    "disaster_type": "颱洪",
    "region": "中山區",
    "addr": "中山區長春路165號",
    "fac_type": "學校",
    "number_asylum": "47",
    "telephone": "25024366#153",
    "latitude": 25.0549293,
    "longitude": 121.5339182,
    "Detail": ""
  },
  {
    "Name": "中正國小",
    "disaster_type": "颱洪",
    "region": "中山區",
    "addr": "中山區龍江路62號",
    "fac_type": "學校",
    "number_asylum": "76",
    "telephone": "25070932#105",
    "latitude": 25.0512812,
    "longitude": 121.5404169,
    "Detail": ""
  },
  {
    "Name": "濱江國中",
    "disaster_type": "颱洪",
    "region": "中山區",
    "addr": "中山區樂群二路262號",
    "fac_type": "學校",
    "number_asylum": "86",
    "telephone": "85020126-402",
    "latitude": 25.079736,
    "longitude": 121.5608874,
    "Detail": ""
  },
  {
    "Name": "五常國小",
    "disaster_type": "颱洪",
    "region": "中山區",
    "addr": "中山區五常街16號",
    "fac_type": "學校",
    "number_asylum": "97",
    "telephone": "25023416轉832",
    "latitude": 25.064141,
    "longitude": 121.5422256,
    "Detail": ""
  },
  {
    "Name": "大直國小",
    "disaster_type": "颱洪",
    "region": "中山區",
    "addr": "中山區大直街2號",
    "fac_type": "學校",
    "number_asylum": "104",
    "telephone": "25333953轉31",
    "latitude": 25.0804685,
    "longitude": 121.5464344,
    "Detail": ""
  },
  {
    "Name": "濱江國小",
    "disaster_type": "颱洪",
    "region": "中山區",
    "addr": "中山區樂群2路266巷99號",
    "fac_type": "學校",
    "number_asylum": "114",
    "telephone": "85021571＃1401",
    "latitude": 25.0780023,
    "longitude": 121.5616374,
    "Detail": ""
  },
  {
    "Name": "新興國中",
    "disaster_type": "颱洪",
    "region": "中山區",
    "addr": "中山區林森北路511號",
    "fac_type": "優先安置學校",
    "number_asylum": "175",
    "telephone": "25714211#502",
    "latitude": 25.0619832,
    "longitude": 121.5257922,
    "Detail": ""
  },
  {
    "Name": "吉林國小",
    "disaster_type": "颱洪",
    "region": "中山區",
    "addr": "中山區長春路116號",
    "fac_type": "學校",
    "number_asylum": "117",
    "telephone": "25219196",
    "latitude": 25.054719,
    "longitude": 121.5296463,
    "Detail": ""
  },
  {
    "Name": "五常國中",
    "disaster_type": "颱洪",
    "region": "中山區",
    "addr": "中山區復興北路430巷1號",
    "fac_type": "優先安置學校",
    "number_asylum": "250",
    "telephone": "25014320#101",
    "latitude": 25.0634834,
    "longitude": 121.5431062,
    "Detail": ""
  },
  {
    "Name": "中山女中",
    "disaster_type": "颱洪",
    "region": "中山區",
    "addr": "中山區長安東路2段141號",
    "fac_type": "學校",
    "number_asylum": "135",
    "telephone": "2507-3148#241",
    "latitude": 25.0484504,
    "longitude": 121.5359793,
    "Detail": ""
  },
  {
    "Name": "大同高中",
    "disaster_type": "颱洪",
    "region": "中山區",
    "addr": "中山區長春路167號",
    "fac_type": "學校",
    "number_asylum": "300",
    "telephone": "25054269-135",
    "latitude": 25.0549113,
    "longitude": 121.5351609,
    "Detail": ""
  },
  {
    "Name": "南門國小",
    "disaster_type": "颱洪",
    "region": "中正區",
    "addr": "中正區廣州街6號",
    "fac_type": "學校",
    "number_asylum": "30",
    "telephone": "23715052#402",
    "latitude": 25.0352657,
    "longitude": 121.5090687,
    "Detail": ""
  },
  {
    "Name": "忠孝國小",
    "disaster_type": "颱洪",
    "region": "中正區",
    "addr": "中正區忠孝東路2段101號",
    "fac_type": "學校",
    "number_asylum": "30",
    "telephone": "23918170轉184",
    "latitude": 25.042929,
    "longitude": 121.5315476,
    "Detail": ""
  },
  {
    "Name": "河堤國小",
    "disaster_type": "颱洪",
    "region": "中正區",
    "addr": "中正區汀州路2段180號",
    "fac_type": "學校",
    "number_asylum": "30",
    "telephone": "23677144轉832",
    "latitude": 25.0232923,
    "longitude": 121.5226586,
    "Detail": ""
  },
  {
    "Name": "螢橋國中",
    "disaster_type": "颱洪",
    "region": "中正區",
    "addr": "中正區汀州路3段四號",
    "fac_type": "優先安置學校",
    "number_asylum": "52",
    "telephone": "23688667#234",
    "latitude": 25.0193552,
    "longitude": 121.5262353,
    "Detail": ""
  },
  {
    "Name": "忠義國小",
    "disaster_type": "颱洪",
    "region": "中正區",
    "addr": "中正區中華路2段307巷17號",
    "fac_type": "優先安置學校",
    "number_asylum": "100",
    "telephone": "23038752#231",
    "latitude": 25.0296538,
    "longitude": 121.5063262,
    "Detail": ""
  },
  {
    "Name": "國語實小",
    "disaster_type": "颱洪",
    "region": "中正區",
    "addr": "中正區南海路58號",
    "fac_type": "學校",
    "number_asylum": "49",
    "telephone": "23033555轉601",
    "latitude": 25.0307498,
    "longitude": 121.5104762,
    "Detail": ""
  },
  {
    "Name": "螢橋國小",
    "disaster_type": "颱洪",
    "region": "中正區",
    "addr": "中正區詔安街29號",
    "fac_type": "學校",
    "number_asylum": "63",
    "telephone": "23054620*109",
    "latitude": 25.0250769,
    "longitude": 121.51433,
    "Detail": ""
  },
  {
    "Name": "古亭國中",
    "disaster_type": "颱洪",
    "region": "中正區",
    "addr": "中正區中華路2段465號",
    "fac_type": "學校",
    "number_asylum": "66",
    "telephone": "23090986#511",
    "latitude": 25.0245992,
    "longitude": 121.5109999,
    "Detail": ""
  },
  {
    "Name": "東門國小",
    "disaster_type": "颱洪",
    "region": "中正區",
    "addr": "中正區仁愛路1段2-4號",
    "fac_type": "學校",
    "number_asylum": "106",
    "telephone": "23412822#23",
    "latitude": 25.038659,
    "longitude": 121.520889,
    "Detail": ""
  },
  {
    "Name": "南門國中",
    "disaster_type": "颱洪",
    "region": "中正區",
    "addr": "中正區廣州街6號",
    "fac_type": "學校",
    "number_asylum": "151",
    "telephone": "23142775*67",
    "latitude": 25.0352657,
    "longitude": 121.5090687,
    "Detail": ""
  },
  {
    "Name": "中正國中",
    "disaster_type": "颱洪",
    "region": "中正區",
    "addr": "中正區愛國東路158號",
    "fac_type": "學校",
    "number_asylum": "300",
    "telephone": "23916697轉511",
    "latitude": 25.0323421,
    "longitude": 121.5219872,
    "Detail": ""
  },
  {
    "Name": "弘道國中",
    "disaster_type": "颱洪",
    "region": "中正區",
    "addr": "中正區公園路21號",
    "fac_type": "優先安置學校",
    "number_asylum": "87",
    "telephone": "23715520#510",
    "latitude": 25.0375307,
    "longitude": 121.5152657,
    "Detail": ""
  },
  {
    "Name": "建國中學",
    "disaster_type": "颱洪",
    "region": "中正區",
    "addr": "中正區南海路56號",
    "fac_type": "學校",
    "number_asylum": "300",
    "telephone": "23034381轉502",
    "latitude": 25.0311931,
    "longitude": 121.5121697,
    "Detail": ""
  },
  {
    "Name": "文湖國小",
    "disaster_type": "颱洪",
    "region": "內湖區",
    "addr": "內湖區文湖街15號",
    "fac_type": "學校",
    "number_asylum": "30",
    "telephone": "26583515-1071",
    "latitude": 25.0857682,
    "longitude": 121.5601148,
    "Detail": ""
  },
  {
    "Name": "大湖國小",
    "disaster_type": "颱洪",
    "region": "內湖區",
    "addr": "內湖區大湖山莊街170號",
    "fac_type": "優先安置學校",
    "number_asylum": "175",
    "telephone": "27915870-52",
    "latitude": 25.0881206,
    "longitude": 121.6004795,
    "Detail": ""
  },
  {
    "Name": "潭美國小",
    "disaster_type": "颱洪",
    "region": "內湖區",
    "addr": "內湖區新明路22號",
    "fac_type": "學校",
    "number_asylum": "81",
    "telephone": "27917334*231",
    "latitude": 25.0603482,
    "longitude": 121.5905983,
    "Detail": ""
  },
  {
    "Name": "麗山國中",
    "disaster_type": "颱洪",
    "region": "內湖區",
    "addr": "內湖區內湖路1段629巷42號",
    "fac_type": "學校",
    "number_asylum": "82",
    "telephone": "27991867#401",
    "latitude": 25.0815876,
    "longitude": 121.5756782,
    "Detail": ""
  },
  {
    "Name": "西湖國小",
    "disaster_type": "颱洪",
    "region": "內湖區",
    "addr": "內湖區環山路1段25號",
    "fac_type": "學校",
    "number_asylum": "76",
    "telephone": "27971267#152",
    "latitude": 25.0838154,
    "longitude": 121.5657018,
    "Detail": ""
  },
  {
    "Name": "西湖國中",
    "disaster_type": "颱洪",
    "region": "內湖區",
    "addr": "內湖區環山路1段27號",
    "fac_type": "學校",
    "number_asylum": "106",
    "telephone": "27991817#310",
    "latitude": 25.0850274,
    "longitude": 121.5656923,
    "Detail": ""
  },
  {
    "Name": "內湖高中",
    "disaster_type": "颱洪",
    "region": "內湖區",
    "addr": "內湖區文德路218號",
    "fac_type": "學校",
    "number_asylum": "110",
    "telephone": "27977035#308",
    "latitude": 25.0783889,
    "longitude": 121.5865764,
    "Detail": ""
  },
  {
    "Name": "麗湖國小",
    "disaster_type": "颱洪",
    "region": "內湖區",
    "addr": "內湖區金湖路363巷8號",
    "fac_type": "優先安置學校",
    "number_asylum": "315",
    "telephone": "26343888＃130",
    "latitude": 25.072992,
    "longitude": 121.601146,
    "Detail": ""
  },
  {
    "Name": "明湖國小",
    "disaster_type": "颱洪",
    "region": "內湖區",
    "addr": "內湖區康寧路3段105號",
    "fac_type": "學校",
    "number_asylum": "137",
    "telephone": "26323477#41",
    "latitude": 25.0711384,
    "longitude": 121.6106047,
    "Detail": ""
  },
  {
    "Name": "東湖國中",
    "disaster_type": "颱洪",
    "region": "內湖區",
    "addr": "內湖區康樂街131號",
    "fac_type": "學校",
    "number_asylum": "138",
    "telephone": "26330373-652",
    "latitude": 25.0721987,
    "longitude": 121.6194583,
    "Detail": ""
  },
  {
    "Name": "內湖國小",
    "disaster_type": "颱洪",
    "region": "內湖區",
    "addr": "內湖區內湖路2段41號",
    "fac_type": "學校",
    "number_asylum": "150",
    "telephone": "2799-8085*317",
    "latitude": 25.0791165,
    "longitude": 121.5802084,
    "Detail": ""
  },
  {
    "Name": "康寧國小",
    "disaster_type": "颱洪",
    "region": "內湖區",
    "addr": "內湖區星雲街121號",
    "fac_type": "優先安置學校",
    "number_asylum": "247",
    "telephone": "27901237-141",
    "latitude": 25.0800201,
    "longitude": 121.5950065,
    "Detail": ""
  },
  {
    "Name": "東湖國小",
    "disaster_type": "颱洪",
    "region": "內湖區",
    "addr": "內湖區東湖路115號",
    "fac_type": "學校",
    "number_asylum": "155",
    "telephone": "2633-9984轉145",
    "latitude": 25.0684876,
    "longitude": 121.6158766,
    "Detail": ""
  },
  {
    "Name": "內湖國中",
    "disaster_type": "颱洪",
    "region": "內湖區",
    "addr": "內湖區陽光街1號",
    "fac_type": "學校",
    "number_asylum": "233",
    "telephone": "27900843#231",
    "latitude": 25.0770216,
    "longitude": 121.5886873,
    "Detail": ""
  },
  {
    "Name": "明湖國中",
    "disaster_type": "颱洪",
    "region": "內湖區",
    "addr": "內湖區康寧路3段60號",
    "fac_type": "學校",
    "number_asylum": "251",
    "telephone": "26320616*512",
    "latitude": 25.070621,
    "longitude": 121.6107147,
    "Detail": ""
  },
  {
    "Name": "內湖高工",
    "disaster_type": "颱洪",
    "region": "內湖區",
    "addr": "內湖路1段520號",
    "fac_type": "學校",
    "number_asylum": "288",
    "telephone": "26574874-122",
    "latitude": 25.0796851,
    "longitude": 121.5754917,
    "Detail": ""
  },
  {
    "Name": "三民國中",
    "disaster_type": "颱洪",
    "region": "內湖區",
    "addr": "內湖區民權東路6段45號",
    "fac_type": "學校",
    "number_asylum": "300",
    "telephone": "27924772#251",
    "latitude": 25.0691611,
    "longitude": 121.5863957,
    "Detail": ""
  },
  {
    "Name": "南湖高中",
    "disaster_type": "颱洪",
    "region": "內湖區",
    "addr": "內湖區康寧路3段220號",
    "fac_type": "學校",
    "number_asylum": "300",
    "telephone": "26308889*112",
    "latitude": 25.0690727,
    "longitude": 121.6120357,
    "Detail": ""
  },
  {
    "Name": "實踐國小",
    "disaster_type": "颱洪",
    "region": "文山區",
    "addr": "文山區忠順街1段4號",
    "fac_type": "學校",
    "number_asylum": "75",
    "telephone": "293607205＃140",
    "latitude": 24.9835772,
    "longitude": 121.5570791,
    "Detail": ""
  },
  {
    "Name": "指南國小",
    "disaster_type": "颱洪",
    "region": "文山區",
    "addr": "文山區指南路3段38巷5-2號",
    "fac_type": "學校",
    "number_asylum": "20",
    "telephone": "29393546#21",
    "latitude": 24.9763927,
    "longitude": 121.5836385,
    "Detail": ""
  },
  {
    "Name": "博嘉國小",
    "disaster_type": "颱洪",
    "region": "文山區",
    "addr": "文山區木柵路4段159巷14之1號",
    "fac_type": "學校",
    "number_asylum": "30",
    "telephone": "2230-2585",
    "latitude": 25.0017637,
    "longitude": 121.5758197,
    "Detail": ""
  },
  {
    "Name": "興德國小",
    "disaster_type": "颱洪",
    "region": "文山區",
    "addr": "文山區興隆路2段235號",
    "fac_type": "學校",
    "number_asylum": "30",
    "telephone": "29329431-37",
    "latitude": 25.0016008,
    "longitude": 121.5509478,
    "Detail": ""
  },
  {
    "Name": "萬興國小",
    "disaster_type": "颱洪",
    "region": "文山區",
    "addr": "文山區秀明路2段114號",
    "fac_type": "優先安置學校",
    "number_asylum": "125",
    "telephone": "29381721-131",
    "latitude": 24.9904294,
    "longitude": 121.5765927,
    "Detail": ""
  },
  {
    "Name": "永建國小",
    "disaster_type": "颱洪",
    "region": "文山區",
    "addr": "文山區試院路2號",
    "fac_type": "學校",
    "number_asylum": "30",
    "telephone": "22363855-123",
    "latitude": 24.9875796,
    "longitude": 121.5500432,
    "Detail": ""
  },
  {
    "Name": "辛亥國小",
    "disaster_type": "颱洪",
    "region": "文山區",
    "addr": "文山區辛亥路4段103號",
    "fac_type": "學校",
    "number_asylum": "30",
    "telephone": "29357282＃141",
    "latitude": 25.0064295,
    "longitude": 121.5592422,
    "Detail": ""
  },
  {
    "Name": "木柵國中",
    "disaster_type": "颱洪",
    "region": "文山區",
    "addr": "文山區木柵路3段102巷12號",
    "fac_type": "學校",
    "number_asylum": "30",
    "telephone": "29393031轉630",
    "latitude": 24.9874125,
    "longitude": 121.5676434,
    "Detail": ""
  },
  {
    "Name": "力行國小",
    "disaster_type": "颱洪",
    "region": "文山區",
    "addr": "文山區木新路3段155巷7號",
    "fac_type": "學校",
    "number_asylum": "30",
    "telephone": "29371093",
    "latitude": 24.9809646,
    "longitude": 121.5611427,
    "Detail": ""
  },
  {
    "Name": "萬福國小",
    "disaster_type": "颱洪",
    "region": "文山區",
    "addr": "文山區羅斯福路5段170巷32號",
    "fac_type": "學校",
    "number_asylum": "32",
    "telephone": "29353123#26",
    "latitude": 25.004867,
    "longitude": 121.536754,
    "Detail": ""
  },
  {
    "Name": "志清國小",
    "disaster_type": "颱洪",
    "region": "文山區",
    "addr": "文山區景福街21巷5號",
    "fac_type": "學校",
    "number_asylum": "35",
    "telephone": "29323875-40",
    "latitude": 24.9986645,
    "longitude": 121.5389076,
    "Detail": ""
  },
  {
    "Name": "明道國小",
    "disaster_type": "颱洪",
    "region": "文山區",
    "addr": "文山區木柵路2段138巷61號",
    "fac_type": "學校",
    "number_asylum": "42",
    "telephone": "29392821-20",
    "latitude": 24.9873333,
    "longitude": 121.5625578,
    "Detail": ""
  },
  {
    "Name": "景興國小",
    "disaster_type": "颱洪",
    "region": "文山區",
    "addr": "文山區景華街150巷21號",
    "fac_type": "優先安置學校",
    "number_asylum": "126",
    "telephone": "29329439#41",
    "latitude": 24.9964856,
    "longitude": 121.5482985,
    "Detail": ""
  },
  {
    "Name": "景美國小",
    "disaster_type": "颱洪",
    "region": "文山區",
    "addr": "文山區景文街108號",
    "fac_type": "學校",
    "number_asylum": "74",
    "telephone": "29322151#131",
    "latitude": 24.9895172,
    "longitude": 121.5407883,
    "Detail": ""
  },
  {
    "Name": "溪口國小",
    "disaster_type": "颱洪",
    "region": "文山區",
    "addr": "文山區景福街225號",
    "fac_type": "學校",
    "number_asylum": "90",
    "telephone": "29350955＃714",
    "latitude": 24.99413,
    "longitude": 121.5387574,
    "Detail": ""
  },
  {
    "Name": "景美國中",
    "disaster_type": "颱洪",
    "region": "文山區",
    "addr": "文山區景中街27號",
    "fac_type": "學校",
    "number_asylum": "80",
    "telephone": "89353130-502",
    "latitude": 24.993018,
    "longitude": 121.542961,
    "Detail": ""
  },
  {
    "Name": "萬芳高中",
    "disaster_type": "颱洪",
    "region": "文山區",
    "addr": "文山區興隆路3段115巷1號",
    "fac_type": "學校",
    "number_asylum": "131",
    "telephone": "22397281",
    "latitude": 25.0006248,
    "longitude": 121.5589135,
    "Detail": ""
  },
  {
    "Name": "興隆國小",
    "disaster_type": "颱洪",
    "region": "文山區",
    "addr": "文山區福興路2號",
    "fac_type": "學校",
    "number_asylum": "133",
    "telephone": "29323131*512",
    "latitude": 25.0024314,
    "longitude": 121.5519204,
    "Detail": ""
  },
  {
    "Name": "萬芳國小",
    "disaster_type": "颱洪",
    "region": "文山區",
    "addr": "文山區萬和街1號",
    "fac_type": "學校",
    "number_asylum": "135",
    "telephone": "2230-1232#31",
    "latitude": 25.0012878,
    "longitude": 121.5675368,
    "Detail": ""
  },
  {
    "Name": "木柵國小",
    "disaster_type": "颱洪",
    "region": "文山區",
    "addr": "文山區木柵路3段191號",
    "fac_type": "學校",
    "number_asylum": "155",
    "telephone": "29391234#131",
    "latitude": 24.9902695,
    "longitude": 121.5701489,
    "Detail": ""
  },
  {
    "Name": "木柵高工",
    "disaster_type": "颱洪",
    "region": "文山區",
    "addr": "文山區木柵路4段77號",
    "fac_type": "學校",
    "number_asylum": "169",
    "telephone": "22300506#605",
    "latitude": 24.9960019,
    "longitude": 121.5719253,
    "Detail": ""
  },
  {
    "Name": "興福國中",
    "disaster_type": "颱洪",
    "region": "文山區",
    "addr": "文山區福興路80號",
    "fac_type": "學校",
    "number_asylum": "300",
    "telephone": "29322024轉410",
    "latitude": 25.0048932,
    "longitude": 121.5498862,
    "Detail": ""
  },
  {
    "Name": "實踐國中",
    "disaster_type": "颱洪",
    "region": "文山區",
    "addr": "文山區辛亥路7段67號",
    "fac_type": "學校",
    "number_asylum": "300",
    "telephone": "22362852-150",
    "latitude": 24.9834293,
    "longitude": 121.5547688,
    "Detail": ""
  },
  {
    "Name": "景興國中",
    "disaster_type": "颱洪",
    "region": "文山區",
    "addr": "文山區景興路46巷2號",
    "fac_type": "優先安置學校",
    "number_asylum": "100",
    "telephone": "29323796＃132",
    "latitude": 24.9961864,
    "longitude": 121.544225,
    "Detail": ""
  },
  {
    "Name": "景美女中",
    "disaster_type": "颱洪",
    "region": "文山區",
    "addr": "文山區木新路3段312號",
    "fac_type": "學校",
    "number_asylum": "300",
    "telephone": "2936-8847*218",
    "latitude": 24.9805693,
    "longitude": 121.5563795,
    "Detail": ""
  },
  {
    "Name": "大屯國小",
    "disaster_type": "颱洪",
    "region": "北投區",
    "addr": "北投區復興三路312號",
    "fac_type": "學校",
    "number_asylum": "20",
    "telephone": "28914353-13）",
    "latitude": 25.154895,
    "longitude": 121.503983,
    "Detail": ""
  },
  {
    "Name": "洲美國小",
    "disaster_type": "颱洪",
    "region": "北投區",
    "addr": "北投區洲美街185號",
    "fac_type": "學校",
    "number_asylum": "20",
    "telephone": "28313619#218",
    "latitude": 25.1008241,
    "longitude": 121.5028446,
    "Detail": ""
  },
  {
    "Name": "湖田國小",
    "disaster_type": "颱洪",
    "region": "北投區",
    "addr": "北投區竹子湖路17-2號",
    "fac_type": "學校",
    "number_asylum": "20",
    "telephone": "28616963#10",
    "latitude": 25.1684568,
    "longitude": 121.538774,
    "Detail": ""
  },
  {
    "Name": "桃源國中",
    "disaster_type": "颱洪",
    "region": "北投區",
    "addr": "北投區中央北路4段48號",
    "fac_type": "優先安置學校",
    "number_asylum": "55",
    "telephone": "28929633-241",
    "latitude": 25.1347436,
    "longitude": 121.4773213,
    "Detail": ""
  },
  {
    "Name": "桃源國小",
    "disaster_type": "颱洪",
    "region": "北投區",
    "addr": "北投區中央北路3段40巷45號",
    "fac_type": "學校",
    "number_asylum": "30",
    "telephone": "28941208＃107",
    "latitude": 25.1396039,
    "longitude": 121.4844882,
    "Detail": ""
  },
  {
    "Name": "關渡國中",
    "disaster_type": "颱洪",
    "region": "北投區",
    "addr": "北投區知行路212號",
    "fac_type": "學校",
    "number_asylum": "30",
    "telephone": "28581770#51",
    "latitude": 25.1198994,
    "longitude": 121.4671379,
    "Detail": ""
  },
  {
    "Name": "清江國小",
    "disaster_type": "颱洪",
    "region": "北投區",
    "addr": "北投區公舘路220號",
    "fac_type": "學校",
    "number_asylum": "30",
    "telephone": "28912764＃301 ",
    "latitude": 25.1513306,
    "longitude": 121.5462552,
    "Detail": ""
  },
  {
    "Name": "立農國小",
    "disaster_type": "颱洪",
    "region": "北投區",
    "addr": "北投區立農街1段250號",
    "fac_type": "學校",
    "number_asylum": "30",
    "telephone": "2821-0702轉301",
    "latitude": 25.1194932,
    "longitude": 121.5052095,
    "Detail": ""
  },
  {
    "Name": "文化國小",
    "disaster_type": "颱洪",
    "region": "北投區",
    "addr": "北投區文化3路1號",
    "fac_type": "學校",
    "number_asylum": "30",
    "telephone": "28933828#131",
    "latitude": 25.1385101,
    "longitude": 121.4989151,
    "Detail": ""
  },
  {
    "Name": "北投國中",
    "disaster_type": "颱洪",
    "region": "北投區",
    "addr": "北投區溫泉路62號",
    "fac_type": "學校",
    "number_asylum": "30",
    "telephone": "28912091#402",
    "latitude": 25.1344543,
    "longitude": 121.5042015,
    "Detail": ""
  },
  {
    "Name": "明德國中",
    "disaster_type": "颱洪",
    "region": "北投區",
    "addr": "北投區明德路50號",
    "fac_type": "學校",
    "number_asylum": "88",
    "telephone": "28232539-601",
    "latitude": 25.1078101,
    "longitude": 121.5184747,
    "Detail": ""
  },
  {
    "Name": "中正高中",
    "disaster_type": "颱洪",
    "region": "北投區",
    "addr": "北投區文林北路77號",
    "fac_type": "學校",
    "number_asylum": "109",
    "telephone": "28234811*113",
    "latitude": 25.1044123,
    "longitude": 121.516608,
    "Detail": ""
  },
  {
    "Name": "明德國小",
    "disaster_type": "颱洪",
    "region": "北投區",
    "addr": "北投區明德路190號",
    "fac_type": "學校",
    "number_asylum": "109",
    "telephone": "28229651＃1121",
    "latitude": 25.1121146,
    "longitude": 121.521808,
    "Detail": ""
  },
  {
    "Name": "關渡國小",
    "disaster_type": "颱洪",
    "region": "北投區",
    "addr": "北投區中央北路4段581號",
    "fac_type": "學校",
    "number_asylum": "110",
    "telephone": "28912847#241",
    "latitude": 25.1268487,
    "longitude": 121.4668446,
    "Detail": ""
  },
  {
    "Name": "石牌國小",
    "disaster_type": "颱洪",
    "region": "北投區",
    "addr": "北投區致遠2路80號",
    "fac_type": "學校",
    "number_asylum": "112",
    "telephone": "2822-7484*32",
    "latitude": 25.109329,
    "longitude": 121.515823,
    "Detail": ""
  },
  {
    "Name": "義方國小",
    "disaster_type": "颱洪",
    "region": "北投區",
    "addr": "北投區珠海路155號",
    "fac_type": "學校",
    "number_asylum": "120",
    "telephone": "28917433#131",
    "latitude": 25.1419502,
    "longitude": 121.5093086,
    "Detail": ""
  },
  {
    "Name": "文林國小",
    "disaster_type": "颱洪",
    "region": "北投區",
    "addr": "北投區文林北路155號",
    "fac_type": "學校",
    "number_asylum": "300",
    "telephone": "28234212轉401",
    "latitude": 25.1059048,
    "longitude": 121.5147443,
    "Detail": ""
  },
  {
    "Name": "復興高中",
    "disaster_type": "颱洪",
    "region": "北投區",
    "addr": "北投區復興四路70號",
    "fac_type": "學校",
    "number_asylum": "300",
    "telephone": "2891-4131*787",
    "latitude": 25.1435907,
    "longitude": 121.5017997,
    "Detail": ""
  },
  {
    "Name": "敦化國小",
    "disaster_type": "颱洪",
    "region": "松山區",
    "addr": "松山區敦化北路2號",
    "fac_type": "學校",
    "number_asylum": "56",
    "telephone": "2741-4065#130",
    "latitude": 25.0491037,
    "longitude": 121.5485306,
    "Detail": ""
  },
  {
    "Name": "介壽國中",
    "disaster_type": "颱洪",
    "region": "松山區",
    "addr": "松山區延壽街401號",
    "fac_type": "學校",
    "number_asylum": "57",
    "telephone": "27674496#501",
    "latitude": 25.0564241,
    "longitude": 121.5564267,
    "Detail": ""
  },
  {
    "Name": "民生國小",
    "disaster_type": "颱洪",
    "region": "松山區",
    "addr": "松山區敦化北路199巷18號",
    "fac_type": "優先安置學校",
    "number_asylum": "70",
    "telephone": "27122452#830",
    "latitude": 25.0565324,
    "longitude": 121.5521224,
    "Detail": ""
  },
  {
    "Name": "健康國小",
    "disaster_type": "颱洪",
    "region": "松山區",
    "addr": "松山區延壽街168號",
    "fac_type": "學校",
    "number_asylum": "84",
    "telephone": "2528-2814#136",
    "latitude": 25.0567043,
    "longitude": 121.5627419,
    "Detail": ""
  },
  {
    "Name": "松山國小",
    "disaster_type": "颱洪",
    "region": "松山區",
    "addr": "松山區八德路4段746號",
    "fac_type": "學校",
    "number_asylum": "95",
    "telephone": "27672907#633",
    "latitude": 25.049035,
    "longitude": 121.567605,
    "Detail": ""
  },
  {
    "Name": "三民國小",
    "disaster_type": "颱洪",
    "region": "松山區",
    "addr": "松山區民權東路5段1號",
    "fac_type": "優先安置學校",
    "number_asylum": "214",
    "telephone": "27646080-231",
    "latitude": 25.0632227,
    "longitude": 121.5642866,
    "Detail": ""
  },
  {
    "Name": "中山國中",
    "disaster_type": "颱洪",
    "region": "松山區",
    "addr": "松山區復興北路361巷7號",
    "fac_type": "學校",
    "number_asylum": "111",
    "telephone": "27126701#512",
    "latitude": 25.0606008,
    "longitude": 121.5455468,
    "Detail": ""
  },
  {
    "Name": "敦化國中",
    "disaster_type": "颱洪",
    "region": "松山區",
    "addr": "松山區南京東路3段300號",
    "fac_type": "優先安置學校",
    "number_asylum": "389",
    "telephone": "87717890*50",
    "latitude": 25.0515415,
    "longitude": 121.5467071,
    "Detail": ""
  },
  {
    "Name": "西松高中",
    "disaster_type": "颱洪",
    "region": "松山區",
    "addr": "松山區健康路325巷7號",
    "fac_type": "學校",
    "number_asylum": "255",
    "telephone": "25286618#111",
    "latitude": 25.0555511,
    "longitude": 121.5670822,
    "Detail": ""
  },
  {
    "Name": "中崙高中",
    "disaster_type": "颱洪",
    "region": "松山區",
    "addr": "松山區八德路4段101號",
    "fac_type": "學校",
    "number_asylum": "300",
    "telephone": "27535316ext 400",
    "latitude": 25.0487115,
    "longitude": 121.561191,
    "Detail": ""
  },
  {
    "Name": "民生國中",
    "disaster_type": "颱洪",
    "region": "松山區",
    "addr": "松山區新東街30巷1號",
    "fac_type": "學校",
    "number_asylum": "300",
    "telephone": "27653433轉301",
    "latitude": 25.0597793,
    "longitude": 121.566716,
    "Detail": ""
  },
  {
    "Name": "信義國小",
    "disaster_type": "颱洪",
    "region": "信義區",
    "addr": "信義區松勤街60號",
    "fac_type": "優先安置學校",
    "number_asylum": "150",
    "telephone": "27204005轉832",
    "latitude": 25.0318604,
    "longitude": 121.5632007,
    "Detail": ""
  },
  {
    "Name": "永吉國小",
    "disaster_type": "颱洪",
    "region": "信義區",
    "addr": "信義區松山路287巷5號",
    "fac_type": "學校",
    "number_asylum": "53",
    "telephone": "87858111#700",
    "latitude": 25.0430088,
    "longitude": 121.5798853,
    "Detail": ""
  },
  {
    "Name": "三興國小",
    "disaster_type": "颱洪",
    "region": "信義區",
    "addr": "信義區基隆路2段99號",
    "fac_type": "學校",
    "number_asylum": "77",
    "telephone": "27364687#51",
    "latitude": 25.029467,
    "longitude": 121.558267,
    "Detail": ""
  },
  {
    "Name": "永吉國中",
    "disaster_type": "颱洪",
    "region": "信義區",
    "addr": "信義區松隆路161號",
    "fac_type": "學校",
    "number_asylum": "97",
    "telephone": "27649066轉125",
    "latitude": 25.0482363,
    "longitude": 121.5741453,
    "Detail": ""
  },
  {
    "Name": "福德國小",
    "disaster_type": "颱洪",
    "region": "信義區",
    "addr": "信義區福德街253號",
    "fac_type": "學校",
    "number_asylum": "105",
    "telephone": "27277992*21",
    "latitude": 25.0388696,
    "longitude": 121.5865111,
    "Detail": ""
  },
  {
    "Name": "興雅國中",
    "disaster_type": "颱洪",
    "region": "信義區",
    "addr": "信義區松德路168巷15號",
    "fac_type": "優先安置學校",
    "number_asylum": "151",
    "telephone": "27232771#50",
    "latitude": 25.0364201,
    "longitude": 121.572237,
    "Detail": ""
  },
  {
    "Name": "永春國小",
    "disaster_type": "颱洪",
    "region": "信義區",
    "addr": "信義區松山路225巷48號",
    "fac_type": "學校",
    "number_asylum": "115",
    "telephone": "27664397",
    "latitude": 25.0446527,
    "longitude": 121.5790792,
    "Detail": ""
  },
  {
    "Name": "松山家商",
    "disaster_type": "颱洪",
    "region": "信義區",
    "addr": "信義區松山路655號",
    "fac_type": "學校",
    "number_asylum": "116",
    "telephone": "27261118*411",
    "latitude": 25.0349631,
    "longitude": 121.5801123,
    "Detail": ""
  },
  {
    "Name": "博愛國小",
    "disaster_type": "颱洪",
    "region": "信義區",
    "addr": "信義區松仁路95巷20號",
    "fac_type": "優先安置學校",
    "number_asylum": "80",
    "telephone": "23450616#400",
    "latitude": 25.0363748,
    "longitude": 121.5709034,
    "Detail": ""
  },
  {
    "Name": "信義國中",
    "disaster_type": "颱洪",
    "region": "信義區",
    "addr": "信義區松仁路158巷1號",
    "fac_type": "優先安置學校",
    "number_asylum": "361",
    "telephone": "27236771轉511",
    "latitude": 25.0286441,
    "longitude": 121.5675767,
    "Detail": ""
  },
  {
    "Name": "興雅國小",
    "disaster_type": "颱洪",
    "region": "信義區",
    "addr": "信義區基隆路1段83巷9號",
    "fac_type": "學校",
    "number_asylum": "198",
    "telephone": "27618156~611",
    "latitude": 25.04676,
    "longitude": 121.5700539,
    "Detail": ""
  },
  {
    "Name": "永春高中",
    "disaster_type": "颱洪",
    "region": "信義區",
    "addr": "信義區松山路654號",
    "fac_type": "學校",
    "number_asylum": "300",
    "telephone": "27272983#501",
    "latitude": 25.0328193,
    "longitude": 121.5785688,
    "Detail": ""
  },
  {
    "Name": "松山高中",
    "disaster_type": "颱洪",
    "region": "信義區",
    "addr": "信義區基隆路1段156號",
    "fac_type": "學校",
    "number_asylum": "300",
    "telephone": "27535968-268",
    "latitude": 25.0436455,
    "longitude": 121.5655884,
    "Detail": ""
  },
  {
    "Name": "玉成國小",
    "disaster_type": "颱洪",
    "region": "南港區",
    "addr": "南港區向陽路31號",
    "fac_type": "學校",
    "number_asylum": "30",
    "telephone": "27836049-150",
    "latitude": 25.0535838,
    "longitude": 121.5947448,
    "Detail": ""
  },
  {
    "Name": "胡適國小",
    "disaster_type": "颱洪",
    "region": "南港區",
    "addr": "南港區舊莊街1段1號",
    "fac_type": "學校",
    "number_asylum": "30",
    "telephone": "27824949-930",
    "latitude": 25.0424041,
    "longitude": 121.6172458,
    "Detail": ""
  },
  {
    "Name": "東新國小",
    "disaster_type": "颱洪",
    "region": "南港區",
    "addr": "南港區興南街62號",
    "fac_type": "學校",
    "number_asylum": "30",
    "telephone": "27837577*34",
    "latitude": 25.0554318,
    "longitude": 121.6021907,
    "Detail": ""
  },
  {
    "Name": "成德國小",
    "disaster_type": "颱洪",
    "region": "南港區",
    "addr": "南港區東新街65號",
    "fac_type": "優先安置學校",
    "number_asylum": "200",
    "telephone": "27851376-151",
    "latitude": 25.0468797,
    "longitude": 121.586908,
    "Detail": ""
  },
  {
    "Name": "誠正國中",
    "disaster_type": "颱洪",
    "region": "南港區",
    "addr": "南港區富康街1巷42號",
    "fac_type": "學校",
    "number_asylum": "143",
    "telephone": "27828094#1500",
    "latitude": 25.053495,
    "longitude": 121.617051,
    "Detail": ""
  },
  {
    "Name": "南港高工",
    "disaster_type": "颱洪",
    "region": "南港區",
    "addr": "南港區興中路29號",
    "fac_type": "學校",
    "number_asylum": "160",
    "telephone": "27825432#1506",
    "latitude": 25.0562158,
    "longitude": 121.6074293,
    "Detail": ""
  },
  {
    "Name": "成德國中",
    "disaster_type": "颱洪",
    "region": "南港區",
    "addr": "南港區東新街108巷23號",
    "fac_type": "學校",
    "number_asylum": "300",
    "telephone": "2651-5636轉401",
    "latitude": 25.045021,
    "longitude": 121.587729,
    "Detail": ""
  },
  {
    "Name": "南港高中",
    "disaster_type": "颱洪",
    "region": "南港區",
    "addr": "南港區向陽路21號",
    "fac_type": "優先安置學校",
    "number_asylum": "435",
    "telephone": "2783-7863轉241",
    "latitude": 25.0524116,
    "longitude": 121.5950265,
    "Detail": ""
  },
  {
    "Name": "西園國小",
    "disaster_type": "颱洪",
    "region": "萬華區",
    "addr": "萬華區東園街73巷23號6樓",
    "fac_type": "學校",
    "number_asylum": "30",
    "telephone": "23030257＃125",
    "latitude": 25.026277,
    "longitude": 121.497235,
    "Detail": ""
  },
  {
    "Name": "雙園國中",
    "disaster_type": "颱洪",
    "region": "萬華區",
    "addr": "萬華區興義街2號",
    "fac_type": "學校",
    "number_asylum": "30",
    "telephone": "23030827-147",
    "latitude": 25.0275524,
    "longitude": 121.4926437,
    "Detail": ""
  },
  {
    "Name": "華江國小",
    "disaster_type": "颱洪",
    "region": "萬華區",
    "addr": "萬華區環河南路2段250巷42弄2號",
    "fac_type": "學校",
    "number_asylum": "37",
    "telephone": "23064352#24",
    "latitude": 25.0340688,
    "longitude": 121.491174,
    "Detail": ""
  },
  {
    "Name": "新和國小",
    "disaster_type": "颱洪",
    "region": "萬華區",
    "addr": "萬華區西藏路125巷31號",
    "fac_type": "優先安置學校",
    "number_asylum": "79",
    "telephone": "23038298#31 ",
    "latitude": 25.0259732,
    "longitude": 121.5033238,
    "Detail": ""
  },
  {
    "Name": "福星國小",
    "disaster_type": "颱洪",
    "region": "萬華區",
    "addr": "萬華區中華路1段66號",
    "fac_type": "學校",
    "number_asylum": "50",
    "telephone": "2314-4668#106",
    "latitude": 25.0467829,
    "longitude": 121.5089051,
    "Detail": ""
  },
  {
    "Name": "萬華國中",
    "disaster_type": "颱洪",
    "region": "萬華區",
    "addr": "萬華區西藏路201號",
    "fac_type": "學校",
    "number_asylum": "50",
    "telephone": "23394567-130",
    "latitude": 25.0291112,
    "longitude": 121.4988141,
    "Detail": ""
  },
  {
    "Name": "龍山國小",
    "disaster_type": "颱洪",
    "region": "萬華區",
    "addr": "萬華區和平西路3段235號",
    "fac_type": "學校",
    "number_asylum": "50",
    "telephone": "23082977-731",
    "latitude": 25.035631,
    "longitude": 121.4958451,
    "Detail": ""
  },
  {
    "Name": "大理國小",
    "disaster_type": "颱洪",
    "region": "萬華區",
    "addr": "萬華區艋舺大道389號",
    "fac_type": "學校",
    "number_asylum": "63",
    "telephone": "23064311#1400",
    "latitude": 25.031305,
    "longitude": 121.4939132,
    "Detail": ""
  },
  {
    "Name": "萬大國小",
    "disaster_type": "颱洪",
    "region": "萬華區",
    "addr": "大同區萬大路346號",
    "fac_type": "學校",
    "number_asylum": "66",
    "telephone": "23037654*311",
    "latitude": 25.0229727,
    "longitude": 121.4993502,
    "Detail": ""
  },
  {
    "Name": "雙園國小",
    "disaster_type": "颱洪",
    "region": "萬華區",
    "addr": "萬華區莒光路315號",
    "fac_type": "優先安置學校",
    "number_asylum": "109",
    "telephone": "23061893#134",
    "latitude": 25.0309508,
    "longitude": 121.4981706,
    "Detail": ""
  },
  {
    "Name": "西門國小",
    "disaster_type": "颱洪",
    "region": "萬華區",
    "addr": "萬華區成都路98號",
    "fac_type": "學校",
    "number_asylum": "95",
    "telephone": "23319490",
    "latitude": 25.0432257,
    "longitude": 121.5035892,
    "Detail": ""
  },
  {
    "Name": "華江高中",
    "disaster_type": "颱洪",
    "region": "萬華區",
    "addr": "萬華區西藏路213號",
    "fac_type": "學校",
    "number_asylum": "300",
    "telephone": "23019946轉142",
    "latitude": 25.0285569,
    "longitude": 121.4962369,
    "Detail": ""
  },
  {
    "Name": "大理高中",
    "disaster_type": "颱洪",
    "region": "萬華區",
    "addr": "萬華區長順街2號",
    "fac_type": "學校",
    "number_asylum": "300",
    "telephone": "23026959轉142",
    "latitude": 25.030855,
    "longitude": 121.4912274,
    "Detail": ""
  },
  {
    "Name": "財團法人台北市\n基督教改革宗宏恩堂",
    "disaster_type": "颱洪",
    "region": "松山區",
    "addr": "南京東路4段75巷32號",
    "fac_type": "寺廟",
    "number_asylum": "75",
    "telephone": "2713-5447",
    "latitude": 25.053011,
    "longitude": 121.553539,
    "Detail": ""
  },
  {
    "Name": "財團法人基督教\n台北神的教會",
    "disaster_type": "颱洪",
    "region": "松山區",
    "addr": "南京東路4段53巷7弄1號",
    "fac_type": "寺廟",
    "number_asylum": "45",
    "telephone": "2712-9220",
    "latitude": 25.052776,
    "longitude": 121.551025,
    "Detail": ""
  },
  {
    "Name": "財團法人台北市\n復原耶穌基督教會",
    "disaster_type": "颱洪",
    "region": "松山區",
    "addr": "八德路4段699號8樓之1",
    "fac_type": "寺廟",
    "number_asylum": "25",
    "telephone": "2765-0884",
    "latitude": 25.0500556,
    "longitude": 121.5765576,
    "Detail": ""
  },
  {
    "Name": "財團法人中華基督教\n浸信會錫安堂",
    "disaster_type": "颱洪",
    "region": "松山區",
    "addr": "南京東路5段343號4樓",
    "fac_type": "寺廟",
    "number_asylum": "35",
    "telephone": "2768-8684",
    "latitude": 25.053239,
    "longitude": 121.560446,
    "Detail": ""
  },
  {
    "Name": "台北佛教蓮社",
    "disaster_type": "颱洪",
    "region": "松山區",
    "addr": "南京東路5段59巷29弄4號",
    "fac_type": "寺廟",
    "number_asylum": "125",
    "telephone": "2768-1522",
    "latitude": 25.052998,
    "longitude": 121.559527,
    "Detail": ""
  },
  {
    "Name": "松山霞海城隍廟",
    "disaster_type": "颱洪",
    "region": "松山區",
    "addr": "八德路4段439號",
    "fac_type": "寺廟",
    "number_asylum": "20",
    "telephone": "2765-2046",
    "latitude": 25.0497488,
    "longitude": 121.5702454,
    "Detail": ""
  },
  {
    "Name": "法光寺",
    "disaster_type": "颱洪",
    "region": "松山區",
    "addr": "光復北路60巷20號",
    "fac_type": "寺廟",
    "number_asylum": "500",
    "telephone": "2579-1940",
    "latitude": 25.049964,
    "longitude": 121.55694,
    "Detail": ""
  },
  {
    "Name": "財團法人台北市松山慈祐宮",
    "disaster_type": "颱洪",
    "region": "松山區",
    "addr": "八德路4段761號",
    "fac_type": "寺廟",
    "number_asylum": "25",
    "telephone": "2766-3012",
    "latitude": 25.0500942,
    "longitude": 121.5776612,
    "Detail": ""
  },
  {
    "Name": "景美集應廟",
    "disaster_type": "颱洪",
    "region": "文山區",
    "addr": "文山區景美街37號",
    "fac_type": "寺廟",
    "number_asylum": "20",
    "telephone": "29348446 ",
    "latitude": 24.9917137,
    "longitude": 121.5418346,
    "Detail": ""
  },
  {
    "Name": "木柵忠順廟",
    "disaster_type": "颱洪",
    "region": "文山區",
    "addr": "文山區中崙路13號",
    "fac_type": "寺廟",
    "number_asylum": "10",
    "telephone": "29394852 ",
    "latitude": 24.9836509,
    "longitude": 121.564602,
    "Detail": ""
  },
  {
    "Name": "財團法人台北保安宮",
    "disaster_type": "颱洪",
    "region": "大同區",
    "addr": "大同區哈密街61號",
    "fac_type": "寺廟",
    "number_asylum": "100",
    "telephone": "25951676",
    "latitude": 25.0731504,
    "longitude": 121.5154297,
    "Detail": ""
  },
  {
    "Name": "財團法人台北普濟寺",
    "disaster_type": "颱洪",
    "region": "大同區",
    "addr": "大同區華陰街100號(301042,2771674)",
    "fac_type": "寺廟",
    "number_asylum": "100",
    "telephone": "25587046",
    "latitude": 25.050495,
    "longitude": 121.514106,
    "Detail": ""
  },
  {
    "Name": "財團法人覺修宮",
    "disaster_type": "颱洪",
    "region": "大同區",
    "addr": "大同區重慶北路3段340號",
    "fac_type": "寺廟",
    "number_asylum": "200",
    "telephone": "25928042",
    "latitude": 25.0762909,
    "longitude": 121.513543,
    "Detail": ""
  },
  {
    "Name": "法主公廟",
    "disaster_type": "颱洪",
    "region": "大同區",
    "addr": "大同區南京西路344巷2號",
    "fac_type": "寺廟",
    "number_asylum": "200",
    "telephone": "25562964",
    "latitude": 25.0538121,
    "longitude": 121.5120999,
    "Detail": ""
  },
  {
    "Name": "行天宮北投分宮",
    "disaster_type": "颱洪",
    "region": "北投區",
    "addr": "北投區一德里中央北路4段18巷50號",
    "fac_type": "寺廟",
    "number_asylum": "50",
    "telephone": "2718-0171#229",
    "latitude": 25.1370094,
    "longitude": 121.4775702,
    "Detail": ""
  },
  {
    "Name": "關渡宮",
    "disaster_type": "颱洪",
    "region": "北投區",
    "addr": "北投區關渡里知行路360號",
    "fac_type": "寺廟",
    "number_asylum": "150",
    "telephone": "2858-1281#207",
    "latitude": 25.1176841,
    "longitude": 121.4643868,
    "Detail": ""
  },
  {
    "Name": "松山奉天宮",
    "disaster_type": "颱洪",
    "region": "信義區",
    "addr": "信義區福德街221巷12號",
    "fac_type": "寺廟",
    "number_asylum": "150",
    "telephone": "27279765",
    "latitude": 25.0373846,
    "longitude": 121.5846688,
    "Detail": ""
  },
  {
    "Name": "松山慈惠堂",
    "disaster_type": "颱洪",
    "region": "信義區",
    "addr": "信義區福德街251巷33號",
    "fac_type": "寺廟",
    "number_asylum": "200",
    "telephone": "27261735轉205",
    "latitude": 25.0365198,
    "longitude": 121.5874838,
    "Detail": ""
  },
  {
    "Name": "三玉宮",
    "disaster_type": "颱洪",
    "region": "士林區",
    "addr": "天福里天母東路臨6號",
    "fac_type": "寺廟",
    "number_asylum": "30",
    "telephone": "2871-3000 ",
    "latitude": 25.1182594,
    "longitude": 121.5301029,
    "Detail": ""
  },
  {
    "Name": "東方寺",
    "disaster_type": "颱洪",
    "region": "士林區",
    "addr": "公館里永公路245巷24號",
    "fac_type": "寺廟",
    "number_asylum": "30",
    "telephone": "2861-6170",
    "latitude": 25.123166,
    "longitude": 121.559056,
    "Detail": ""
  },
  {
    "Name": "葫蘆寺",
    "disaster_type": "颱洪",
    "region": "士林區",
    "addr": "葫蘆里延平北路5段285巷35號",
    "fac_type": "寺廟",
    "number_asylum": "40",
    "telephone": "2815-0595 ",
    "latitude": 25.085195,
    "longitude": 121.508332,
    "Detail": ""
  },
  {
    "Name": "湧泉寺",
    "disaster_type": "颱洪",
    "region": "士林區",
    "addr": "臨溪里劍南路211號",
    "fac_type": "寺廟",
    "number_asylum": "45",
    "telephone": "2841-1597",
    "latitude": 25.098878,
    "longitude": 121.5554273,
    "Detail": ""
  },
  {
    "Name": "神農宮",
    "disaster_type": "颱洪",
    "region": "士林區",
    "addr": "舊佳里前街74號",
    "fac_type": "寺廟",
    "number_asylum": "90",
    "telephone": "2836-5897",
    "latitude": 25.0978029,
    "longitude": 121.5263577,
    "Detail": ""
  },
  {
    "Name": "士林天主堂",
    "disaster_type": "颱洪",
    "region": "士林區",
    "addr": "福佳里中正路264號",
    "fac_type": "寺廟",
    "number_asylum": "180",
    "telephone": "2832-4270",
    "latitude": 25.0953519,
    "longitude": 121.52436,
    "Detail": ""
  },
  {
    "Name": "共和宮",
    "disaster_type": "颱洪",
    "region": "士林區",
    "addr": "社新里社子街117號",
    "fac_type": "寺廟",
    "number_asylum": "200",
    "telephone": "2812-4828",
    "latitude": 25.0882219,
    "longitude": 121.505295,
    "Detail": ""
  },
  {
    "Name": "坤天亭",
    "disaster_type": "颱洪",
    "region": "士林區",
    "addr": "富洲里延平北路8段96巷15號",
    "fac_type": "寺廟",
    "number_asylum": "100",
    "telephone": "2810-6227",
    "latitude": 25.1064693,
    "longitude": 121.4834249,
    "Detail": ""
  },
  {
    "Name": "普宜苑",
    "disaster_type": "颱洪",
    "region": "士林區",
    "addr": "溪山里至善路3段181巷5弄7號",
    "fac_type": "寺廟",
    "number_asylum": "330",
    "telephone": "2841-3393",
    "latitude": 25.121421,
    "longitude": 121.57738,
    "Detail": ""
  },
  {
    "Name": "台北市內湖區碧霞宮",
    "disaster_type": "颱洪",
    "region": "內湖區",
    "addr": "碧山路29號",
    "fac_type": "寺廟",
    "number_asylum": "50",
    "telephone": "27946839",
    "latitude": 25.0956192,
    "longitude": 121.5881535,
    "Detail": ""
  },
  {
    "Name": "台北護國延平宮",
    "disaster_type": "颱洪",
    "region": "內湖區",
    "addr": "內湖路3段348巷6號",
    "fac_type": "寺廟",
    "number_asylum": "100",
    "telephone": "27934700",
    "latitude": 25.0913789,
    "longitude": 121.583492,
    "Detail": ""
  },
  {
    "Name": "財團法人金龍院",
    "disaster_type": "颱洪",
    "region": "內湖區",
    "addr": "內湖路3段256巷2號樓",
    "fac_type": "寺廟",
    "number_asylum": "100",
    "telephone": "27123412",
    "latitude": 25.091562,
    "longitude": 121.586778,
    "Detail": ""
  },
  {
    "Name": "碧山巖開漳聖王廟",
    "disaster_type": "颱洪",
    "region": "內湖區",
    "addr": "碧山路24號",
    "fac_type": "寺廟",
    "number_asylum": "200",
    "telephone": "27963755",
    "latitude": 25.097296,
    "longitude": 121.587663,
    "Detail": ""
  },
  {
    "Name": "財團法人台灣基督教恩惠福音會",
    "disaster_type": "颱洪",
    "region": "內湖區",
    "addr": "內湖路1段608號",
    "fac_type": "寺廟",
    "number_asylum": "150",
    "telephone": "27977494",
    "latitude": 25.078551,
    "longitude": 121.578602,
    "Detail": ""
  },
  {
    "Name": "財團法人台北基督徒麗山禮拜堂",
    "disaster_type": "颱洪",
    "region": "內湖區",
    "addr": "麗山街348巷22號",
    "fac_type": "寺廟",
    "number_asylum": "20",
    "telephone": "26277252",
    "latitude": 25.081954,
    "longitude": 121.5742339,
    "Detail": ""
  },
  {
    "Name": "財團法人大湖基督教會",
    "disaster_type": "颱洪",
    "region": "內湖區",
    "addr": "金湖路16-3號",
    "fac_type": "寺廟",
    "number_asylum": "60",
    "telephone": "27935242",
    "latitude": 25.0834039,
    "longitude": 121.595998,
    "Detail": ""
  },
  {
    "Name": "財團法人台北市基督教浸信會榮恩堂",
    "disaster_type": "颱洪",
    "region": "內湖區",
    "addr": "內湖路3段143巷6號",
    "fac_type": "寺廟",
    "number_asylum": "70",
    "telephone": "27906286",
    "latitude": 25.086975,
    "longitude": 121.589346,
    "Detail": ""
  },
  {
    "Name": "台北市基督教改革宗長老會東光教會",
    "disaster_type": "颱洪",
    "region": "內湖區",
    "addr": "東湖路113巷50號1樓之1",
    "fac_type": "寺廟",
    "number_asylum": "60",
    "telephone": "26334345",
    "latitude": 25.070608,
    "longitude": 121.616096,
    "Detail": ""
  },
  {
    "Name": "慈濟功德會內湖聯絡處",
    "disaster_type": "颱洪",
    "region": "內湖區",
    "addr": "成功路5段168號",
    "fac_type": "寺廟",
    "number_asylum": "1200",
    "telephone": "",
    "latitude": 25.0834259,
    "longitude": 121.605294,
    "Detail": ""
  },
  {
    "Name": "光華寺",
    "disaster_type": "颱洪",
    "region": "中正區",
    "addr": "水源路157號",
    "fac_type": "寺廟",
    "number_asylum": "20",
    "telephone": "23032373",
    "latitude": 25.023875,
    "longitude": 121.515649,
    "Detail": ""
  },
  {
    "Name": "南福宮",
    "disaster_type": "颱洪",
    "region": "中正區",
    "addr": "和平西路1段55巷1號",
    "fac_type": "寺廟",
    "number_asylum": "100",
    "telephone": "23920979",
    "latitude": 25.027025,
    "longitude": 121.519892,
    "Detail": ""
  },
  {
    "Name": "財團法人台北市東和禪寺",
    "disaster_type": "颱洪",
    "region": "中正區",
    "addr": "仁愛路一段21-33號",
    "fac_type": "寺廟",
    "number_asylum": "100",
    "telephone": "23934598",
    "latitude": 25.039447,
    "longitude": 121.522558,
    "Detail": ""
  },
  {
    "Name": "財團法人台北市十普寺",
    "disaster_type": "颱洪",
    "region": "中正區",
    "addr": "南昌路2段140號",
    "fac_type": "寺廟",
    "number_asylum": "60",
    "telephone": "23649824",
    "latitude": 25.025249,
    "longitude": 121.522826,
    "Detail": ""
  },
  {
    "Name": "財團法人台北市永靜廟",
    "disaster_type": "颱洪",
    "region": "中山區",
    "addr": "錦西街9號",
    "fac_type": "寺廟",
    "number_asylum": "6",
    "telephone": "2541-6038",
    "latitude": 25.060624,
    "longitude": 121.52151,
    "Detail": ""
  },
  {
    "Name": "財團法人景福宮",
    "disaster_type": "颱洪",
    "region": "中山區",
    "addr": "德惠街11號",
    "fac_type": "寺廟",
    "number_asylum": "180",
    "telephone": "2596-9325",
    "latitude": 25.066943,
    "longitude": 121.5255499,
    "Detail": ""
  },
  {
    "Name": "財團法人台北市臨濟護國禪寺",
    "disaster_type": "颱洪",
    "region": "",
    "addr": "酒泉街5巷27號(中山區寺廟)",
    "fac_type": "",
    "number_asylum": "0",
    "telephone": "2594-8308",
    "latitude": 25.070742,
    "longitude": 121.519241,
    "Detail": ""
  },
  {
    "Name": "財團法人台北市妙道院",
    "disaster_type": "颱洪",
    "region": "中山區",
    "addr": "農安街87號",
    "fac_type": "寺廟",
    "number_asylum": "11",
    "telephone": "2594-5420",
    "latitude": 25.0649749,
    "longitude": 121.528863,
    "Detail": ""
  },
  {
    "Name": "財團法人台北行天宮",
    "disaster_type": "颱洪",
    "region": "中山區",
    "addr": "民權東路2段109號",
    "fac_type": "寺廟",
    "number_asylum": "300",
    "telephone": "2502-7924",
    "latitude": 25.0628658,
    "longitude": 121.5338733,
    "Detail": ""
  },
  {
    "Name": "財團法人台北市蓮友念佛團",
    "disaster_type": "颱洪",
    "region": "中山區",
    "addr": "朱崙街63號",
    "fac_type": "寺廟",
    "number_asylum": "4",
    "telephone": "2771-4544",
    "latitude": 25.0499434,
    "longitude": 121.5422058,
    "Detail": ""
  },
  {
    "Name": "財團法人劍潭古寺",
    "disaster_type": "颱洪",
    "region": "中山區",
    "addr": "北安路805巷6號",
    "fac_type": "寺廟",
    "number_asylum": "100",
    "telephone": "2532-3834",
    "latitude": 25.086177,
    "longitude": 121.5553568,
    "Detail": ""
  },
  {
    "Name": "大忠宮",
    "disaster_type": "颱洪",
    "region": "中山區",
    "addr": "中山北路4段71巷2弄臨5號",
    "fac_type": "寺廟",
    "number_asylum": "40",
    "telephone": "2885-6791",
    "latitude": 25.079833,
    "longitude": 121.52585,
    "Detail": ""
  },
  {
    "Name": "圓通巖",
    "disaster_type": "颱洪",
    "region": "",
    "addr": "中山北路4段1巷1弄3號(中山區寺廟)",
    "fac_type": "",
    "number_asylum": "0",
    "telephone": "2885-5726",
    "latitude": 25.081628,
    "longitude": 121.528751,
    "Detail": ""
  },
  {
    "Name": "中嶽殿",
    "disaster_type": "颱洪",
    "region": "中山區",
    "addr": "民族東路115號",
    "fac_type": "寺廟",
    "number_asylum": "90",
    "telephone": "2505-4267",
    "latitude": 25.068383,
    "longitude": 121.538393,
    "Detail": ""
  },
  {
    "Name": "台北神德宮",
    "disaster_type": "颱洪",
    "region": "中山區",
    "addr": "濱江街180巷13號",
    "fac_type": "寺廟",
    "number_asylum": "30",
    "telephone": "2503-2358",
    "latitude": 25.068955,
    "longitude": 121.538181,
    "Detail": ""
  },
  {
    "Name": "台北市圓玄學社",
    "disaster_type": "颱洪",
    "region": "中山區",
    "addr": "長春路163巷18號",
    "fac_type": "寺廟",
    "number_asylum": "30",
    "telephone": "2502-7096",
    "latitude": 25.055565,
    "longitude": 121.5334321,
    "Detail": ""
  },
  {
    "Name": "慧日講堂",
    "disaster_type": "颱洪",
    "region": "中山區",
    "addr": "朱崙街36號",
    "fac_type": "寺廟",
    "number_asylum": "60",
    "telephone": "2771-1417",
    "latitude": 25.0498811,
    "longitude": 121.5413616,
    "Detail": ""
  },
  {
    "Name": "下塔悠福德爺宮",
    "disaster_type": "颱洪",
    "region": "中山區",
    "addr": "敬業三路196號",
    "fac_type": "寺廟",
    "number_asylum": "200",
    "telephone": "2532-2416",
    "latitude": 25.080057,
    "longitude": 121.5563275,
    "Detail": ""
  }
]
