{"type":"FeatureCollection","features":[{"type":"Feature","geometry":{"type":"Point","coordinates":[153.0429601,-27.38283393]},"properties":{"id":1,"Park Code":"D0228","Park Name":"7TH BRIGADE PARK","Street":"HAMILTON RD","Suburb":"CHERMSIDE","Node Id":16377,"Playground Name":"BEOR ST PLAYGROUND","Comments":0}},{"type":"Feature","geometry":{"type":"Point","coordinates":[153.0454851,-27.37841513]},"properties":{"id":2,"Park Code":"D0228","Park Name":"7TH BRIGADE PARK","Street":"HAMILTON RD","Suburb":"CHERMSIDE","Node Id":16380,"Playground Name":"DELAWARE ST PLAYGROUND","Comments":0}},{"type":"Feature","geometry":{"type":"Point","coordinates":[153.0344464,-27.37640331]},"properties":{"id":3,"Park Code":"D0228","Park Name":"7TH BRIGADE PARK","Street":"HAMILTON RD","Suburb":"CHERMSIDE","Node Id":16388,"Playground Name":"NAVARRE ST PLAYGROUND","Comments":0}},{"type":"Feature","geometry":{"type":"Point","coordinates":[153.0337881,-27.3784171]},"properties":{"id":4,"Park Code":"D0228","Park Name":"7TH BRIGADE PARK","Street":"HAMILTON RD","Suburb":"CHERMSIDE","Node Id":16396,"Playground Name":"'KIDSPACE' DISTRICT PLAYGROUND","Comments":0}},{"type":"Feature","geometry":{"type":"Point","coordinates":[153.0457117,-27.37889219]},"properties":{"id":5,"Park Code":"D0228","Park Name":"7TH BRIGADE PARK","Street":"HAMILTON RD","Suburb":"CHERMSIDE","Node Id":30177,"Playground Name":"DELWARE ST PLAYGROUND (NEWMAN RD SECTION)","Comments":0}},{"type":"Feature","geometry":{"type":"Point","coordinates":[153.05579,-27.38560887]},"properties":{"id":6,"Park Code":"D0696","Park Name":"A.R.C.HILL PARK","Street":"GOSS RD","Suburb":"VIRGINIA","Node Id":17683,"Playground Name":"GOSS RD PLAYGROUND","Comments":0}},{"type":"Feature","geometry":{"type":"Point","coordinates":[153.0883013,-27.54475436]},"properties":{"id":7,"Park Code":"D0432","Park Name":"ABBEVILLE STREET PARK","Street":"ABBEVILLE ST","Suburb":"UPR MT GRAVATT","Node Id":15815,"Playground Name":"KINGSWAY ST PLAYGROUND","Comments":0}},{"type":"Feature","geometry":{"type":"Point","coordinates":[153.0855349,-27.49956668]},"properties":{"id":8,"Park Code":"D1009","Park Name":"ABBOTT STREET PARK","Street":"ABBOTT ST","Suburb":"CAMP HILL","Node Id":12899,"Playground Name":"ABBOT ST PLAYGROUND","Comments":0}},{"type":"Feature","geometry":{"type":"Point","coordinates":[153.0078976,-27.49905729]},"properties":{"id":9,"Park Code":"D0409","Park Name":"ACACIA PARK","Street":"CARMODY RD","Suburb":"ST LUCIA","Node Id":19898,"Playground Name":"ACACIA PK PLAYGROUND","Comments":0}},{"type":"Feature","geometry":{"type":"Point","coordinates":[152.9354673,-27.50112422]},"properties":{"id":10,"Park Code":"D1518","Park Name":"ADVANX STREET PARK","Street":"MIRBELIA ST","Suburb":"KENMORE HILLS","Node Id":17903,"Playground Name":"ADVANX ST PLAYGROUND","Comments":0}},{"type":"Feature","geometry":{"type":"Point","coordinates":[152.9515058,-27.51104143]},"properties":{"id":11,"Park Code":"D1515","Park Name":"AKUNA STREET PARK","Street":"AKUNA ST","Suburb":"KENMORE","Node Id":17907,"Playground Name":"AKUNA ST PLAYGROUND","Comments":0}},{"type":"Feature","geometry":{"type":"Point","coordinates":[152.9592296,-27.44806691]},"properties":{"id":12,"Park Code":"D1015","Park Name":"ALAN WILLING PLACE PARK","Street":"BERNARRA ST","Suburb":"THE GAP","Node Id":19363,"Playground Name":"ALAN WILLING PLAYGROUND","Comments":0}},{"type":"Feature","geometry":{"type":"Point","coordinates":[153.0069263,-27.35935363]},"properties":{"id":13,"Park Code":"D1709","Park Name":"ALBANY CREEK ROAD PARK (NO.151)","Street":"ALBANY CREEK RD","Suburb":"ASPLEY","Node Id":30938,"Playground Name":"LIVINGSTON ST PLAYGROUND","Comments":0}},{"type":"Feature","geometry":{"type":"Point","coordinates":[152.9801428,-27.34990896]},"properties":{"id":14,"Park Code":"D0800","Park Name":"ALBANY CREEK ROAD RESERVE","Street":"ALBANY CREEK RD","Suburb":"BRIDGEMAN DOWNS","Node Id":12179,"Playground Name":"ALBANY CREEK RD PLAYGROUND","Comments":0}},{"type":"Feature","geometry":{"type":"Point","coordinates":[153.068307,-27.40406627]},"properties":{"id":15,"Park Code":"D0464","Park Name":"ALBERT BISHOP PARK","Street":"HEDLEY AVE","Suburb":"NUNDAH","Node Id":17506,"Playground Name":"HEDLEY AVE (BUCKLAND RD) PLAYGROUND","Comments":0}},{"type":"Feature","geometry":{"type":"Point","coordinates":[153.0673967,-27.40731104]},"properties":{"id":16,"Park Code":"D0464","Park Name":"ALBERT BISHOP PARK","Street":"HEDLEY AVE","Suburb":"NUNDAH","Node Id":17510,"Playground Name":"HEDLEY AVE (HOWS RD) PLAYGROUND","Comments":0}},{"type":"Feature","geometry":{"type":"Point","coordinates":[153.0702826,-27.40617208]},"properties":{"id":17,"Park Code":"D0464","Park Name":"ALBERT BISHOP PARK","Street":"HEDLEY AVE","Suburb":"NUNDAH","Node Id":17511,"Playground Name":"LEAGUES CLUB PLAYGROUND","Comments":0}},{"type":"Feature","geometry":{"type":"Point","coordinates":[153.0555825,-27.560947]},"properties":{"id":18,"Park Code":"D1077","Park Name":"ALCHERINGA PLACE PARK","Street":"ALCHERINGA PL","Suburb":"ROBERTSON","Node Id":20512,"Playground Name":"ALCHERINGA PLACE PLAYGROUND","Comments":0}},{"type":"Feature","geometry":{"type":"Point","coordinates":[153.0529184,-27.56116471]},"properties":{"id":19,"Park Code":"D1077","Park Name":"ALCHERINGA PLACE PARK","Street":"ALCHERINGA PL","Suburb":"ROBERTSON","Node Id":20514,"Playground Name":"HILLARDT ST PLAYGROUND","Comments":0}},{"type":"Feature","geometry":{"type":"Point","coordinates":[153.0122494,-27.39584976]},"properties":{"id":20,"Park Code":"D0212","Park Name":"ALDREN STREET PARK","Street":"MARYLAND ST","Suburb":"STAFFORD HTS","Node Id":16692,"Playground Name":"ALDREN ST PLAYGROUND","Comments":0}},{"type":"Feature","geometry":{"type":"Point","coordinates":[153.0884416,-27.37160584]},"properties":{"id":21,"Park Code":"D2054","Park Name":"ALEXANDER MACPHERSON PARK","Street":"JESSICA CRES","Suburb":"NUDGEE","Node Id":17406,"Playground Name":"ALEXANDER MACPHERSON PK PLAYGROUND","Comments":0}},{"type":"Feature","geometry":{"type":"Point","coordinates":[153.0238714,-27.53942456]},"properties":{"id":22,"Park Code":"D0542","Park Name":"ALEXANDER PARK","Street":"BEAUDESERT RD","Suburb":"MOOROOKA","Node Id":16983,"Playground Name":"CURREY AV PLAYGROUND","Comments":0}},{"type":"Feature","geometry":{"type":"Point","coordinates":[153.0295386,-27.63645465]},"properties":{"id":23,"Park Code":"D1722","Park Name":"ALGESTER ROAD PARK (NO.515)","Street":"ALGESTER RD","Suburb":"PARKINSON","Node Id":11626,"Playground Name":"ALGESTER RD PLAYGROUND","Comments":0}},{"type":"Feature","geometry":{"type":"Point","coordinates":[153.0784773,-27.4629468]},"properties":{"id":24,"Park Code":"D1611","Park Name":"ALGOORI STREET PARK","Street":"ALGOORI ST","Suburb":"MORNINGSIDE","Node Id":17158,"Playground Name":"BEVERLEY ST PLAYGROUND","Comments":0}},{"type":"Feature","geometry":{"type":"Point","coordinates":[152.9352722,-27.45000573]},"properties":{"id":25,"Park Code":"D1155","Park Name":"ALLAMANDA STREET PARK","Street":"ALLAMANDA ST","Suburb":"THE GAP","Node Id":19260,"Playground Name":"ALLAMANDA ST PLAYGROUND","Comments":0}},{"type":"Feature","geometry":{"type":"Point","coordinates":[153.0966683,-27.583133]},"properties":{"id":26,"Park Code":"D1148","Park Name":"ALLARA PLACE PARK","Street":"LOGAN RD","Suburb":"EIGHT MILE PLNS","Node Id":20373,"Playground Name":"ALLARA PLACE PLAYGROUND","Comments":0}},{"type":"Feature","geometry":{"type":"Point","coordinates":[153.0817894,-27.58966968]},"properties":{"id":27,"Park Code":"D0909","Park Name":"ALLAWAH STREET PARK","Street":"ALLAWAH ST","Suburb":"YEERONGPILLY","Node Id":13996,"Playground Name":"ALLAWAH ST PLAYGROUND","Comments":0}},{"type":"Feature","geometry":{"type":"Point","coordinates":[152.9946737,-27.37182822]},"properties":{"id":28,"Park Code":"D1281","Park Name":"ALTHORP ROAD PARK","Street":"ALTHORP RD","Suburb":"BRIDGEMAN DOWNS","Node Id":22783,"Playground Name":"GOLDBERG PLACE PLAYGROUND","Comments":0}},{"type":"Feature","geometry":{"type":"Point","coordinates":[152.9872413,-27.44375374]},"properties":{"id":29,"Park Code":"D1303","Park Name":"AMARINA AVENUE PARK (ROAD RESERVE)","Street":"AMARINA AVE","Suburb":"ASHGROVE","Node Id":19267,"Playground Name":"AMARINA AVE PLAYGROUND","Comments":0}},{"type":"Feature","geometry":{"type":"Point","coordinates":[152.9473907,-27.52898943]},"properties":{"id":30,"Park Code":"D1381","Park Name":"AMAZON PLACE PARK","Street":"AMAZONS PL","Suburb":"JINDALEE","Node Id":16020,"Playground Name":"AMAZONS PL PLAYGROUND","Comments":0}},{"type":"Feature","geometry":{"type":"Point","coordinates":[152.9565635,-27.53453573]},"properties":{"id":31,"Park Code":"D1381","Park Name":"AMAZON PLACE PARK","Street":"AMAZONS PL","Suburb":"JINDALEE","Node Id":26574,"Playground Name":"BURDEKIN DVE PLAYGROUND (SINNAMON PK)","Comments":0}},{"type":"Feature","geometry":{"type":"Point","coordinates":[153.1645475,-27.47232995]},"properties":{"id":32,"Park Code":"D0936","Park Name":"AMBERJACK STREET PARK","Street":"AMBERJACK ST","Suburb":"MANLY WEST","Node Id":13679,"Playground Name":"AMBERJACK ST PLAYGROUND","Comments":0}},{"type":"Feature","geometry":{"type":"Point","coordinates":[153.0340925,-27.4146377]},"properties":{"id":33,"Park Code":"D0248","Park Name":"AMELIA PARK","Street":"MCCORD ST","Suburb":"GORDON PARK","Node Id":15300,"Playground Name":"SWAN ST PLAYGROUND (CLOSED FOR ROADWORKS)","Comments":"Temporary closure for road works"}},{"type":"Feature","geometry":{"type":"Point","coordinates":[153.016309,-27.39874456]},"properties":{"id":34,"Park Code":"D0211","Park Name":"AMOTT STREET PARK","Street":"RINGROSE ST","Suburb":"STAFFORD HTS","Node Id":16698,"Playground Name":"AMOTT ST PLAYGROUND","Comments":0}},{"type":"Feature","geometry":{"type":"Point","coordinates":[153.1074709,-27.50617283]},"properties":{"id":35,"Park Code":"D0911","Park Name":"ANNA SMITH OBE QUOTA PARK","Street":"KIDWELLY ST","Suburb":"CARINDALE","Node Id":12825,"Playground Name":"QUOTA PK (KIDWELLY ST) PLAYGROUND","Comments":0}},{"type":"Feature","geometry":{"type":"Point","coordinates":[153.0220289,-27.59389899]},"properties":{"id":36,"Park Code":"D1592","Park Name":"ANTRIM STREET PARK","Street":"LIMERICK ST","Suburb":"ACACIA RIDGE","Node Id":11578,"Playground Name":"ANTRIM ST PLAYGROUND","Comments":0}},{"type":"Feature","geometry":{"type":"Point","coordinates":[152.9804839,-27.47999433]},"properties":{"id":37,"Park Code":"D0467","Park Name":"ANZAC PARK","Street":"MT COOT-THA RD","Suburb":"TOOWONG","Node Id":19825,"Playground Name":"ANZAC PK PLAYGROUND","Comments":0}},{"type":"Feature","geometry":{"type":"Point","coordinates":[153.0912162,-27.49874207]},"properties":{"id":38,"Park Code":"D1128","Park Name":"ANZAC ROAD PARK","Street":"GALLIPOLI RD","Suburb":"CARINA HEIGHTS","Node Id":12907,"Playground Name":"BIRDWOOD RD PLAYGROUND","Comments":0}},{"type":"Feature","geometry":{"type":"Point","coordinates":[153.0699731,-27.47954368]},"properties":{"id":39,"Park Code":"D1392","Park Name":"APPIA AVENUE PARK","Street":"APPIA AVE","Suburb":"SEVEN HILLS","Node Id":17192,"Playground Name":"APPIA AVE PLAYGROUND","Comments":0}},{"type":"Feature","geometry":{"type":"Point","coordinates":[153.1522261,-27.47631032]},"properties":{"id":40,"Park Code":"D2995","Park Name":"ARENGA STREET PARK","Street":"ARENGA ST","Suburb":"WAKERLEY","Node Id":30443,"Playground Name":"ARENGA ST PLAYGROUND","Comments":0}},{"type":"Feature","geometry":{"type":"Point","coordinates":[152.9582974,-27.62368642]},"properties":{"id":41,"Park Code":"D1384","Park Name":"ARGYLE PLACE PARK","Street":"ARGYLE PL","Suburb":"FOREST LAKE","Node Id":18471,"Playground Name":"AUGUSTA CRESCENT PLAYGROUND","Comments":0}},{"type":"Feature","geometry":{"type":"Point","coordinates":[153.0626711,-27.42936923]},"properties":{"id":42,"Park Code":"D0166","Park Name":"ASCOT PARK","Street":"KITCHENER RD","Suburb":"ASCOT","Node Id":15629,"Playground Name":"ASCOT PARK PLAYGROUND","Comments":0}},{"type":"Feature","geometry":{"type":"Point","coordinates":[152.9906701,-27.44486744]},"properties":{"id":43,"Park Code":"D0188","Park Name":"ASHGROVE MEMORIAL PARK","Street":"KADANGA ST","Suburb":"ASHGROVE","Node Id":19562,"Playground Name":"ASHGROVE MEMORIAL PK PLAYGROUND","Comments":0}},{"type":"Feature","geometry":{"type":"Point","coordinates":[152.9732252,-27.44197621]},"properties":{"id":44,"Park Code":"D0186","Park Name":"ASHGROVE SPORTSGROUND PARK","Street":"ACACIA DR","Suburb":"ASHGROVE","Node Id":19571,"Playground Name":"ASHGROVE SPORTSGROUND PLAYGROUND","Comments":0}},{"type":"Feature","geometry":{"type":"Point","coordinates":[153.0155519,-27.35591917]},"properties":{"id":45,"Park Code":"D0217","Park Name":"ASPLEY REST PARK","Street":"GYMPIE RD","Suburb":"CARSELDINE","Node Id":12327,"Playground Name":"GRAHAM RD PLAYGROUND","Comments":0}},{"type":"Feature","geometry":{"type":"Point","coordinates":[153.0806403,-27.47297566]},"properties":{"id":46,"Park Code":"D1149","Park Name":"AUSTIN UHLMANN PARK","Street":"RICHMOND RD","Suburb":"MORNINGSIDE","Node Id":17178,"Playground Name":"AUSTIN UHLMANN PK PLAYGROUND","Comments":0}},{"type":"Feature","geometry":{"type":"Point","coordinates":[152.9449051,-27.54453352]},"properties":{"id":47,"Park Code":"D0919","Park Name":"AVONDALE PARK","Street":"BLYDE ST","Suburb":"SINNAMON PARK","Node Id":16056,"Playground Name":"AVONDALE PK PLAYGROUND & ACTIVITY SPACE","Comments":0}},{"type":"Feature","geometry":{"type":"Point","coordinates":[152.9390614,-27.4321826]},"properties":{"id":48,"Park Code":"D1809","Park Name":"BADRICK PARK","Street":"INWOOD PL","Suburb":"THE GAP","Node Id":19223,"Playground Name":"INWOOD PLACE PLAYGROUND","Comments":0}},{"type":"Feature","geometry":{"type":"Point","coordinates":[152.9556313,-27.56939777]},"properties":{"id":49,"Park Code":"D0326","Park Name":"BALFOUR PARK","Street":"WINSLOW ST","Suburb":"DARRA","Node Id":18630,"Playground Name":"BALFOUR PK PLAYGROUND","Comments":0}},{"type":"Feature","geometry":{"type":"Point","coordinates":[152.9828907,-27.3974139]},"properties":{"id":50,"Park Code":"D0778","Park Name":"BALLINDERRY STREET PARK","Street":"BALLINDERRY ST","Suburb":"EVERTON PARK","Node Id":16604,"Playground Name":"BALLENDERRY ST PLAYGROUND","Comments":0}},{"type":"Feature","geometry":{"type":"Point","coordinates":[153.0658325,-27.47354318]},"properties":{"id":51,"Park Code":"D0028","Park Name":"BALMORAL PARK","Street":"WYNNUM RD","Suburb":"MORNINGSIDE","Node Id":17387,"Playground Name":"BALMORAL PK PLAYGROUND","Comments":0}},{"type":"Feature","geometry":{"type":"Point","coordinates":[153.005625,-27.44418972]},"properties":{"id":52,"Park Code":"D0197","Park Name":"BANCROFT PARK","Street":"KELVIN GROVE RD","Suburb":"KELVIN GROVE","Node Id":12465,"Playground Name":"BANCROFT PK PLAYGROUND","Comments":0}},{"type":"Feature","geometry":{"type":"Point","coordinates":[153.0013911,-27.36525873]},"properties":{"id":53,"Park Code":"D1277","Park Name":"BANGALOW STREET PARK (NO.192)","Street":"BANGALOW ST","Suburb":"BRIDGEMAN DOWNS","Node Id":16525,"Playground Name":"BANGALOW ST PLAYGROUND","Comments":0}},{"type":"Feature","geometry":{"type":"Point","coordinates":[153.1498247,-27.45141068]},"properties":{"id":54,"Park Code":"D1010","Park Name":"BANKS CRESCENT PARK","Street":"BANKS CRES","Suburb":"WYNNUM WEST","Node Id":20822,"Playground Name":"BANKS CRES PLAYGROUND","Comments":0}},{"type":"Feature","geometry":{"type":"Point","coordinates":[152.9658968,-27.61197845]},"properties":{"id":55,"Park Code":"D1296","Park Name":"BANKSIA VILLAGE PARK","Street":"BANKSIA CRCT","Suburb":"FOREST LAKE","Node Id":18393,"Playground Name":"BANKSIA CCT PLAYGROUND","Comments":0}},{"type":"Feature","geometry":{"type":"Point","coordinates":[153.0784486,-27.37374597]},"properties":{"id":56,"Park Code":"D0444","Park Name":"BANYO MEMORIAL PARK","Street":"ST VINCENTS RD","Suburb":"BANYO","Node Id":17642,"Playground Name":"BANYO MEMORIAL PK PLAYGROUND","Comments":0}},{"type":"Feature","geometry":{"type":"Point","coordinates":[153.0197535,-27.32302906]},"properties":{"id":57,"Park Code":"D1293","Park Name":"BARBOUR ROAD PARK","Street":"CANTERBURY ST","Suburb":"BRACKEN RIDGE","Node Id":12087,"Playground Name":"THE OAKS PLAYGROUND","Comments":0}},{"type":"Feature","geometry":{"type":"Point","coordinates":[153.0572629,-27.34256642]},"properties":{"id":58,"Park Code":"D0239","Park Name":"BARLOW PLACE PARK","Street":"GERTRUDE ST","Suburb":"BOONDALL","Node Id":13386,"Playground Name":"BARLOW PLACE PK PLAYGROUND","Comments":0}},{"type":"Feature","geometry":{"type":"Point","coordinates":[153.167285,-27.47178303]},"properties":{"id":59,"Park Code":"D0939","Park Name":"BARRAMUNDI STREET PARK","Street":"BARRAMUNDI ST","Suburb":"MANLY WEST","Node Id":13675,"Playground Name":"BARRAMUNDI ST PLAYGROUND","Comments":0}},{"type":"Feature","geometry":{"type":"Point","coordinates":[153.0320502,-27.32035841]},"properties":{"id":60,"Park Code":"D1394","Park Name":"BARRETT STREET PARK (WATER RESERVE)","Street":"SNOOKER ST","Suburb":"BRACKEN RIDGE","Node Id":12121,"Playground Name":"BARRETT ST PLAYGROUND","Comments":0}},{"type":"Feature","geometry":{"type":"Point","coordinates":[153.0637129,-27.50162113]},"properties":{"id":61,"Park Code":"D0124","Park Name":"BARSTON PLACE PARK","Street":"NORFOLK ST","Suburb":"COORPAROO","Node Id":14489,"Playground Name":"BARSTON PLACE PK PLAYGROUND","Comments":0}},{"type":"Feature","geometry":{"type":"Point","coordinates":[153.1560323,-27.4827034]},"properties":{"id":62,"Park Code":"D2148","Park Name":"BARWIN STREET PARK","Street":"BARWIN ST","Suburb":"WAKERLEY","Node Id":30385,"Playground Name":"BARWIN ST PLAYGROUND","Comments":0}},{"type":"Feature","geometry":{"type":"Point","coordinates":[153.1872275,-27.4518831]},"properties":{"id":63,"Park Code":"D0517","Park Name":"BAYSIDE PARK","Street":"ESPLANADE","Suburb":"MANLY","Node Id":21002,"Playground Name":"BAYSIDE PK METROPOLITAN PLAYGROUND","Comments":0}},{"type":"Feature","geometry":{"type":"Point","coordinates":[152.9853345,-27.60758289]},"properties":{"id":64,"Park Code":"D2043","Park Name":"BECCARIA PLACE PARK","Street":"BECCARIA PL","Suburb":"DOOLANDELLA","Node Id":23003,"Playground Name":"BECCARIA PLACE PLAYGROUND","Comments":0}},{"type":"Feature","geometry":{"type":"Point","coordinates":[152.9916064,-27.37411453]},"properties":{"id":65,"Park Code":"D1132","Park Name":"BECKETT ROAD PARK","Street":"PARAMOUNT CRCT","Suburb":"MCDOWALL","Node Id":16632,"Playground Name":"PARAMOUNT CRCT PLAYGROUND & ACTIVITY SPACE","Comments":0}},{"type":"Feature","geometry":{"type":"Point","coordinates":[153.0281117,-27.4572083]},"properties":{"id":66,"Park Code":"D0074","Park Name":"BEDFORD PLAYGROUND PARK","Street":"QUARRY ST","Suburb":"SPRING HILL","Node Id":12607,"Playground Name":"BEDFORD PLAYGROUND","Comments":0}},{"type":"Feature","geometry":{"type":"Point","coordinates":[153.0583982,-27.33403849]},"properties":{"id":67,"Park Code":"D0294","Park Name":"BEERWAH STREET PARK","Street":"BURRALONG ST","Suburb":"DEAGON","Node Id":13197,"Playground Name":"BEERWAH ST (CENTRAL) PLAYGROUND","Comments":0}},{"type":"Feature","geometry":{"type":"Point","coordinates":[153.0999841,-27.60839049]},"properties":{"id":68,"Park Code":"D1977","Park Name":"BEKKER PLACE PARK","Street":"SHUTTLEWORTH ST","Suburb":"KURABY","Node Id":30894,"Playground Name":"BEKKER PLACE PLAYGROUND","Comments":0}},{"type":"Feature","geometry":{"type":"Point","coordinates":[153.0619449,-27.59866264]},"properties":{"id":69,"Park Code":"D0801","Park Name":"BELDALE PARK","Street":"DAPPER ST","Suburb":"SUNNYBANK HILLS","Node Id":19012,"Playground Name":"BELDALE PK PLAYGROUND & ACTIVITY SPACE","Comments":0}},{"type":"Feature","geometry":{"type":"Point","coordinates":[152.9955868,-27.49332397]},"properties":{"id":70,"Park Code":"D0414","Park Name":"BELLEVUE TERRACE PARK","Street":"SIR FRED SCHONELL DR","Suburb":"ST LUCIA","Node Id":19870,"Playground Name":"BELLVUE TCE PLAYGROUND","Comments":0}},{"type":"Feature","geometry":{"type":"Point","coordinates":[153.0425826,-27.39718952]},"properties":{"id":71,"Park Code":"D0234","Park Name":"BELLOY STREET PARK","Street":"BELLOY ST","Suburb":"WAVELL HEIGHTS","Node Id":17730,"Playground Name":"BELLOY ST PLAYGROUND","Comments":0}},{"type":"Feature","geometry":{"type":"Point","coordinates":[153.0960049,-27.49521055]},"properties":{"id":72,"Park Code":"D0067","Park Name":"BELMONT RECREATION RESERVE","Street":"OLD CLEVELAND RD","Suburb":"CARINA","Node Id":13841,"Playground Name":"NARRACOTT ST PLAYGROUND","Comments":0}},{"type":"Feature","geometry":{"type":"Point","coordinates":[153.0113528,-27.36561877]},"properties":{"id":73,"Park Code":"D0823","Park Name":"BEN LOMOND STREET PARK","Street":"BEN LOMOND ST","Suburb":"ASPLEY","Node Id":16589,"Playground Name":"BEN LOMAND ST PLAYGROUND","Comments":0}},{"type":"Feature","geometry":{"type":"Point","coordinates":[153.0427435,-27.60166712]},"properties":{"id":74,"Park Code":"D1299","Park Name":"BENBEK CIRCUIT PARK","Street":"BENBEK CRCT","Suburb":"SUNNYBANK HILLS","Node Id":18825,"Playground Name":"BENBEK CRCT PLAYGROUND","Comments":0}},{"type":"Feature","geometry":{"type":"Point","coordinates":[153.0546762,-27.59225594]},"properties":{"id":75,"Park Code":"D0767","Park Name":"BENDELL PARK","Street":"BORELLA RD","Suburb":"SUNNYBANK HILLS","Node Id":19046,"Playground Name":"BENDELL PK PLAYGROUND","Comments":0}},{"type":"Feature","geometry":{"type":"Point","coordinates":[153.0405859,-27.4051676]},"properties":{"id":76,"Park Code":"D0577","Park Name":"BENELONG PARK","Street":"ELEVENTH AVE","Suburb":"KEDRON","Node Id":17548,"Playground Name":"BENELONG PK PLAYGROUND","Comments":0}},{"type":"Feature","geometry":{"type":"Point","coordinates":[152.9412461,-27.45324455]},"properties":{"id":77,"Park Code":"D1201","Park Name":"BENJAMINA PLACE PARK","Street":"BENJAMINA PL","Suburb":"THE GAP","Node Id":19295,"Playground Name":"BENJAMINA PLACE PLAYGROUND","Comments":0}},{"type":"Feature","geometry":{"type":"Point","coordinates":[153.0093414,-27.35723431]},"properties":{"id":78,"Park Code":"D0817","Park Name":"BENSARA PLACE PARK","Street":"SALITO ST","Suburb":"CARSELDINE","Node Id":12167,"Playground Name":"BENSARA PLACE PLAYGROUND","Comments":0}},{"type":"Feature","geometry":{"type":"Point","coordinates":[153.0996826,-27.54898354]},"properties":{"id":79,"Park Code":"D1777","Park Name":"BERKSHIRE CRESCENT PARK","Street":"BERKSHIRE CRES","Suburb":"WISHART","Node Id":20340,"Playground Name":"BERKSHIRE CRES PLAYGROUND","Comments":0}},{"type":"Feature","geometry":{"type":"Point","coordinates":[153.0090028,-27.31381754]},"properties":{"id":80,"Park Code":"D0781","Park Name":"BERT WOLFE PARK","Street":"ULVA ST","Suburb":"BALD HILLS","Node Id":12205,"Playground Name":"BERT WOLFE PK PLAYGROUND","Comments":0}},{"type":"Feature","geometry":{"type":"Point","coordinates":[153.0642985,-27.53362486]},"properties":{"id":81,"Park Code":"D0888","Park Name":"BERYL MCKENZIE PARK","Street":"NURSERY RD","Suburb":"HOLLAND PK WEST","Node Id":15730,"Playground Name":"BERYL MCKENZIE PK PLAYGROUND","Comments":0}},{"type":"Feature","geometry":{"type":"Point","coordinates":[153.0416458,-27.56622415]},"properties":{"id":82,"Park Code":"D0730","Park Name":"BERYL ROBERTS PARK","Street":"BARODA ST","Suburb":"COOPERS PLAINS","Node Id":17097,"Playground Name":"BARHAM ST PLAYGROUND","Comments":0}},{"type":"Feature","geometry":{"type":"Point","coordinates":[153.0403183,-27.56518634]},"properties":{"id":83,"Park Code":"D0730","Park Name":"BERYL ROBERTS PARK","Street":"BARODA ST","Suburb":"COOPERS PLAINS","Node Id":17101,"Playground Name":"PERINA ST PLAYGROUND","Comments":0}},{"type":"Feature","geometry":{"type":"Point","coordinates":[152.9670237,-27.53925117]},"properties":{"id":84,"Park Code":"D0259","Park Name":"BIAMBI YUMBA PARK","Street":"KENNY ST","Suburb":"FIG TREE POCKET","Node Id":20257,"Playground Name":"BIAMBI YUMBA PK PLAYGROUND (UNDER RECONSTRUCTION)","Comments":"Temporary closure for flood repairs"}},{"type":"Feature","geometry":{"type":"Point","coordinates":[153.0353777,-27.33946176]},"properties":{"id":85,"Park Code":"D0804","Park Name":"BILL BROWN SPORTS RESERVE","Street":"ROGHAN RD","Suburb":"FITZGIBBON","Node Id":12175,"Playground Name":"ROGHAN RD 'HIDDEN-WORLD' DISTRICT PLAYGROUND","Comments":0}},{"type":"Feature","geometry":{"type":"Point","coordinates":[153.0854535,-27.4668157]},"properties":{"id":86,"Park Code":"D0034","Park Name":"BILL CASH MEMORIAL PARK","Street":"WYNNUM RD","Suburb":"CANNON HILL","Node Id":13883,"Playground Name":"BARINA ST PLAYGROUND","Comments":0}},{"type":"Feature","geometry":{"type":"Point","coordinates":[152.9819463,-27.60289146]},"properties":{"id":87,"Park Code":"D0581","Park Name":"BILL KEY LOCK PLACE PARK","Street":"BLUEJAY ST","Suburb":"INALA","Node Id":18719,"Playground Name":"BILL KEY LOCK PLACE PK PLAYGROUND","Comments":0}},{"type":"Feature","geometry":{"type":"Point","coordinates":[153.1849864,-27.47171884]},"properties":{"id":88,"Park Code":"D0861","Park Name":"BILL LAMOND PARK","Street":"ANDREW ST","Suburb":"LOTA","Node Id":20809,"Playground Name":"ANDREW ST PLAYGROUND","Comments":0}},{"type":"Feature","geometry":{"type":"Point","coordinates":[153.1874423,-27.47287682]},"properties":{"id":89,"Park Code":"D0861","Park Name":"BILL LAMOND PARK","Street":"ANDREW ST","Suburb":"LOTA","Node Id":20810,"Playground Name":"SOCCER FIELDS PLAYGROUND","Comments":0}},{"type":"Feature","geometry":{"type":"Point","coordinates":[153.0290998,-27.54847854]},"properties":{"id":90,"Park Code":"D0551","Park Name":"BILL MOORE PARK","Street":"MYRA RD","Suburb":"SALISBURY","Node Id":16946,"Playground Name":"BILL MOORE PK PLAYGROUND","Comments":0}},{"type":"Feature","geometry":{"type":"Point","coordinates":[153.0320301,-27.62887076]},"properties":{"id":91,"Park Code":"D1195","Park Name":"BILLABONG PLACE PARK","Street":"GRAGIN PL","Suburb":"PARKINSON","Node Id":11772,"Playground Name":"GRAGIN PLACE PLAYGROUND","Comments":0}},{"type":"Feature","geometry":{"type":"Point","coordinates":[153.0345849,-27.63053126]},"properties":{"id":92,"Park Code":"D1195","Park Name":"BILLABONG PLACE PARK","Street":"GRAGIN PL","Suburb":"PARKINSON","Node Id":11778,"Playground Name":"AVONDALE CRES PLAYGROUND","Comments":0}},{"type":"Feature","geometry":{"type":"Point","coordinates":[153.0644976,-27.49291783]},"properties":{"id":93,"Park Code":"D1266","Park Name":"BIRAN STREET PARK","Street":"OLD CLEVELAND RD","Suburb":"COORPAROO","Node Id":14563,"Playground Name":"BRIDGEWATER CK PLAYGROUND","Comments":0}},{"type":"Feature","geometry":{"type":"Point","coordinates":[152.9914235,-27.38492116]},"properties":{"id":94,"Park Code":"D0982","Park Name":"BISSET PLACE PARK","Street":"BISSET PL","Suburb":"MCDOWALL","Node Id":16629,"Playground Name":"SINATRA CRES PLAYGROUND","Comments":0}},{"type":"Feature","geometry":{"type":"Point","coordinates":[152.9783391,-27.42242237]},"properties":{"id":95,"Park Code":"D1534","Park Name":"BLISS STREET PARK (NO.39)","Street":"BLISS ST","Suburb":"GAYTHORNE","Node Id":14764,"Playground Name":"NEWMAN ST PLAYGROUND","Comments":0}},{"type":"Feature","geometry":{"type":"Point","coordinates":[153.0351955,-27.35161225]},"properties":{"id":96,"Park Code":"D1337","Park Name":"BLUE GUM PARK","Street":"KAKADU CRCT","Suburb":"ZILLMERE","Node Id":31307,"Playground Name":"BLUE GUM PK (KAKADU CIRCUIT) PLAYGROUND","Comments":0}},{"type":"Feature","geometry":{"type":"Point","coordinates":[153.0357612,-27.60221103]},"properties":{"id":97,"Park Code":"D2022","Park Name":"BLUE RANGE DRIVE PARK","Street":"BLUE RANGE DR","Suburb":"ALGESTER","Node Id":11455,"Playground Name":"BLUE RANGE DVE PLAYGROUND","Comments":0}},{"type":"Feature","geometry":{"type":"Point","coordinates":[153.1448137,-27.46626106]},"properties":{"id":98,"Park Code":"D0895","Park Name":"BOGNOR STREET PARK","Street":"BOGNOR ST","Suburb":"TINGALPA","Node Id":13701,"Playground Name":"BOGNOR ST PLAYGROUND","Comments":0}},{"type":"Feature","geometry":{"type":"Point","coordinates":[153.0031156,-27.40620059]},"properties":{"id":99,"Park Code":"D0206","Park Name":"BOLES STREET PARK","Street":"OGDEN ST","Suburb":"STAFFORD","Node Id":15331,"Playground Name":"FOGARTY ST PLAYGROUND","Comments":0}},{"type":"Feature","geometry":{"type":"Point","coordinates":[153.0916591,-27.57826136]},"properties":{"id":100,"Park Code":"D0578","Park Name":"BOLTON STREET PARK","Street":"BOLINDA ST","Suburb":"EIGHT MILE PLNS","Node Id":20611,"Playground Name":"BOLTON ST PLAYGROUND","Comments":0}},{"type":"Feature","geometry":{"type":"Point","coordinates":[152.8939664,-27.56241574]},"properties":{"id":101,"Park Code":"D0663","Park Name":"BOOKER PLACE PARK","Street":"BIRKIN RD","Suburb":"BELLBOWRIE","Node Id":14113,"Playground Name":"BOOKER PLACE (BIRKIN RD) DISTRICT PLAYGROUND","Comments":0}},{"type":"Feature","geometry":{"type":"Point","coordinates":[152.8914546,-27.56506853]},"properties":{"id":102,"Park Code":"D0663","Park Name":"BOOKER PLACE PARK","Street":"BIRKIN RD","Suburb":"BELLBOWRIE","Node Id":18080,"Playground Name":"LIONS PK PLAYGROUND","Comments":0}},{"type":"Feature","geometry":{"type":"Point","coordinates":[152.8916167,-27.56510477]},"properties":{"id":103,"Park Code":"D0663","Park Name":"BOOKER PLACE PARK","Street":"BIRKIN RD","Suburb":"BELLBOWRIE","Node Id":18093,"Playground Name":"SUGARWOOD RD PLAYGROUND","Comments":0}},{"type":"Feature","geometry":{"type":"Point","coordinates":[152.965969,-27.63172839]},"properties":{"id":104,"Park Code":"D2032","Park Name":"BOOLOUMBA CRESCENT PARK","Street":"BOOLOUMBA CRES","Suburb":"FOREST LAKE","Node Id":18216,"Playground Name":"BOOLOUMBA CRES PLAYGROUND","Comments":0}},{"type":"Feature","geometry":{"type":"Point","coordinates":[153.1117543,-27.55277907]},"properties":{"id":105,"Park Code":"D0435","Park Name":"BOORABBIN PICNIC GROUND","Street":"MT GRAVATT-CAPALABA RD","Suburb":"WISHART","Node Id":20629,"Playground Name":"STACKPOLE ST PLAYGROUND","Comments":0}},{"type":"Feature","geometry":{"type":"Point","coordinates":[153.0623793,-27.5962791]},"properties":{"id":106,"Park Code":"D0876","Park Name":"BOORAL STREET PARK","Street":"BONYI ST","Suburb":"SUNNYBANK HILLS","Node Id":18958,"Playground Name":"BOORAL ST PLAYGROUND","Comments":0}},{"type":"Feature","geometry":{"type":"Point","coordinates":[153.0965844,-27.56827322]},"properties":{"id":107,"Park Code":"D1036","Park Name":"BOORALA CRESCENT PARK","Street":"NARMAR CT","Suburb":"EIGHT MILE PLNS","Node Id":20534,"Playground Name":"BOORALA CRESCENT PLAYGROUND","Comments":0}},{"type":"Feature","geometry":{"type":"Point","coordinates":[153.0503155,-27.62874797]},"properties":{"id":108,"Park Code":"D1750","Park Name":"BORAGE PLACE PARK","Street":"SHELDUCK PL","Suburb":"CALAMVALE","Node Id":11511,"Playground Name":"BORAGE PL PLAYGROUND","Comments":0}},{"type":"Feature","geometry":{"type":"Point","coordinates":[153.0904796,-27.58545732]},"properties":{"id":109,"Park Code":"D1967","Park Name":"BORDEAUX STREET PARK","Street":"BORDEAUX ST","Suburb":"EIGHT MILE PLNS","Node Id":20333,"Playground Name":"SAKARBEN ST PLAYGROUND","Comments":0}},{"type":"Feature","geometry":{"type":"Point","coordinates":[153.0541213,-27.5972666]},"properties":{"id":110,"Park Code":"D0830","Park Name":"BORELLA ROAD PARK","Street":"BORELLA RD","Suburb":"SUNNYBANK HILLS","Node Id":18988,"Playground Name":"BORELLA RD PLAYGROUND","Comments":0}},{"type":"Feature","geometry":{"type":"Point","coordinates":[152.9588663,-27.61867978]},"properties":{"id":111,"Park Code":"D1301","Park Name":"BORONIA PARK","Street":"EVERGREEN PL","Suburb":"FOREST LAKE","Node Id":18389,"Playground Name":"BORONIA PK PLAYGROUND","Comments":0}},{"type":"Feature","geometry":{"type":"Point","coordinates":[153.0498662,-27.37427741]},"properties":{"id":112,"Park Code":"D0244","Park Name":"BOWDEN PARK","Street":"AKAROA AVE","Suburb":"GEEBUNG","Node Id":13370,"Playground Name":"MAIDENCOMBE ST PLAYGROUND","Comments":0}},{"type":"Feature","geometry":{"type":"Point","coordinates":[152.9764905,-27.45689108]},"properties":{"id":113,"Park Code":"D0178","Park Name":"BOWMAN PARK","Street":"SIMPSONS RD","Suburb":"BARDON","Node Id":19620,"Playground Name":"DAVID AVE PLAYGROUND","Comments":0}},{"type":"Feature","geometry":{"type":"Point","coordinates":[152.9779575,-27.4590761]},"properties":{"id":114,"Park Code":"D0178","Park Name":"BOWMAN PARK","Street":"SIMPSONS RD","Suburb":"BARDON","Node Id":19627,"Playground Name":"SIMPSONS RD PLAYGROUND","Comments":0}},{"type":"Feature","geometry":{"type":"Point","coordinates":[153.0577986,-27.4014128]},"properties":{"id":115,"Park Code":"D0449","Park Name":"BOYD PARK","Street":"BOYD RD","Suburb":"NUNDAH","Node Id":17602,"Playground Name":"BOYD PK PLAYGROUND","Comments":0}},{"type":"Feature","geometry":{"type":"Point","coordinates":[152.915526,-27.50488794]},"properties":{"id":116,"Park Code":"D1230","Park Name":"BOYD TERRACE PARK","Street":"REES WAY","Suburb":"BROOKFIELD","Node Id":17947,"Playground Name":"BOYD TCE PLAYGROUND","Comments":0}},{"type":"Feature","geometry":{"type":"Point","coordinates":[153.0281918,-27.3957113]},"properties":{"id":117,"Park Code":"D0230","Park Name":"BRADBURY PARK","Street":"KITCHENER RD","Suburb":"KEDRON","Node Id":16365,"Playground Name":"LAWLEY ST PLAYGROUND (CHERMSIDE)","Comments":0}},{"type":"Feature","geometry":{"type":"Point","coordinates":[153.0275117,-27.39417251]},"properties":{"id":118,"Park Code":"D0230","Park Name":"BRADBURY PARK","Street":"KITCHENER RD","Suburb":"KEDRON","Node Id":31031,"Playground Name":"NETBALL FACILITY PLAYGROUND (CHERMSIDE)","Comments":0}},{"type":"Feature","geometry":{"type":"Point","coordinates":[153.032416,-27.41941945]},"properties":{"id":119,"Park Code":"D0509","Park Name":"BRADSHAW PARK","Street":"LAMINGTON AVE","Suburb":"LUTWYCHE","Node Id":15124,"Playground Name":"BRADSHAW PK PLAYGROUND","Comments":0}},{"type":"Feature","geometry":{"type":"Point","coordinates":[153.0648573,-27.60563078]},"properties":{"id":120,"Park Code":"D0772","Park Name":"BRADY BUSHLAND PARK","Street":"NEMIES RD","Suburb":"RUNCORN","Node Id":19037,"Playground Name":"BELYANDO ST PLAYGROUND","Comments":0}},{"type":"Feature","geometry":{"type":"Point","coordinates":[153.0644824,-27.60572123]},"properties":{"id":121,"Park Code":"D0772","Park Name":"BRADY BUSHLAND PARK","Street":"NEMIES RD","Suburb":"RUNCORN","Node Id":19039,"Playground Name":"CALLIOPE ST PLAYGROUND","Comments":0}},{"type":"Feature","geometry":{"type":"Point","coordinates":[153.0984417,-27.57218098]},"properties":{"id":122,"Park Code":"D1251","Park Name":"BRAMPTON STREET PARK","Street":"TIMARU CRES","Suburb":"EIGHT MILE PLNS","Node Id":20401,"Playground Name":"BRAMPTON ST PLAYGROUND","Comments":0}},{"type":"Feature","geometry":{"type":"Point","coordinates":[153.1118479,-27.51081244]},"properties":{"id":123,"Park Code":"D0863","Park Name":"BREENE COURT PARK","Street":"BREENE CT","Suburb":"CARINDALE","Node Id":12858,"Playground Name":"BREENE CRT PLAYGROUND","Comments":0}},{"type":"Feature","geometry":{"type":"Point","coordinates":[153.0484077,-27.57748872]},"properties":{"id":124,"Park Code":"D0962","Park Name":"BRETON STREET PARK","Street":"BRETON ST","Suburb":"SUNNYBANK","Node Id":18918,"Playground Name":"BRETON ST PLAYGROUND","Comments":0}},{"type":"Feature","geometry":{"type":"Point","coordinates":[153.1113027,-27.50666491]},"properties":{"id":125,"Park Code":"D0862","Park Name":"BRIDGNORTH STREET PARK (NO.71)","Street":"BRIDGNORTH ST","Suburb":"CARINDALE","Node Id":12864,"Playground Name":"BRIDGNORTH ST PLAYGROUND","Comments":0}},{"type":"Feature","geometry":{"type":"Point","coordinates":[153.0140127,-27.50558926]},"properties":{"id":126,"Park Code":"D0373","Park Name":"BRISBANE CORSO PARK","Street":"BRISBANE CSO","Suburb":"YERONGA","Node Id":14144,"Playground Name":"BRISBANE CORSO (CANSDALE ST) PLAYGROUND","Comments":"Temporary closure for flood repairs"}},{"type":"Feature","geometry":{"type":"Point","coordinates":[153.0361295,-27.3944775]},"properties":{"id":127,"Park Code":"D0232","Park Name":"BRISTOL PARK","Street":"RODE RD","Suburb":"WAVELL HEIGHTS","Node Id":17738,"Playground Name":"BRISTOL PK PLAYGROUND","Comments":0}},{"type":"Feature","geometry":{"type":"Point","coordinates":[153.0482728,-27.57032968]},"properties":{"id":128,"Park Code":"D0562","Park Name":"BRITTAIN PARK","Street":"TROUGHTON RD","Suburb":"COOPERS PLAINS","Node Id":16909,"Playground Name":"TROUGHTON RD PLAYGROUND","Comments":0}},{"type":"Feature","geometry":{"type":"Point","coordinates":[153.1115129,-27.54441042]},"properties":{"id":129,"Park Code":"D0434","Park Name":"BROADWATER PICNIC GROUND PARK","Street":"MANSFIELD PL","Suburb":"MANSFIELD","Node Id":15804,"Playground Name":"BROADWATER PICNIC GND PLAYGROUND","Comments":0}},{"type":"Feature","geometry":{"type":"Point","coordinates":[153.0108744,-27.61218164]},"properties":{"id":130,"Park Code":"D1676","Park Name":"BROOKBENT ROAD PARK","Street":"GOODERHAM RD","Suburb":"PALLARA","Node Id":11541,"Playground Name":"VIED RD PLAYGROUND & ACTIVITY SPACE","Comments":0}},{"type":"Feature","geometry":{"type":"Point","coordinates":[152.9114554,-27.49250106]},"properties":{"id":131,"Park Code":"D0273","Park Name":"BROOKFIELD RECREATION RESERVE","Street":"BOSCOMBE RD","Suburb":"BROOKFIELD","Node Id":18125,"Playground Name":"BROOKFIELD REC RES (CEMETERY) PLAYGROUND","Comments":0}},{"type":"Feature","geometry":{"type":"Point","coordinates":[152.9329744,-27.50578408]},"properties":{"id":132,"Park Code":"D0266","Park Name":"BROOKFIELD ROAD PARK","Street":"BROOKFIELD RD","Suburb":"KENMORE","Node Id":18160,"Playground Name":"BROOKFIELD RD PLAYGROUND","Comments":0}},{"type":"Feature","geometry":{"type":"Point","coordinates":[153.0207425,-27.40345509]},"properties":{"id":133,"Park Code":"D0210","Park Name":"BROULA PARK","Street":"DORRIGO ST","Suburb":"STAFFORD HTS","Node Id":16704,"Playground Name":"BROULA PK PLAYGROUND","Comments":0}},{"type":"Feature","geometry":{"type":"Point","coordinates":[152.9808989,-27.53901001]},"properties":{"id":134,"Park Code":"D2572","Park Name":"BROWNE STREET PARK","Street":"BROWNE ST","Suburb":"CORINDA","Node Id":25063,"Playground Name":"BROWNE ST PLAYGROUND","Comments":0}},{"type":"Feature","geometry":{"type":"Point","coordinates":[153.0664036,-27.59857933]},"properties":{"id":135,"Park Code":"D0831","Park Name":"BRUNA STREET PARK","Street":"ELLEN ST","Suburb":"RUNCORN","Node Id":18984,"Playground Name":"BRUNA ST PLAYGROUND","Comments":0}},{"type":"Feature","geometry":{"type":"Point","coordinates":[152.9914854,-27.63287351]},"properties":{"id":136,"Park Code":"D2190","Park Name":"BRUSH BOX PLACE PARK","Street":"BRUSH BOX PL","Suburb":"HEATHWOOD","Node Id":30882,"Playground Name":"PARKWOOD DVE PLAYGROUND","Comments":0}},{"type":"Feature","geometry":{"type":"Point","coordinates":[153.0882154,-27.55306386]},"properties":{"id":137,"Park Code":"D0686","Park Name":"BRUSHBOX PARK","Street":"LUMLEY ST","Suburb":"UPR MT GRAVATT","Node Id":20539,"Playground Name":"BRUSHBOX PK PLAYGROUND","Comments":0}},{"type":"Feature","geometry":{"type":"Point","coordinates":[153.0942535,-27.50892419]},"properties":{"id":138,"Park Code":"D0069","Park Name":"BUCKLEY STREET PARK","Street":"CREEK RD","Suburb":"CARINA HEIGHTS","Node Id":12988,"Playground Name":"BUCKLEY ST PLAYGROUND","Comments":0}},{"type":"Feature","geometry":{"type":"Point","coordinates":[153.0580491,-27.45185833]},"properties":{"id":139,"Park Code":"D0030","Park Name":"BULIMBA MEMORIAL PARK","Street":"OXFORD ST","Suburb":"BULIMBA","Node Id":17377,"Playground Name":"BULIMBA MEMORIAL PK PLAYGROUND","Comments":0}},{"type":"Feature","geometry":{"type":"Point","coordinates":[153.0543392,-27.45416711]},"properties":{"id":140,"Park Code":"D2672","Park Name":"BULIMBA RIVERSIDE PARK","Street":"ADDISON AVE","Suburb":"BULIMBA","Node Id":19943,"Playground Name":"BULIMBA RIVERSIDE PK PLAYGROUND","Comments":0}},{"type":"Feature","geometry":{"type":"Point","coordinates":[153.0384169,-27.61667792]},"properties":{"id":141,"Park Code":"D0956","Park Name":"BUNDABAH DRIVE PARK","Street":"BUNDABAH DR","Suburb":"CALAMVALE","Node Id":11789,"Playground Name":"BUNDABAH DRIVE PLAYGROUND","Comments":0}},{"type":"Feature","geometry":{"type":"Point","coordinates":[152.9391272,-27.418303]},"properties":{"id":142,"Park Code":"D1042","Park Name":"BUNDARA PARK","Street":"BALVENIE ST","Suburb":"KEPERRA","Node Id":14805,"Playground Name":"BALVENIE ST PLAYGROUND","Comments":0}},{"type":"Feature","geometry":{"type":"Point","coordinates":[153.042884,-27.49394633]},"properties":{"id":143,"Park Code":"D0359","Park Name":"BURANDA PLAYGROUND PARK","Street":"SWORD ST","Suburb":"WOOLLOONGABBA","Node Id":14470,"Playground Name":"BURANDA PLAYGROUND","Comments":0}},{"type":"Feature","geometry":{"type":"Point","coordinates":[153.0837451,-27.4954921]},"properties":{"id":144,"Park Code":"D0053","Park Name":"BURN STREET PARK","Street":"LONG ST","Suburb":"CAMP HILL","Node Id":13010,"Playground Name":"LONG ST PLAYGROUND","Comments":0}},{"type":"Feature","geometry":{"type":"Point","coordinates":[153.0354185,-27.38994928]},"properties":{"id":145,"Park Code":"D0231","Park Name":"BURNIE BRAE PARK","Street":"KURAN ST","Suburb":"CHERMSIDE","Node Id":16356,"Playground Name":"KURAN ST PLAYGROUND","Comments":0}},{"type":"Feature","geometry":{"type":"Point","coordinates":[153.0358244,-27.38926837]},"properties":{"id":146,"Park Code":"D0231","Park Name":"BURNIE BRAE PARK","Street":"KURAN ST","Suburb":"CHERMSIDE","Node Id":16357,"Playground Name":"MEEMAR ST PLAYGROUND","Comments":0}},{"type":"Feature","geometry":{"type":"Point","coordinates":[153.0462454,-27.59137427]},"properties":{"id":147,"Park Code":"D0957","Park Name":"BUSHY PARK","Street":"MANZILL ST","Suburb":"SUNNYBANK HILLS","Node Id":18923,"Playground Name":"BUSHY PK PLAYGROUND","Comments":0}},{"type":"Feature","geometry":{"type":"Point","coordinates":[153.0671243,-27.60074566]},"properties":{"id":148,"Park Code":"D0932","Park Name":"BYRON STREET PARK","Street":"BYRON ST","Suburb":"RUNCORN","Node Id":18929,"Playground Name":"BYRON ST PLAYGROUND","Comments":0}},{"type":"Feature","geometry":{"type":"Point","coordinates":[153.0357825,-27.32701633]},"properties":{"id":149,"Park Code":"D0779","Park Name":"C. SLAUGHTER PARK","Street":"RANES CT","Suburb":"BRACKEN RIDGE","Node Id":12210,"Playground Name":"C SLAUGHTER PK PLAYGROUND","Comments":0}},{"type":"Feature","geometry":{"type":"Point","coordinates":[153.0241957,-27.58664928]},"properties":{"id":150,"Park Code":"D0570","Park Name":"C.A.O SULLIVAN PARK","Street":"BEAUDESERT RD","Suburb":"ACACIA RIDGE","Node Id":11922,"Playground Name":"WRAY ST PLAYGROUND","Comments":0}},{"type":"Feature","geometry":{"type":"Point","coordinates":[153.0587694,-27.51547216]},"properties":{"id":151,"Park Code":"D0119","Park Name":"C.B.MOTT PARK","Street":"ABBOTSLEIGH ST","Suburb":"HOLLAND PARK","Node Id":15870,"Playground Name":"C.B. MOTT PK PLAYGROUND","Comments":0}},{"type":"Feature","geometry":{"type":"Point","coordinates":[152.9656743,-27.5794339]},"properties":{"id":152,"Park Code":"D0564","Park Name":"C.J.GREENFIELD COMPLEX PARK","Street":"KIMBERLEY ST","Suburb":"RICHLANDS","Node Id":18663,"Playground Name":"C.J. GREEMFIELD COMPLEX PK PLAYGROUND (FREEMAN RD)","Comments":0}},{"type":"Feature","geometry":{"type":"Point","coordinates":[152.9639822,-27.57984875]},"properties":{"id":153,"Park Code":"D0564","Park Name":"C.J.GREENFIELD COMPLEX PARK","Street":"KIMBERLEY ST","Suburb":"RICHLANDS","Node Id":28983,"Playground Name":"WEST INALA RUGBY FIELD PLAYGROUND","Comments":0}},{"type":"Feature","geometry":{"type":"Point","coordinates":[153.0635015,-27.48259481]},"properties":{"id":154,"Park Code":"D0125","Park Name":"C.P.BOTTOMLEY PARK","Street":"HALIFAX ST","Suburb":"NORMAN PARK","Node Id":17235,"Playground Name":"CROWN ST PLAYGROUND","Comments":0}},{"type":"Feature","geometry":{"type":"Point","coordinates":[153.0598967,-27.48413568]},"properties":{"id":155,"Park Code":"D0125","Park Name":"C.P.BOTTOMLEY PARK","Street":"HALIFAX ST","Suburb":"NORMAN PARK","Node Id":17237,"Playground Name":"HALIFAX ST PLAYGROUND","Comments":0}},{"type":"Feature","geometry":{"type":"Point","coordinates":[153.0340682,-27.46736138]},"properties":{"id":156,"Park Code":"D0090","Park Name":"C.T.WHITE PARK","Street":"BRIGHT ST","Suburb":"KANGAROO POINT","Node Id":14588,"Playground Name":"ANNIE ST PLAYGROUND","Comments":0}},{"type":"Feature","geometry":{"type":"Point","coordinates":[153.0343527,-27.47069264]},"properties":{"id":157,"Park Code":"D0090","Park Name":"C.T.WHITE PARK","Street":"BRIGHT ST","Suburb":"KANGAROO POINT","Node Id":14590,"Playground Name":"HAMILTON ST PLAYGROUND","Comments":0}},{"type":"Feature","geometry":{"type":"Point","coordinates":[153.1138885,-27.49702269]},"properties":{"id":158,"Park Code":"D0961","Park Name":"CADOGAN STREET PARK","Street":"MEADOWLANDS RD","Suburb":"CARINDALE","Node Id":12804,"Playground Name":"KEN MASDEN PLACE PLAYGROUND","Comments":0}},{"type":"Feature","geometry":{"type":"Point","coordinates":[153.037896,-27.62055469]},"properties":{"id":159,"Park Code":"D2072","Park Name":"CALAMVALE DISTRICT PARK","Street":"FORMBY ST","Suburb":"CALAMVALE","Node Id":23986,"Playground Name":"CALAMVALE DISTRICT PLAYGROUND","Comments":0}},{"type":"Feature","geometry":{"type":"Point","coordinates":[153.0590769,-27.61691812]},"properties":{"id":160,"Park Code":"D0834","Park Name":"CALAMVISTA PARK","Street":"PALATINE ST","Suburb":"CALAMVALE","Node Id":11813,"Playground Name":"CALAMVISTA PK PLAYGROUND","Comments":0}},{"type":"Feature","geometry":{"type":"Point","coordinates":[152.9761373,-27.55966301]},"properties":{"id":161,"Park Code":"D0320","Park Name":"CALIFORNIA ROAD PARK","Street":"OXLEY RD","Suburb":"OXLEY","Node Id":16873,"Playground Name":"CALIFORNIA RD PLAYGROUND","Comments":0}},{"type":"Feature","geometry":{"type":"Point","coordinates":[153.0946511,-27.4637583]},"properties":{"id":162,"Park Code":"D1931","Park Name":"CALLIOPE CIRCUIT PARK","Street":"CALLIOPE CRCT","Suburb":"MURARRIE","Node Id":13514,"Playground Name":"CALLIOPE CIRCUIT (CENTRAL PK) PLAYGROUND","Comments":0}},{"type":"Feature","geometry":{"type":"Point","coordinates":[152.9228831,-27.5585985]},"properties":{"id":163,"Park Code":"D1226","Park Name":"CAMELOT CRESCENT PARK","Street":"CAMELOT CRES","Suburb":"MIDDLE PARK","Node Id":16031,"Playground Name":"CAMELOT CRES PLAYGROUND","Comments":0}},{"type":"Feature","geometry":{"type":"Point","coordinates":[152.9446443,-27.41140786]},"properties":{"id":164,"Park Code":"D0147","Park Name":"CAMOOLA STREET PARK","Street":"AVINGTON ST","Suburb":"KEPERRA","Node Id":14923,"Playground Name":"CAMOOLA ST PLAYGROUND","Comments":0}},{"type":"Feature","geometry":{"type":"Point","coordinates":[153.1614705,-27.47701501]},"properties":{"id":165,"Park Code":"D1064","Park Name":"CANNES STREET PARK","Street":"CARINGBAH ST","Suburb":"WAKERLEY","Node Id":13749,"Playground Name":"CANNES ST PLAYGROUND","Comments":0}},{"type":"Feature","geometry":{"type":"Point","coordinates":[153.1033023,-27.47219331]},"properties":{"id":166,"Park Code":"D0593","Park Name":"CANNON HILL BUSHLAND RESERVE","Street":"CREEK RD","Suburb":"CANNON HILL","Node Id":13820,"Playground Name":"WYNNUM RD PLAYGROUND","Comments":0}},{"type":"Feature","geometry":{"type":"Point","coordinates":[153.0088721,-27.305887]},"properties":{"id":167,"Park Code":"D0660","Park Name":"CANTERBURY PARK","Street":"FEUERRIEGEL RD","Suburb":"BALD HILLS","Node Id":12258,"Playground Name":"RUSH WORTH ST PLAYGROUND","Comments":0}},{"type":"Feature","geometry":{"type":"Point","coordinates":[152.9441542,-27.54072444]},"properties":{"id":168,"Park Code":"D0651","Park Name":"CAPITOL DRIVE PARK","Street":"NERO CL","Suburb":"JINDALEE","Node Id":16166,"Playground Name":"CAPITOL DRIVE PLAYGROUND","Comments":0}},{"type":"Feature","geometry":{"type":"Point","coordinates":[153.0350595,-27.46527566]},"properties":{"id":169,"Park Code":"D0075","Park Name":"CAPTAIN BURKE PARK","Street":"HOLMAN ST","Suburb":"KANGAROO POINT","Node Id":14603,"Playground Name":"HOLMAN ST PLAYGROUND","Comments":0}},{"type":"Feature","geometry":{"type":"Point","coordinates":[153.0569681,-27.61558288]},"properties":{"id":170,"Park Code":"D0790","Park Name":"CARAVONICA COURT PARK","Street":"CHATEAU ST","Suburb":"CALAMVALE","Node Id":11817,"Playground Name":"CARAVONICA CT PLAYGROUND","Comments":0}},{"type":"Feature","geometry":{"type":"Point","coordinates":[153.1088621,-27.49706932]},"properties":{"id":171,"Park Code":"D0723","Park Name":"CARINDALE REC RESERVE","Street":"BEDIVERE ST","Suburb":"CARINDALE","Node Id":12978,"Playground Name":"CARINDALE REC RES DISTRICT PLAYGROUND","Comments":0}},{"type":"Feature","geometry":{"type":"Point","coordinates":[152.9636394,-27.4946372]},"properties":{"id":172,"Park Code":"D0806","Park Name":"CARINYA STREET PARK","Street":"TATONG ST","Suburb":"INDOOROOPILLY","Node Id":20065,"Playground Name":"CARINYA ST PLAYGROUND","Comments":0}},{"type":"Feature","geometry":{"type":"Point","coordinates":[153.095598,-27.46138997]},"properties":{"id":173,"Park Code":"D1815","Park Name":"CARNARVON WAY PARK","Street":"CARNARVON WAY","Suburb":"MURARRIE","Node Id":13500,"Playground Name":"CARNARVON WAY PLAYGROUND","Comments":0}},{"type":"Feature","geometry":{"type":"Point","coordinates":[152.9645124,-27.62912487]},"properties":{"id":174,"Park Code":"D2007","Park Name":"CASCADE DRIVE PARK (NO.20)","Street":"CASCADE DR","Suburb":"FOREST LAKE","Node Id":18238,"Playground Name":"CASCADE DVE PLAYGROUND","Comments":0}},{"type":"Feature","geometry":{"type":"Point","coordinates":[153.0478974,-27.33468972]},"properties":{"id":175,"Park Code":"D1658","Park Name":"CASSIA PLACE PARK","Street":"BRUSHBOX ST","Suburb":"TAIGUM","Node Id":22963,"Playground Name":"CASSIS PLACE PLAYGROUND","Comments":0}},{"type":"Feature","geometry":{"type":"Point","coordinates":[153.0999664,-27.54624193]},"properties":{"id":176,"Park Code":"D1055","Park Name":"CATANIA STREET PARK","Street":"CATANIA ST SOUTH","Suburb":"WISHART","Node Id":15768,"Playground Name":"CATANIA ST PLAYGROUND","Comments":0}},{"type":"Feature","geometry":{"type":"Point","coordinates":[153.0396151,-27.58148182]},"properties":{"id":177,"Park Code":"D0683","Park Name":"CAVAY PLAYGROUND PARK","Street":"MORDEN RD","Suburb":"SUNNYBANK HILLS","Node Id":19107,"Playground Name":"CAVAY PLAYGROUND","Comments":0}},{"type":"Feature","geometry":{"type":"Point","coordinates":[152.9754578,-27.5543006]},"properties":{"id":178,"Park Code":"D0012","Park Name":"CAWONGA PARK","Street":"LINCOLN ST","Suburb":"OXLEY","Node Id":17117,"Playground Name":"CAWONGA PK PLAYGROUND","Comments":0}},{"type":"Feature","geometry":{"type":"Point","coordinates":[152.9827955,-27.45676561]},"properties":{"id":179,"Park Code":"D0179","Park Name":"CECIL ROAD PARK","Street":"CECIL RD","Suburb":"BARDON","Node Id":19610,"Playground Name":"CECIL RD PLAYGROUND","Comments":0}},{"type":"Feature","geometry":{"type":"Point","coordinates":[153.0757187,-27.60247458]},"properties":{"id":180,"Park Code":"D1060","Park Name":"CELICA STREET PARK","Street":"CELICA ST","Suburb":"RUNCORN","Node Id":19073,"Playground Name":"CELICA ST PLAYGROUND","Comments":0}},{"type":"Feature","geometry":{"type":"Point","coordinates":[152.9607843,-27.63172982]},"properties":{"id":181,"Park Code":"D1862","Park Name":"CENTRAL STREET PARK","Street":"CENTRAL ST","Suburb":"FOREST LAKE","Node Id":18308,"Playground Name":"HYDE PLACE PLAYGROUND","Comments":0}},{"type":"Feature","geometry":{"type":"Point","coordinates":[153.0928518,-27.57495638]},"properties":{"id":182,"Park Code":"D0716","Park Name":"CHARLES FRASER PARK","Street":"MANCHESTER ST","Suburb":"EIGHT MILE PLNS","Node Id":20648,"Playground Name":"CHARLES FRASER PK PLAYGROUND","Comments":0}},{"type":"Feature","geometry":{"type":"Point","coordinates":[153.0082917,-27.34640025]},"properties":{"id":183,"Park Code":"D0741","Park Name":"CHATEAU STREET PARK","Street":"CHATEAU ST","Suburb":"CARSELDINE","Node Id":12276,"Playground Name":"CHATEAU ST PLAYGROUND","Comments":0}},{"type":"Feature","geometry":{"type":"Point","coordinates":[152.9744129,-27.51323427]},"properties":{"id":184,"Park Code":"D0299","Park Name":"CHELMER RECREATION RESERVE","Street":"OXLEY RD","Suburb":"CHELMER","Node Id":20159,"Playground Name":"CHELMER REC RES (FOOTBALL CLUB) PLAYGROUND","Comments":0}},{"type":"Feature","geometry":{"type":"Point","coordinates":[153.0210619,-27.35814244]},"properties":{"id":185,"Park Code":"D1109","Park Name":"CHERMSIDE HILLS RESERVE","Street":"WALKER ST","Suburb":"MCDOWALL","Node Id":16640,"Playground Name":"PARAMOUNT CCT PLAYGROUND","Comments":0}},{"type":"Feature","geometry":{"type":"Point","coordinates":[153.083795,-27.52792734]},"properties":{"id":186,"Park Code":"D0059","Park Name":"CHESTER PARK RESERVE","Street":"BOAMBILLEE ST","Suburb":"MT GRAVATT EAST","Node Id":15909,"Playground Name":"GINAHGUILA ST PLAYGROUND & ACTIVITY SPACE","Comments":0}},{"type":"Feature","geometry":{"type":"Point","coordinates":[153.0844595,-27.53030986]},"properties":{"id":187,"Park Code":"D0059","Park Name":"CHESTER PARK RESERVE","Street":"BOAMBILLEE ST","Suburb":"MT GRAVATT EAST","Node Id":15910,"Playground Name":"MARGATE ST (CAMLET ST) PLAYGROUND","Comments":0}},{"type":"Feature","geometry":{"type":"Point","coordinates":[153.08918,-27.60710687]},"properties":{"id":188,"Park Code":"D1690","Park Name":"CHESTERFIELD CRESCENT PARK","Street":"CHESTERFIELD CRES","Suburb":"KURABY","Node Id":18758,"Playground Name":"CHESTERFIELD CR PLAYGROUND","Comments":0}},{"type":"Feature","geometry":{"type":"Point","coordinates":[153.0536918,-27.58922297]},"properties":{"id":189,"Park Code":"D0573","Park Name":"CHILTON STREET PARK","Street":"GARRO ST","Suburb":"SUNNYBANK HILLS","Node Id":19130,"Playground Name":"CHILTON ST PLAYGROUND","Comments":0}},{"type":"Feature","geometry":{"type":"Point","coordinates":[152.9380454,-27.45320489]},"properties":{"id":190,"Park Code":"D1420","Park Name":"CHRISTIAN AND MARGARET NIELSEN PARK","Street":"PARKSIDE CRES","Suburb":"THE GAP","Node Id":29549,"Playground Name":"GEORGIA PLACE PLAYGROUND","Comments":0}},{"type":"Feature","geometry":{"type":"Point","coordinates":[153.0785514,-27.38182074]},"properties":{"id":191,"Park Code":"D2556","Park Name":"CHURCHILL CIRCUIT PARK","Street":"CHURCHILL CRCT","Suburb":"BANYO","Node Id":29401,"Playground Name":"BATCHELOR PLACE PLAYGROUND","Comments":0}},{"type":"Feature","geometry":{"type":"Point","coordinates":[152.9423229,-27.49567047]},"properties":{"id":192,"Park Code":"D1078","Park Name":"CICADA PARK","Street":"IRONBARK RD","Suburb":"CHAPEL HILL","Node Id":18042,"Playground Name":"CICADA PK PLAYGROUND","Comments":0}},{"type":"Feature","geometry":{"type":"Point","coordinates":[153.0308188,-27.47407439]},"properties":{"id":193,"Park Code":"D0096","Park Name":"CITY BOTANIC GARDENS","Street":"ALICE ST","Suburb":"BRISBANE","Node Id":12510,"Playground Name":"CITY GARDENS PLAYGROUND","Comments":0}},{"type":"Feature","geometry":{"type":"Point","coordinates":[153.1524597,-27.43862228]},"properties":{"id":194,"Park Code":"D0994","Park Name":"CLARE AVENUE PARK","Street":"CLARE AVE","Suburb":"WYNNUM WEST","Node Id":20844,"Playground Name":"CLARE AVE PLAYGROUND","Comments":0}},{"type":"Feature","geometry":{"type":"Point","coordinates":[152.9727231,-27.63145372]},"properties":{"id":195,"Park Code":"D1799","Park Name":"CLAREMONT PARADE PARK","Street":"VAUCLUSE ST","Suburb":"FOREST LAKE","Node Id":18302,"Playground Name":"CLAREMONT PDE PLAYGROUND","Comments":0}},{"type":"Feature","geometry":{"type":"Point","coordinates":[152.9604344,-27.49995993]},"properties":{"id":196,"Park Code":"D0910","Park Name":"CLARINA STREET PARK","Street":"CLARINA ST","Suburb":"CHAPEL HILL","Node Id":20037,"Playground Name":"CLARINA ST PLAYGROUND","Comments":0}},{"type":"Feature","geometry":{"type":"Point","coordinates":[153.0326597,-27.42721412]},"properties":{"id":197,"Park Code":"D0507","Park Name":"CLARK PARK","Street":"LUTWYCHE RD","Suburb":"WINDSOR","Node Id":15139,"Playground Name":"LUTWYCHE RD PLAYGROUND","Comments":0}},{"type":"Feature","geometry":{"type":"Point","coordinates":[153.0357881,-27.6231753]},"properties":{"id":198,"Park Code":"D1649","Park Name":"CLEMBURY PLACE PARK","Street":"FORMBY ST","Suburb":"CALAMVALE","Node Id":11554,"Playground Name":"CLEMBURY PLACE PLAYGROUND","Comments":0}},{"type":"Feature","geometry":{"type":"Point","coordinates":[152.9588012,-27.51700339]},"properties":{"id":199,"Park Code":"D0255","Park Name":"CLIVEDEN PARK","Street":"MOORFIELDS ST","Suburb":"FIG TREE POCKET","Node Id":20277,"Playground Name":"CLIVEDEN PK PLAYGROUND","Comments":0}},{"type":"Feature","geometry":{"type":"Point","coordinates":[153.0265873,-27.61402354]},"properties":{"id":200,"Park Code":"D0678","Park Name":"COL BENNET PARK","Street":"TRIANTHA ST","Suburb":"ALGESTER","Node Id":11906,"Playground Name":"TRIANTHA ST PLAYGROUND","Comments":0}},{"type":"Feature","geometry":{"type":"Point","coordinates":[153.0284848,-27.61642799]},"properties":{"id":201,"Park Code":"D0678","Park Name":"COL BENNET PARK","Street":"TRIANTHA ST","Suburb":"ALGESTER","Node Id":11907,"Playground Name":"YORELL ST PLAYGROUND","Comments":0}},{"type":"Feature","geometry":{"type":"Point","coordinates":[152.9618909,-27.61145136]},"properties":{"id":202,"Park Code":"D1294","Park Name":"COLLINGROVE PLACE PARK","Street":"COLLINGROVE PL","Suburb":"FOREST LAKE","Node Id":18405,"Playground Name":"COLLINGROVE PLACE PLAYGROUND","Comments":0}},{"type":"Feature","geometry":{"type":"Point","coordinates":[153.0900461,-27.45129368]},"properties":{"id":203,"Park Code":"D1763","Park Name":"COLMSLIE BEACH RESERVE","Street":"COLMSLIE RD","Suburb":"MURARRIE","Node Id":13451,"Playground Name":"'OCTOPUS GARDEN' DISTRICT PLAYGROUND","Comments":0}},{"type":"Feature","geometry":{"type":"Point","coordinates":[153.0833661,-27.45015128]},"properties":{"id":204,"Park Code":"D0035","Park Name":"COLMSLIE RESERVE","Street":"LYTTON RD","Suburb":"MORNINGSIDE","Node Id":17358,"Playground Name":"COLMSLIE RES PLAYGROUND","Comments":0}},{"type":"Feature","geometry":{"type":"Point","coordinates":[152.9397369,-27.61603333]},"properties":{"id":205,"Park Code":"D1356","Park Name":"COMMUNITY PARK","Street":"SOUTHAMPTON RD","Suburb":"CAROLE PARK","Node Id":18370,"Playground Name":"COMMUNITY PK PLAYGROUND","Comments":0}},{"type":"Feature","geometry":{"type":"Point","coordinates":[152.9651612,-27.61429454]},"properties":{"id":206,"Park Code":"D1302","Park Name":"CONFERTA PLACE PARK","Street":"CONFERTA PL","Suburb":"FOREST LAKE","Node Id":18384,"Playground Name":"CONFERTA PLACE PLAYGROUND","Comments":0}},{"type":"Feature","geometry":{"type":"Point","coordinates":[153.0770607,-27.57974177]},"properties":{"id":207,"Park Code":"D0690","Park Name":"CONONDALE PARK","Street":"CRESSBROOK ST","Suburb":"EIGHT MILE PLNS","Node Id":20655,"Playground Name":"KANDANGA ST PLAYGROUND","Comments":0}},{"type":"Feature","geometry":{"type":"Point","coordinates":[152.8898765,-27.56746888]},"properties":{"id":208,"Park Code":"D1569","Park Name":"CONSIDEN PLACE PARK","Street":"WEEKES RD","Suburb":"BELLBOWRIE","Node Id":17967,"Playground Name":"CARABEEN ST PLAYGROUND","Comments":0}},{"type":"Feature","geometry":{"type":"Point","coordinates":[153.160609,-27.42867824]},"properties":{"id":209,"Park Code":"D1306","Park Name":"CONSTELLATION WAY PARK","Street":"CONSTELLATION WAY","Suburb":"WYNNUM","Node Id":20750,"Playground Name":"CONSTELLATION WAY PLAYGROUND","Comments":0}},{"type":"Feature","geometry":{"type":"Point","coordinates":[153.1410336,-27.47030045]},"properties":{"id":210,"Park Code":"D1548","Park Name":"COOCHIN PLACE PARK","Street":"COOCHIN PL","Suburb":"TINGALPA","Node Id":13662,"Playground Name":"COOCHIN PLACE PLAYGROUND","Comments":0}},{"type":"Feature","geometry":{"type":"Point","coordinates":[152.999131,-27.36329079]},"properties":{"id":211,"Park Code":"D1258","Park Name":"COOLABAH CRESCENT PARK","Street":"COOLABAH CRES","Suburb":"BRIDGEMAN DOWNS","Node Id":16531,"Playground Name":"CABBAGE TREE CK (BANGALOW ST) PLAYGROUND","Comments":0}},{"type":"Feature","geometry":{"type":"Point","coordinates":[153.06777,-27.5136354]},"properties":{"id":212,"Park Code":"D0116","Park Name":"COONARA STREET PARK","Street":"COONARA ST","Suburb":"HOLLAND PARK","Node Id":15885,"Playground Name":"COONARA ST PLAYGROUND","Comments":0}},{"type":"Feature","geometry":{"type":"Point","coordinates":[153.1066168,-27.55600605]},"properties":{"id":213,"Park Code":"D0436","Park Name":"COORA STREET PARK","Street":"GREENWOOD ST","Suburb":"WISHART","Node Id":21222,"Playground Name":"BELLBIRD CRES PLAYGROUND","Comments":0}},{"type":"Feature","geometry":{"type":"Point","coordinates":[153.0438873,-27.37096736]},"properties":{"id":214,"Park Code":"D0226","Park Name":"COPPERFIELD STREET PARK","Street":"COPPERFIELD ST","Suburb":"GEEBUNG","Node Id":16418,"Playground Name":"COPPERFIELD ST PLAYGROUND","Comments":0}},{"type":"Feature","geometry":{"type":"Point","coordinates":[152.999828,-27.43955927]},"properties":{"id":215,"Park Code":"D0194","Park Name":"CORBIE STREET PARK","Street":"CORBIE ST","Suburb":"ASHGROVE","Node Id":19542,"Playground Name":"CORBIE ST 'FERNYDELL' PLAYGROUND","Comments":0}},{"type":"Feature","geometry":{"type":"Point","coordinates":[152.971071,-27.5970525]},"properties":{"id":216,"Park Code":"D0584","Park Name":"CORMORANT STREET PARK","Street":"CORMORANT ST","Suburb":"INALA","Node Id":18705,"Playground Name":"GANNET ST PLAYGROUND","Comments":0}},{"type":"Feature","geometry":{"type":"Point","coordinates":[152.9310538,-27.44821327]},"properties":{"id":217,"Park Code":"D0155","Park Name":"CORRAMULLING PARK","Street":"YOORALA ST","Suburb":"THE GAP","Node Id":19470,"Playground Name":"YOORALA ST PLAYGROUND","Comments":0}},{"type":"Feature","geometry":{"type":"Point","coordinates":[153.1851105,-27.47004832]},"properties":{"id":218,"Park Code":"D0534","Park Name":"COX PARK","Street":"RICHARD ST","Suburb":"LOTA","Node Id":20885,"Playground Name":"COX PK PLAYGROUND","Comments":0}},{"type":"Feature","geometry":{"type":"Point","coordinates":[153.1478576,-27.44899337]},"properties":{"id":219,"Park Code":"D1282","Park Name":"CRAWFORD ROAD PARK","Street":"CRAWFORD RD","Suburb":"WYNNUM WEST","Node Id":20757,"Playground Name":"CRAWFORD RD PLAYGROUND","Comments":0}},{"type":"Feature","geometry":{"type":"Point","coordinates":[152.9185374,-27.50382372]},"properties":{"id":220,"Park Code":"D0743","Park Name":"CREEKSIDE STREET PARK","Street":"CREEKSIDE ST","Suburb":"KENMORE HILLS","Node Id":18105,"Playground Name":"CREEKSIDE ST PLAYGROUND","Comments":0}},{"type":"Feature","geometry":{"type":"Point","coordinates":[153.1096849,-27.53992718]},"properties":{"id":221,"Park Code":"D0733","Park Name":"CRESTHAVEN PARK","Street":"BANIKA ST","Suburb":"MANSFIELD","Node Id":15834,"Playground Name":"CRESTHAVEN PK PLAYGROUND","Comments":0}},{"type":"Feature","geometry":{"type":"Point","coordinates":[153.1198598,-27.52647489]},"properties":{"id":222,"Park Code":"D1638","Park Name":"CRIBB ROAD PARK","Street":"CRIBB RD","Suburb":"CARINDALE","Node Id":12664,"Playground Name":"CENTRAL PLAYGROUND","Comments":0}},{"type":"Feature","geometry":{"type":"Point","coordinates":[153.1198287,-27.52810915]},"properties":{"id":223,"Park Code":"D1638","Park Name":"CRIBB ROAD PARK","Street":"CRIBB RD","Suburb":"CARINDALE","Node Id":12666,"Playground Name":"OAKLEY ST PLAYGROUND","Comments":0}},{"type":"Feature","geometry":{"type":"Point","coordinates":[152.9308783,-27.51322794]},"properties":{"id":224,"Park Code":"D0642","Park Name":"CROMARTY STREET PARK","Street":"KINGUSSIE ST","Suburb":"KENMORE","Node Id":18096,"Playground Name":"CROMARTY ST PLAYGROUND","Comments":0}},{"type":"Feature","geometry":{"type":"Point","coordinates":[153.0480818,-27.43386196]},"properties":{"id":225,"Park Code":"D0169","Park Name":"CROSBY PARK","Street":"CROSBY RD","Suburb":"ALBION","Node Id":15610,"Playground Name":"ROYAL TCE PLAYGROUND","Comments":0}},{"type":"Feature","geometry":{"type":"Point","coordinates":[152.9887089,-27.45738265]},"properties":{"id":226,"Park Code":"D0998","Park Name":"CROYDON ROAD PARK","Street":"CROYDON RD","Suburb":"PADDINGTON","Node Id":12423,"Playground Name":"ROCKBOURNE TCE PLAYGROUND","Comments":0}},{"type":"Feature","geometry":{"type":"Point","coordinates":[152.9510732,-27.51439109]},"properties":{"id":227,"Park Code":"D0253","Park Name":"CUBBERLA CREEK RESERVE","Street":"FIG TREE POCKET RD","Suburb":"CHAPEL HILL","Node Id":20287,"Playground Name":"CUBBERLA CK RES PLAYGROUND (WESTERN)","Comments":0}},{"type":"Feature","geometry":{"type":"Point","coordinates":[152.9530335,-27.51457332]},"properties":{"id":228,"Park Code":"D0253","Park Name":"CUBBERLA CREEK RESERVE","Street":"FIG TREE POCKET RD","Suburb":"CHAPEL HILL","Node Id":20289,"Playground Name":"CUBBERLA CK RES PLAYGROUND (EASTERN)","Comments":0}},{"type":"Feature","geometry":{"type":"Point","coordinates":[153.0736093,-27.32581288]},"properties":{"id":229,"Park Code":"D0643","Park Name":"CURLEW PARK","Street":"CURLEW ST","Suburb":"SANDGATE","Node Id":21943,"Playground Name":"CURLEW PK PLAYGROUND","Comments":0}},{"type":"Feature","geometry":{"type":"Point","coordinates":[153.0527023,-27.61766096]},"properties":{"id":230,"Park Code":"D1347","Park Name":"CURRAJONG STREET PARK","Street":"CURRAJONG ST","Suburb":"CALAMVALE","Node Id":11690,"Playground Name":"CURRAJONG ST PLAYGROUND","Comments":0}},{"type":"Feature","geometry":{"type":"Point","coordinates":[153.0598453,-27.61356847]},"properties":{"id":231,"Park Code":"D0782","Park Name":"CYRIL SIMS PARK","Street":"MARSALA ST","Suburb":"CALAMVALE","Node Id":11821,"Playground Name":"CYRIL SIMS PK PLAYGROUND","Comments":0}},{"type":"Feature","geometry":{"type":"Point","coordinates":[152.9859411,-27.59804136]},"properties":{"id":232,"Park Code":"D0580","Park Name":"D.J.SHERRINGTON PARK","Street":"BLUNDER RD","Suburb":"INALA","Node Id":18732,"Playground Name":"D.J. SHERRINGTON PK PLAYGROUND","Comments":0}},{"type":"Feature","geometry":{"type":"Point","coordinates":[153.0717151,-27.5699765]},"properties":{"id":233,"Park Code":"D0559","Park Name":"D.M.HENDERSON PARK","Street":"MCCULLOUGH ST","Suburb":"MACGREGOR","Node Id":20556,"Playground Name":"GRANADILLA ST PLAYGROUND","Comments":0}},{"type":"Feature","geometry":{"type":"Point","coordinates":[153.0305536,-27.64127526]},"properties":{"id":235,"Park Code":"D2005","Park Name":"DAINTREE DRIVE PARK (NO.65)","Street":"DAINTREE DR","Suburb":"PARKINSON","Node Id":11473,"Playground Name":"DAINTREE DR PLAYGROUND","Comments":0}},{"type":"Feature","geometry":{"type":"Point","coordinates":[153.1368629,-27.47801449]},"properties":{"id":236,"Park Code":"D0763","Park Name":"DAIRY SWAMP ROAD PARK","Street":"CASTLEREA ST","Suburb":"TINGALPA","Node Id":13715,"Playground Name":"SOLOMON CRESCENT PLAYGROUND","Comments":0}},{"type":"Feature","geometry":{"type":"Point","coordinates":[152.9547715,-27.40925381]},"properties":{"id":237,"Park Code":"D0706","Park Name":"DASH STREET PARK","Street":"DUGGAN ST","Suburb":"KEPERRA","Node Id":14861,"Playground Name":"DUGGAN & DASH PLAYGROUND","Comments":0}},{"type":"Feature","geometry":{"type":"Point","coordinates":[153.151179,-27.46153023]},"properties":{"id":238,"Park Code":"D1909","Park Name":"DASYURE PLACE PARK","Street":"DASYURE PL","Suburb":"WYNNUM WEST","Node Id":30377,"Playground Name":"DASYURE PLACE PLAYGROUND","Comments":0}},{"type":"Feature","geometry":{"type":"Point","coordinates":[153.0642171,-27.33299373]},"properties":{"id":239,"Park Code":"D0620","Park Name":"DEAGON LANDS PARK","Street":"HICKSON RD","Suburb":"DEAGON","Node Id":13230,"Playground Name":"HENDERSON RD PLAYGROUND","Comments":0}},{"type":"Feature","geometry":{"type":"Point","coordinates":[153.0620629,-27.32201627]},"properties":{"id":240,"Park Code":"D0283","Park Name":"DEAGON SPORTSGROUND PARK","Street":"BOARD ST","Suburb":"DEAGON","Node Id":13282,"Playground Name":"BOARD ST PLAYGROUND","Comments":0}},{"type":"Feature","geometry":{"type":"Point","coordinates":[153.0640925,-27.28623208]},"properties":{"id":241,"Park Code":"D0275","Park Name":"DECKER PARK","Street":"TWENTY-FIFTH AVE","Suburb":"BRIGHTON","Node Id":13351,"Playground Name":"DECKER PK DISTRICT PLAYGROUND","Comments":0}},{"type":"Feature","geometry":{"type":"Point","coordinates":[153.0976389,-27.56134135]},"properties":{"id":242,"Park Code":"D0922","Park Name":"DELAVAN STREET PARK","Street":"DELAVAN ST","Suburb":"WISHART","Node Id":20439,"Playground Name":"DELAVAN ST PLAYGROUND","Comments":0}},{"type":"Feature","geometry":{"type":"Point","coordinates":[153.0684915,-27.56673712]},"properties":{"id":243,"Park Code":"D1087","Park Name":"DELFIN STREET PARK","Street":"DELFIN DR","Suburb":"MACGREGOR","Node Id":20509,"Playground Name":"DELFIN ST PLAYGROUND","Comments":0}},{"type":"Feature","geometry":{"type":"Point","coordinates":[153.1615065,-27.47136039]},"properties":{"id":244,"Park Code":"D1131","Park Name":"DENISE STREET PARK (NO.11)","Street":"DENISE ST","Suburb":"MANLY WEST","Node Id":13733,"Playground Name":"DENISE ST PLAYGROUND","Comments":0}},{"type":"Feature","geometry":{"type":"Point","coordinates":[153.0866383,-27.55662472]},"properties":{"id":245,"Park Code":"D1538","Park Name":"DENNIS WEBB PARK","Street":"MT GRAVATT-CAPALABA RD","Suburb":"UPR MT GRAVATT","Node Id":20427,"Playground Name":"DENNIS WEBB PK PLAYGROUND","Comments":0}},{"type":"Feature","geometry":{"type":"Point","coordinates":[153.0844127,-27.367082]},"properties":{"id":246,"Park Code":"D0441","Park Name":"DENT PARK","Street":"ST ACHS ST","Suburb":"NUDGEE","Node Id":17654,"Playground Name":"DENT PK PLAYGROUND","Comments":0}},{"type":"Feature","geometry":{"type":"Point","coordinates":[152.9620208,-27.6265762]},"properties":{"id":247,"Park Code":"D2062","Park Name":"DESOTO PLACE PARK","Street":"CARISBROOK CRCT","Suburb":"FOREST LAKE","Node Id":30425,"Playground Name":"DESOTO PLACE PLAYGROUND","Comments":0}},{"type":"Feature","geometry":{"type":"Point","coordinates":[153.0360437,-27.56617155]},"properties":{"id":248,"Park Code":"D0561","Park Name":"DEVITT PARK","Street":"CLINTON ST","Suburb":"COOPERS PLAINS","Node Id":16911,"Playground Name":"DEVITT PK PLAYGROUND","Comments":0}},{"type":"Feature","geometry":{"type":"Point","coordinates":[153.0861638,-27.58604688]},"properties":{"id":250,"Park Code":"D1184","Park Name":"DEWBERRY CLOSE PARK","Street":"WARRIGAL RD","Suburb":"EIGHT MILE PLNS","Node Id":20370,"Playground Name":"DEWBERRY CLOSE PLAYGROUND","Comments":0}},{"type":"Feature","geometry":{"type":"Point","coordinates":[153.0394185,-27.57004358]},"properties":{"id":251,"Park Code":"D1595","Park Name":"DICKINSON CLOSE PARK","Street":"BOUNDARY RD","Suburb":"COOPERS PLAINS","Node Id":16752,"Playground Name":"DICKINSON CLOSE PLAYGROUND","Comments":0}},{"type":"Feature","geometry":{"type":"Point","coordinates":[153.0536798,-27.5644325]},"properties":{"id":252,"Park Code":"D0789","Park Name":"DIDBROOK STREET PARK","Street":"DIDBROOK ST","Suburb":"ROBERTSON","Node Id":20462,"Playground Name":"DIDBROOK ST PLAYGROUND","Comments":0}},{"type":"Feature","geometry":{"type":"Point","coordinates":[152.8824155,-27.5592197]},"properties":{"id":253,"Park Code":"D0675","Park Name":"DIOSMA STREET PARK","Street":"MAZZARD ST","Suburb":"BELLBOWRIE","Node Id":18069,"Playground Name":"MAZZARD ST PLAYGROUND","Comments":0}},{"type":"Feature","geometry":{"type":"Point","coordinates":[152.959011,-27.51620077]},"properties":{"id":254,"Park Code":"D0256","Park Name":"DOBELL STREET PARK","Street":"DOBELL ST","Suburb":"INDOOROOPILLY","Node Id":20269,"Playground Name":"DOBELL ST PLAYGROUND","Comments":0}},{"type":"Feature","geometry":{"type":"Point","coordinates":[153.0652696,-27.35307085]},"properties":{"id":255,"Park Code":"D0240","Park Name":"DONNA PHILP PARK","Street":"STANWORTH RD","Suburb":"BOONDALL","Node Id":13379,"Playground Name":"HOLME AVE PLAYGROUND","Comments":0}},{"type":"Feature","geometry":{"type":"Point","coordinates":[153.0985307,-27.51292186]},"properties":{"id":256,"Park Code":"D0818","Park Name":"DONNINGTON STREET PARK SOUTH","Street":"CREEK RD","Suburb":"CARINDALE","Node Id":12878,"Playground Name":"CREEK RD PLAYGROUND & ACTIVITY SPACE","Comments":0}},{"type":"Feature","geometry":{"type":"Point","coordinates":[152.9875944,-27.43940524]},"properties":{"id":257,"Park Code":"D0161","Park Name":"DORRINGTON PARK","Street":"MIRRABOOKA RD","Suburb":"ASHGROVE","Node Id":19438,"Playground Name":"ENOGGERA CK PLAYGROUND & ACTIVITY SPACE","Comments":0}},{"type":"Feature","geometry":{"type":"Point","coordinates":[152.9856226,-27.4393554]},"properties":{"id":258,"Park Code":"D0161","Park Name":"DORRINGTON PARK","Street":"MIRRABOOKA RD","Suburb":"ASHGROVE","Node Id":19439,"Playground Name":"ENCHANTED FOREST DISTRICT PLAYGROUND","Comments":0}},{"type":"Feature","geometry":{"type":"Point","coordinates":[153.0250494,-27.44160006]},"properties":{"id":259,"Park Code":"D0492","Park Name":"DOWNEY PARK","Street":"NOBLE ST","Suburb":"WILSTON","Node Id":15234,"Playground Name":"RUBY ROBINSON PLAYGROUND & ACTIVITY SPACE","Comments":0}},{"type":"Feature","geometry":{"type":"Point","coordinates":[153.0593812,-27.3833862]},"properties":{"id":260,"Park Code":"D0443","Park Name":"DOWNFALL CREEK RESERVE","Street":"JEFFERIS ST","Suburb":"VIRGINIA","Node Id":17644,"Playground Name":"JEFFERIS ST PLAYGROUND","Comments":0}},{"type":"Feature","geometry":{"type":"Point","coordinates":[152.9499842,-27.57149366]},"properties":{"id":261,"Park Code":"D0327","Park Name":"DUCIE STREET PARK","Street":"EBRINGTON ST","Suburb":"DARRA","Node Id":18618,"Playground Name":"DUCIE ST PLAYGROUND","Comments":0}},{"type":"Feature","geometry":{"type":"Point","coordinates":[152.9509662,-27.57303777]},"properties":{"id":262,"Park Code":"D0327","Park Name":"DUCIE STREET PARK","Street":"EBRINGTON ST","Suburb":"DARRA","Node Id":18619,"Playground Name":"EBRINGTON ST PLAYGROUND","Comments":0}},{"type":"Feature","geometry":{"type":"Point","coordinates":[152.9279487,-27.51115228]},"properties":{"id":263,"Park Code":"D0265","Park Name":"DUMBARTON DRIVE PARK","Street":"FORTROSE ST","Suburb":"KENMORE","Node Id":18166,"Playground Name":"FORTROSE ST PLAYGROUND","Comments":0}},{"type":"Feature","geometry":{"type":"Point","coordinates":[152.9807316,-27.54653691]},"properties":{"id":264,"Park Code":"D0316","Park Name":"DUNLOP PARK","Street":"TURNER ST","Suburb":"CORINDA","Node Id":16228,"Playground Name":"DUNLOP PK PLAYGROUND (OXLEY RD)","Comments":0}},{"type":"Feature","geometry":{"type":"Point","coordinates":[152.9987444,-27.47479061]},"properties":{"id":265,"Park Code":"D0476","Park Name":"DUNMORE PARK","Street":"LANG PDE","Suburb":"AUCHENFLOWER","Node Id":19757,"Playground Name":"DUNMORE PK PLAYGROUND","Comments":0}},{"type":"Feature","geometry":{"type":"Point","coordinates":[152.9818457,-27.5921589]},"properties":{"id":266,"Park Code":"D0855","Park Name":"DURELLA STREET PARK","Street":"BLUNDER RD","Suburb":"DURACK","Node Id":18577,"Playground Name":"DURELLA ST PLAYGROUND","Comments":0}},{"type":"Feature","geometry":{"type":"Point","coordinates":[152.9818994,-27.59273253]},"properties":{"id":267,"Park Code":"D0855","Park Name":"DURELLA STREET PARK","Street":"BLUNDER RD","Suburb":"DURACK","Node Id":18578,"Playground Name":"DURRANG ST PLAYGROUND","Comments":0}},{"type":"Feature","geometry":{"type":"Point","coordinates":[152.9788013,-27.59769081]},"properties":{"id":268,"Park Code":"D0855","Park Name":"DURELLA STREET PARK","Street":"BLUNDER RD","Suburb":"DURACK","Node Id":18585,"Playground Name":"SYCAMORE ST PLAYGROUND","Comments":0}},{"type":"Feature","geometry":{"type":"Point","coordinates":[153.155455,-27.45001682]},"properties":{"id":269,"Park Code":"D1124","Park Name":"DURRINGTON PARK","Street":"SCHOOL RD","Suburb":"WYNNUM WEST","Node Id":20852,"Playground Name":"SOLANDRA ST PLAYGROUND","Comments":0}},{"type":"Feature","geometry":{"type":"Point","coordinates":[153.0245201,-27.49617165]},"properties":{"id":270,"Park Code":"D0355","Park Name":"DUTTON PARK","Street":"GLADSTONE RD","Suburb":"DUTTON PARK","Node Id":14177,"Playground Name":"HARMONY GDNS PLAYGROUND","Comments":0}},{"type":"Feature","geometry":{"type":"Point","coordinates":[153.0149513,-27.55859201]},"properties":{"id":271,"Park Code":"D0669","Park Name":"E C BACKWELL PARK","Street":"AMAROO ST","Suburb":"ARCHERFIELD","Node Id":16847,"Playground Name":"E C BACKWELL PK PLAYGROUND","Comments":0}},{"type":"Feature","geometry":{"type":"Point","coordinates":[153.0128691,-27.45368274]},"properties":{"id":272,"Park Code":"D0175","Park Name":"E. E. MCCASKIE OVAL","Street":"KELVIN GROVE RD","Suburb":"KELVIN GROVE","Node Id":15401,"Playground Name":"E.E.MCCASKIE OVAL PLAYGROUND","Comments":0}},{"type":"Feature","geometry":{"type":"Point","coordinates":[153.1198692,-27.42018448]},"properties":{"id":273,"Park Code":"D1902","Park Name":"EAGLE FARM ROAD PARK","Street":"EAGLE FARM RD","Suburb":"PINKENBA","Node Id":15476,"Playground Name":"SERPENTINE RD PLAYGROUND","Comments":0}},{"type":"Feature","geometry":{"type":"Point","coordinates":[153.1085066,-27.53246095]},"properties":{"id":274,"Park Code":"D1083","Park Name":"EASTWOOD DRIVE PARK","Street":"OCONNOR CRES","Suburb":"MANSFIELD","Node Id":12920,"Playground Name":"EASTWOOD DVE PLAYGROUND","Comments":0}},{"type":"Feature","geometry":{"type":"Point","coordinates":[153.1894991,-27.4690395]},"properties":{"id":275,"Park Code":"D0532","Park Name":"ED DEVENPORT ROTARY PARK","Street":"BELTANA ST","Suburb":"LOTA","Node Id":20898,"Playground Name":"ED DEVENPORT ROTARY PK PLAYGROUND","Comments":0}},{"type":"Feature","geometry":{"type":"Point","coordinates":[153.0541222,-27.61962848]},"properties":{"id":276,"Park Code":"D1068","Park Name":"EDEN ELM STREET PARK","Street":"PARKLANDS ST","Suburb":"CALAMVALE","Node Id":11877,"Playground Name":"EDEN ELM ST PLAYGROUND & ACTIVITY SPACE","Comments":0}},{"type":"Feature","geometry":{"type":"Point","coordinates":[152.9541863,-27.5556141]},"properties":{"id":277,"Park Code":"D1399","Park Name":"EDENBROOKE PARK","Street":"EDENBROOKE DR","Suburb":"SVTN MILE ROCKS","Node Id":16016,"Playground Name":"PAMPLING ST PLAYGROUND","Comments":0}},{"type":"Feature","geometry":{"type":"Point","coordinates":[153.1441533,-27.44303697]},"properties":{"id":278,"Park Code":"D0625","Park Name":"EDWARD KELK PARK","Street":"SIBLEY RD","Suburb":"WYNNUM WEST","Node Id":21026,"Playground Name":"SIBLEY RD PLAYGROUND","Comments":0}},{"type":"Feature","geometry":{"type":"Point","coordinates":[153.1071779,-27.52712514]},"properties":{"id":279,"Park Code":"D1248","Park Name":"EDWARDS PARK","Street":"CRIBB RD","Suburb":"CARINDALE","Node Id":12785,"Playground Name":"PICADILLY PLACE PLAYGROUND","Comments":0}},{"type":"Feature","geometry":{"type":"Point","coordinates":[153.1056062,-27.5266484]},"properties":{"id":280,"Park Code":"D1248","Park Name":"EDWARDS PARK","Street":"CRIBB RD","Suburb":"CARINDALE","Node Id":12786,"Playground Name":"MERION PLACE JR PLAYGROUND","Comments":0}},{"type":"Feature","geometry":{"type":"Point","coordinates":[153.1057133,-27.5273432]},"properties":{"id":281,"Park Code":"D1248","Park Name":"EDWARDS PARK","Street":"CRIBB RD","Suburb":"CARINDALE","Node Id":26588,"Playground Name":"EDWARDS PARK CENTRAL PLAYGROUND","Comments":0}},{"type":"Feature","geometry":{"type":"Point","coordinates":[153.0686728,-27.31988388]},"properties":{"id":282,"Park Code":"D0292","Park Name":"EINBUNPIN LAGOON PARK","Street":"LAGOON ST","Suburb":"SANDGATE","Node Id":22263,"Playground Name":"EINBUNPIN LAGOON PK PLAYGROUND","Comments":0}},{"type":"Feature","geometry":{"type":"Point","coordinates":[153.0456182,-27.52037024]},"properties":{"id":283,"Park Code":"D0399","Park Name":"EKIBIN MEMORIAL PARK","Street":"LUTZOW ST","Suburb":"TARRAGINDI","Node Id":17043,"Playground Name":"EKIBIN MEMORIAL PK PLAYGROUND","Comments":0}},{"type":"Feature","geometry":{"type":"Point","coordinates":[153.0423221,-27.50915985]},"properties":{"id":284,"Park Code":"D0393","Park Name":"EKIBIN PARK EAST","Street":"RIDGE ST","Suburb":"GREENSLOPES","Node Id":14378,"Playground Name":"BARNSDALE PLACE PLAYGROUND","Comments":0}},{"type":"Feature","geometry":{"type":"Point","coordinates":[153.0423432,-27.50912247]},"properties":{"id":285,"Park Code":"D0393","Park Name":"EKIBIN PARK EAST","Street":"RIDGE ST","Suburb":"GREENSLOPES","Node Id":24603,"Playground Name":"RIDGE ST PLAYGROUND","Comments":0}},{"type":"Feature","geometry":{"type":"Point","coordinates":[153.0384452,-27.51321605]},"properties":{"id":286,"Park Code":"D1348","Park Name":"EKIBIN PARK SOUTH","Street":"EKIBIN RD","Suburb":"ANNERLEY","Node Id":13967,"Playground Name":"LEWISHAM ST PLAYGROUND","Comments":0}},{"type":"Feature","geometry":{"type":"Point","coordinates":[153.171246,-27.43076911]},"properties":{"id":287,"Park Code":"D0516","Park Name":"ELANORA PARK","Street":"SAUNDERS PL","Suburb":"WYNNUM","Node Id":21010,"Playground Name":"ELANORA PK ENTRANCE RD PLAYGROUND","Comments":0}},{"type":"Feature","geometry":{"type":"Point","coordinates":[152.9391352,-27.5327507]},"properties":{"id":288,"Park Code":"D0333","Park Name":"ELINGA STREET PARK","Street":"ELINGA ST","Suburb":"JINDALEE","Node Id":16213,"Playground Name":"ELINGA ST PLAYGROUND","Comments":0}},{"type":"Feature","geometry":{"type":"Point","coordinates":[152.9717311,-27.58404127]},"properties":{"id":289,"Park Code":"D0566","Park Name":"ELIZABETH BRUCE PLAYGROUND PARK","Street":"BAMBOO ST","Suburb":"INALA","Node Id":18643,"Playground Name":"ELIZABETH BRUCE PLAYGROUND","Comments":0}},{"type":"Feature","geometry":{"type":"Point","coordinates":[153.1533111,-27.46498318]},"properties":{"id":290,"Park Code":"D1069","Park Name":"EMMETT STREET PARK","Street":"WONDALL RD","Suburb":"WYNNUM WEST","Node Id":20857,"Playground Name":"EMMETT ST PLAYGROUND","Comments":0}},{"type":"Feature","geometry":{"type":"Point","coordinates":[153.028969,-27.33096376]},"properties":{"id":291,"Park Code":"D1260","Park Name":"ENBROOK PARKLAND","Street":"TELEGRAPH RD","Suburb":"BRACKEN RIDGE","Node Id":12100,"Playground Name":"ENBROOK PARKLAND PLAYGROUND","Comments":0}},{"type":"Feature","geometry":{"type":"Point","coordinates":[153.0331627,-27.6202309]},"properties":{"id":292,"Park Code":"D0765","Park Name":"ENDIANDRA STREET PARK","Street":"ALGESTER RD","Suburb":"ALGESTER","Node Id":11826,"Playground Name":"ALGESTER RD PLAYGROUND","Comments":0}},{"type":"Feature","geometry":{"type":"Point","coordinates":[152.9868787,-27.41634755]},"properties":{"id":293,"Park Code":"D0129","Park Name":"ENOGGERA MEMORIAL PARK","Street":"HURDCOTTE ST","Suburb":"ENOGGERA","Node Id":14972,"Playground Name":"HURDCOTTE ST PLAYGROUND & JR CYCLE TRAINING","Comments":0}},{"type":"Feature","geometry":{"type":"Point","coordinates":[152.9873343,-27.4134857]},"properties":{"id":294,"Park Code":"D0129","Park Name":"ENOGGERA MEMORIAL PARK","Street":"HURDCOTTE ST","Suburb":"ENOGGERA","Node Id":14973,"Playground Name":"MOTT ST (SPORTS CLUB)  PLAYGROUND","Comments":0}},{"type":"Feature","geometry":{"type":"Point","coordinates":[153.0311365,-27.52368775]},"properties":{"id":295,"Park Code":"D0390","Park Name":"ERIC CRESCENT PARK","Street":"TENNESSEE AVE","Suburb":"ANNERLEY","Node Id":14051,"Playground Name":"ERIC CRES PLAYGROUND","Comments":0}},{"type":"Feature","geometry":{"type":"Point","coordinates":[153.1638788,-27.43670937]},"properties":{"id":296,"Park Code":"D0521","Park Name":"ERIC SHAW PARK","Street":"SELINA ST","Suburb":"WYNNUM","Node Id":20976,"Playground Name":"ERIC SHAW PK PLAYGROUND","Comments":0}},{"type":"Feature","geometry":{"type":"Point","coordinates":[153.0734406,-27.50394564]},"properties":{"id":297,"Park Code":"D0110","Park Name":"ERIC SIVELL PARK","Street":"BOUNDARY RD","Suburb":"COORPAROO","Node Id":14542,"Playground Name":"ERIC SIVELL PK PLAYGROUND","Comments":0}},{"type":"Feature","geometry":{"type":"Point","coordinates":[152.9628104,-27.59960134]},"properties":{"id":298,"Park Code":"D0587","Park Name":"ERIDANUS STREET PARK","Street":"BELLATRIX ST","Suburb":"INALA","Node Id":18684,"Playground Name":"ERIDANUS ST PLAYGROUND","Comments":0}},{"type":"Feature","geometry":{"type":"Point","coordinates":[153.1093808,-27.51304421]},"properties":{"id":299,"Park Code":"D0880","Park Name":"EROMANGA STREET PARK","Street":"RAINSBY CT","Suburb":"CARINDALE","Node Id":12833,"Playground Name":"EROMANGA ST PLAYGROUND","Comments":0}},{"type":"Feature","geometry":{"type":"Point","coordinates":[152.9998886,-27.51381441]},"properties":{"id":300,"Park Code":"D0984","Park Name":"ESPLANADE PARK","Street":"ESPLANADE","Suburb":"YERONGA","Node Id":14008,"Playground Name":"ESPLANADE PLAYGROUND (DIANE ST)","Comments":"Temporary closure for flood repairs"}},{"type":"Feature","geometry":{"type":"Point","coordinates":[152.9824248,-27.4990212]},"properties":{"id":301,"Park Code":"D0423","Park Name":"ESSEX ROAD PARK","Street":"ESSEX RD","Suburb":"INDOOROOPILLY","Node Id":20217,"Playground Name":"ESSEX RD PLAYGROUND","Comments":0}},{"type":"Feature","geometry":{"type":"Point","coordinates":[152.9645247,-27.5859519]},"properties":{"id":302,"Park Code":"D1249","Park Name":"EUGENIA STREET PARK","Street":"EUGENIA ST","Suburb":"RICHLANDS","Node Id":18505,"Playground Name":"RYECROFT PLACE PLAYGROUND","Comments":0}},{"type":"Feature","geometry":{"type":"Point","coordinates":[153.1144902,-27.54401077]},"properties":{"id":303,"Park Code":"D3092","Park Name":"F.R.CATERSON PARK","Street":"MT GRAVATT-CAPALABA RD","Suburb":"MANSFIELD","Node Id":15689,"Playground Name":"MT GRAVATT CAPALABA RD PLAYGROUND","Comments":0}},{"type":"Feature","geometry":{"type":"Point","coordinates":[153.0266278,-27.50396238]},"properties":{"id":304,"Park Code":"D0375","Park Name":"FAIRFIELD PARK","Street":"FAIRFIELD RD","Suburb":"FAIRFIELD","Node Id":14126,"Playground Name":"FAIRFIELD PK PLAYGROUND","Comments":0}},{"type":"Feature","geometry":{"type":"Point","coordinates":[153.0257315,-27.50753834]},"properties":{"id":305,"Park Code":"D0377","Park Name":"FAIRVIEW STREET PARK","Street":"VICTORIA TCE","Suburb":"ANNERLEY","Node Id":22203,"Playground Name":"FAIRVIEW ST PLAYGROUND","Comments":0}},{"type":"Feature","geometry":{"type":"Point","coordinates":[152.9904336,-27.40384812]},"properties":{"id":306,"Park Code":"D0014","Park Name":"FALLON PARK","Street":"FALLON ST","Suburb":"EVERTON PARK","Node Id":16717,"Playground Name":"FALLON PK PLAYGROUND","Comments":0}},{"type":"Feature","geometry":{"type":"Point","coordinates":[153.0515213,-27.60627735]},"properties":{"id":307,"Park Code":"D0819","Park Name":"FALSTAFF STREET PARK","Street":"FALSTAFF ST","Suburb":"SUNNYBANK HILLS","Node Id":19001,"Playground Name":"FALSTAFF ST PLAYGROUND","Comments":0}},{"type":"Feature","geometry":{"type":"Point","coordinates":[152.9814597,-27.51633197]},"properties":{"id":308,"Park Code":"D0010","Park Name":"FAULKNER PARK","Street":"LEYBOURNE ST","Suburb":"GRACEVILLE","Node Id":20313,"Playground Name":"LEYBOURNE ST PLAYGROUND","Comments":0}},{"type":"Feature","geometry":{"type":"Point","coordinates":[152.9858844,-27.51834572]},"properties":{"id":309,"Park Code":"D0010","Park Name":"FAULKNER PARK","Street":"LEYBOURNE ST","Suburb":"GRACEVILLE","Node Id":30323,"Playground Name":"WARATAH AVE PLAYGROUND","Comments":0}},{"type":"Feature","geometry":{"type":"Point","coordinates":[153.0155883,-27.5498349]},"properties":{"id":310,"Park Code":"D0548","Park Name":"FAUNA PARADE PARK","Street":"BOOBOOK ST","Suburb":"ROCKLEA","Node Id":16956,"Playground Name":"GALAH ST PLAYGROUND","Comments":0}},{"type":"Feature","geometry":{"type":"Point","coordinates":[153.0388658,-27.49640311]},"properties":{"id":311,"Park Code":"D1048","Park Name":"FAVERSHAM STREET PARK","Street":"FAVERSHAM ST","Suburb":"WOOLLOONGABBA","Node Id":14340,"Playground Name":"FAVERSHAM ST PLAYGROUND","Comments":0}},{"type":"Feature","geometry":{"type":"Point","coordinates":[153.1520588,-27.45234988]},"properties":{"id":312,"Park Code":"D1978","Park Name":"FEDERATION STREET PARK","Street":"FEDERATION ST","Suburb":"WYNNUM WEST","Node Id":20670,"Playground Name":"FEDERATION ST PLAYGROUND","Comments":0}},{"type":"Feature","geometry":{"type":"Point","coordinates":[153.0175067,-27.51137577]},"properties":{"id":313,"Park Code":"D0378","Park Name":"FEHLBERG PARK","Street":"BRISBANE CSO","Suburb":"YERONGA","Node Id":14112,"Playground Name":"VENNER RD PLAYGROUND","Comments":0}},{"type":"Feature","geometry":{"type":"Point","coordinates":[153.0316584,-27.53492711]},"properties":{"id":314,"Park Code":"D0846","Park Name":"FELDT STREET PARK","Street":"FELDT ST","Suburb":"MOOROOKA","Node Id":16821,"Playground Name":"FELDT ST PLAYGROUND","Comments":0}},{"type":"Feature","geometry":{"type":"Point","coordinates":[153.0848304,-27.57809417]},"properties":{"id":315,"Park Code":"D0829","Park Name":"FELSPAR STREET PARK","Street":"FELSPAR ST","Suburb":"EIGHT MILE PLNS","Node Id":20453,"Playground Name":"FELSPAR ST PLAYGROUND","Comments":0}},{"type":"Feature","geometry":{"type":"Point","coordinates":[152.9709057,-27.41205681]},"properties":{"id":316,"Park Code":"D0017","Park Name":"FENWICK PARK","Street":"SAMFORD RD","Suburb":"MITCHELTON","Node Id":15021,"Playground Name":"FENWICK PK PLAYGROUND","Comments":0}},{"type":"Feature","geometry":{"type":"Point","coordinates":[153.0366908,-27.31770208]},"properties":{"id":317,"Park Code":"D0718","Park Name":"FERGUSON PARK (BRACKEN RIDGE)","Street":"BARRETT ST","Suburb":"BRACKEN RIDGE","Node Id":12285,"Playground Name":"FERGUSON PK COMMUNITY CENTRE PLAYGROUND","Comments":0}},{"type":"Feature","geometry":{"type":"Point","coordinates":[153.0377649,-27.31844256]},"properties":{"id":318,"Park Code":"D0718","Park Name":"FERGUSON PARK (BRACKEN RIDGE)","Street":"BARRETT ST","Suburb":"BRACKEN RIDGE","Node Id":12286,"Playground Name":"BARRETT ST PLAYGROUND","Comments":0}},{"type":"Feature","geometry":{"type":"Point","coordinates":[152.9876573,-27.42013038]},"properties":{"id":319,"Park Code":"D0132","Park Name":"FERGUSON PARK (ENOGGERA)","Street":"SAMFORD RD","Suburb":"ENOGGERA","Node Id":14956,"Playground Name":"FERGUSON PK PLAYGROUND","Comments":0}},{"type":"Feature","geometry":{"type":"Point","coordinates":[152.9379728,-27.40211517]},"properties":{"id":320,"Park Code":"D0148","Park Name":"FERNY GROVE PICNIC GROUND PARK","Street":"SAMFORD RD","Suburb":"FERNY GROVE","Node Id":14921,"Playground Name":"FERNY GROVE PICNIC GND PLAYGROUND","Comments":0}},{"type":"Feature","geometry":{"type":"Point","coordinates":[152.879238,-27.566737]},"properties":{"id":321,"Park Code":"D1090","Park Name":"FIDDLEWOOD CRESCENT PARK","Street":"FIDDLEWOOD CRES","Suburb":"BELLBOWRIE","Node Id":18032,"Playground Name":"FIDDLEWOOD CRES PLAYGROUND","Comments":0}},{"type":"Feature","geometry":{"type":"Point","coordinates":[152.9740307,-27.54534648]},"properties":{"id":322,"Park Code":"D0313","Park Name":"FIFTEEN MILE CORNER","Street":"TEESDALE ST","Suburb":"CORINDA","Node Id":16246,"Playground Name":"TEESDALE ST PLAYGROUND","Comments":0}},{"type":"Feature","geometry":{"type":"Point","coordinates":[152.9543502,-27.52493736]},"properties":{"id":323,"Park Code":"D1018","Park Name":"FIG TREE COMMON PARK","Street":"ERROGIE PL","Suburb":"FIG TREE POCKET","Node Id":20090,"Playground Name":"ERROGIE PLACE PLAYGROUND","Comments":0}},{"type":"Feature","geometry":{"type":"Point","coordinates":[152.9722831,-27.5427147]},"properties":{"id":324,"Park Code":"D0260","Park Name":"FIG TREE POCKET RIVERSIDE RESERVE","Street":"MANDALAY ST","Suburb":"FIG TREE POCKET","Node Id":20249,"Playground Name":"MANDALAY ST PLAYGROUND","Comments":0}},{"type":"Feature","geometry":{"type":"Point","coordinates":[152.9699066,-27.5024058]},"properties":{"id":325,"Park Code":"D1241","Park Name":"FINNEY ROAD PARK","Street":"FINNEY RD","Suburb":"INDOOROOPILLY","Node Id":20025,"Playground Name":"RANKIN ST PLAYGROUND","Comments":0}},{"type":"Feature","geometry":{"type":"Point","coordinates":[153.0681285,-27.45787183]},"properties":{"id":326,"Park Code":"D0977","Park Name":"FISHERMAN'S BEND PARK","Street":"FISHERMANS BEND","Suburb":"BALMORAL","Node Id":17206,"Playground Name":"FISHERMANS BEND PK PLAYGROUND","Comments":0}},{"type":"Feature","geometry":{"type":"Point","coordinates":[153.0673527,-27.47680156]},"properties":{"id":327,"Park Code":"D1034","Park Name":"FITZGERALD STREET PARK","Street":"FITZGERALD ST","Suburb":"MORNINGSIDE","Node Id":17219,"Playground Name":"AGNEW ST PLAYGROUND","Comments":0}},{"type":"Feature","geometry":{"type":"Point","coordinates":[153.0018879,-27.34879484]},"properties":{"id":328,"Park Code":"D0750","Park Name":"FLAMETREE STREET PARK","Street":"FLAMETREE ST","Suburb":"BRIDGEMAN DOWNS","Node Id":12212,"Playground Name":"FLAMETREE ST PLAYGROUND","Comments":0}},{"type":"Feature","geometry":{"type":"Point","coordinates":[152.9814808,-27.45112294]},"properties":{"id":329,"Park Code":"D0183","Park Name":"FLETCHER PARADE PARK (NOS.161-231)","Street":"FLETCHER PDE","Suburb":"BARDON","Node Id":19591,"Playground Name":"BARDON LIONS PK PLAYGROUND","Comments":0}},{"type":"Feature","geometry":{"type":"Point","coordinates":[153.0014584,-27.39573617]},"properties":{"id":330,"Park Code":"D0684","Park Name":"FLOCKTON STREET PARK","Street":"LANCHESTER ST","Suburb":"STAFFORD HTS","Node Id":16646,"Playground Name":"FLOCKTON ST PLAYGROUND","Comments":0}},{"type":"Feature","geometry":{"type":"Point","coordinates":[152.963677,-27.5555816]},"properties":{"id":331,"Park Code":"D1861","Park Name":"FLORENCE PLACE PARK","Street":"FLORENCE PL","Suburb":"OXLEY","Node Id":15966,"Playground Name":"FLORENCE PLACE PLAYGROUND","Comments":0}},{"type":"Feature","geometry":{"type":"Point","coordinates":[153.0467226,-27.59375746]},"properties":{"id":332,"Park Code":"D1455","Park Name":"FLORIBUNDA PLACE PARK","Street":"FLORIBUNDA ST","Suburb":"SUNNYBANK HILLS","Node Id":18845,"Playground Name":"FLORIBUNDA PLACE PLAYGROUND","Comments":0}},{"type":"Feature","geometry":{"type":"Point","coordinates":[153.0337865,-27.43946489]},"properties":{"id":333,"Park Code":"D0502","Park Name":"FLYNN OVAL PARK","Street":"CARTWRIGHT ST","Suburb":"WINDSOR","Node Id":29743,"Playground Name":"BRYDEN STREET PLAYGROUND","Comments":0}},{"type":"Feature","geometry":{"type":"Point","coordinates":[152.969156,-27.58594542]},"properties":{"id":334,"Park Code":"D0609","Park Name":"FORBES PARK","Street":"ILEX ST","Suburb":"INALA","Node Id":18678,"Playground Name":"FORBES PK PLAYGROUND","Comments":0}},{"type":"Feature","geometry":{"type":"Point","coordinates":[152.9518518,-27.60516353]},"properties":{"id":335,"Park Code":"D1213","Park Name":"FOREST LAKE LIONS PARK","Street":"FOREST LAKE BLVD","Suburb":"FOREST LAKE","Node Id":18548,"Playground Name":"MANET ST PLAYGROUND","Comments":0}},{"type":"Feature","geometry":{"type":"Point","coordinates":[153.0508106,-27.39497019]},"properties":{"id":336,"Park Code":"D0236","Park Name":"FRANK ROBERTS PARK","Street":"CHARLOTTE ST","Suburb":"WAVELL HEIGHTS","Node Id":17719,"Playground Name":"FRANK ROBERTS PK PLAYGROUND","Comments":0}},{"type":"Feature","geometry":{"type":"Point","coordinates":[153.0592548,-27.36087673]},"properties":{"id":337,"Park Code":"D0727","Park Name":"FRANK SLEEMAN PARK","Street":"ZILLMERE RD","Suburb":"BOONDALL","Node Id":13235,"Playground Name":"PARTHENIA ST PLAYGROUND","Comments":0}},{"type":"Feature","geometry":{"type":"Point","coordinates":[152.9912963,-27.43669233]},"properties":{"id":338,"Park Code":"D0162","Park Name":"FRANK WATERS PARK","Street":"DORRINGTON DR","Suburb":"ASHGROVE","Node Id":19430,"Playground Name":"FRANK WATERS PK PLAYGROUND","Comments":0}},{"type":"Feature","geometry":{"type":"Point","coordinates":[153.098655,-27.5954275]},"properties":{"id":339,"Park Code":"D1100","Park Name":"FRANQUIN CRESCENT PARK","Street":"WESTPARK PL","Suburb":"KURABY","Node Id":19062,"Playground Name":"FRANQUIN CR PLAYGROUND","Comments":0}},{"type":"Feature","geometry":{"type":"Point","coordinates":[153.0210417,-27.35811536]},"properties":{"id":340,"Park Code":"D0222","Park Name":"FRED CAMPBELL PARK","Street":"ZILLMERE RD","Suburb":"ASPLEY","Node Id":16440,"Playground Name":"COOYAR ST PLAYGROUND","Comments":0}},{"type":"Feature","geometry":{"type":"Point","coordinates":[153.0437761,-27.31713127]},"properties":{"id":341,"Park Code":"D0975","Park Name":"FRED FRANCIS PARK","Street":"BRACKEN RIDGE RD","Suburb":"BRACKEN RIDGE","Node Id":23564,"Playground Name":"BROOKVALE PLACE PLAYGROUND","Comments":0}},{"type":"Feature","geometry":{"type":"Point","coordinates":[153.0188814,-27.37908799]},"properties":{"id":342,"Park Code":"D0216","Park Name":"FREDERICK ANNAND PARK","Street":"WEBSTER RD","Suburb":"CHERMSIDE WEST","Node Id":16446,"Playground Name":"FREDERICK ANNAND PK PLAYGROUND","Comments":0}},{"type":"Feature","geometry":{"type":"Point","coordinates":[153.002445,-27.44421735]},"properties":{"id":343,"Park Code":"D1316","Park Name":"FREE STREET PARK","Street":"FREE ST","Suburb":"NEWMARKET","Node Id":15074,"Playground Name":"FREE ST PLAYGROUND","Comments":0}},{"type":"Feature","geometry":{"type":"Point","coordinates":[152.9594744,-27.54693263]},"properties":{"id":344,"Park Code":"D1202","Park Name":"FREMONT STREET PARK","Street":"DELAPINE PL","Suburb":"SVTN MILE ROCKS","Node Id":16047,"Playground Name":"DELAPINE PLACE PLAYGROUND","Comments":0}},{"type":"Feature","geometry":{"type":"Point","coordinates":[153.0167941,-27.55293132]},"properties":{"id":345,"Park Code":"D0549","Park Name":"FRENEY STREET PARK","Street":"FRENEY ST","Suburb":"ROCKLEA","Node Id":16948,"Playground Name":"FRENEY ST PLAYGROUND","Comments":0}},{"type":"Feature","geometry":{"type":"Point","coordinates":[153.0980086,-27.55211235]},"properties":{"id":346,"Park Code":"D0854","Park Name":"FRINTON STREET PARK","Street":"FRINTON ST","Suburb":"WISHART","Node Id":20447,"Playground Name":"FRINTON ST PLAYGROUND","Comments":0}},{"type":"Feature","geometry":{"type":"Point","coordinates":[153.0889373,-27.5826958]},"properties":{"id":347,"Park Code":"D0785","Park Name":"GAGARRA STREET PARK","Street":"GAGARRA ST","Suburb":"EIGHT MILE PLNS","Node Id":20471,"Playground Name":"GAGARRA ST PLAYGROUND","Comments":0}},{"type":"Feature","geometry":{"type":"Point","coordinates":[153.0571614,-27.57791873]},"properties":{"id":348,"Park Code":"D0915","Park Name":"GAGER STREET PARK","Street":"LISTER ST","Suburb":"SUNNYBANK","Node Id":18939,"Playground Name":"GAGER ST PLAYGROUND","Comments":0}},{"type":"Feature","geometry":{"type":"Point","coordinates":[153.1257361,-27.54205067]},"properties":{"id":349,"Park Code":"D1335","Park Name":"GAINSBOROUGH AVENUE PARK","Street":"REMBRANDT WAY","Suburb":"MACKENZIE","Node Id":12740,"Playground Name":"GAINSBOROUGH AVE PLAYGROUND","Comments":0}},{"type":"Feature","geometry":{"type":"Point","coordinates":[153.0820633,-27.59001258]},"properties":{"id":350,"Park Code":"D1160","Park Name":"GARRETT PARK","Street":"KALANDA ST","Suburb":"RUNCORN","Node Id":18820,"Playground Name":"GARRETT PK PLAYGROUND","Comments":0}},{"type":"Feature","geometry":{"type":"Point","coordinates":[153.086047,-27.48849891]},"properties":{"id":351,"Park Code":"D0055","Park Name":"GARTH WEBB PARK","Street":"STANLEY RD","Suburb":"CAMP HILL","Node Id":17277,"Playground Name":"GARTH WEBB PK PLAYGROUND","Comments":0}},{"type":"Feature","geometry":{"type":"Point","coordinates":[153.0168507,-27.59213026]},"properties":{"id":352,"Park Code":"D1061","Park Name":"GEMSTONE CRESCENT PARK","Street":"WATSON RD","Suburb":"ACACIA RIDGE","Node Id":11897,"Playground Name":"GEMSTONE CRES PLAYGROUND","Comments":0}},{"type":"Feature","geometry":{"type":"Point","coordinates":[153.1868646,-27.44671055]},"properties":{"id":353,"Park Code":"D0518","Park Name":"GEORGE CLAYTON PARK","Street":"LOWER ESP","Suburb":"MANLY","Node Id":20986,"Playground Name":"DREVESEN PK PLAYGROUND","Comments":0}},{"type":"Feature","geometry":{"type":"Point","coordinates":[153.1846553,-27.4465138]},