{"type":"FeatureCollection","features":[{"type":"Feature","geometry":{"type":"Point","coordinates":[-118.42035953399994,34.240799140000036]},"properties":{"Name":"Vena G/HA MAG","Type":"School Garden","SubType":"Other","Address":"9377 Vena Avenue\nLos Angeles, California\n"}},{"type":"Feature","geometry":{"type":"Point","coordinates":[-118.49299840099997,34.27926920500005]},"properties":{"Name":"North Valley Charter Academy","Type":"School Garden","SubType":"Other","Address":"16551-a Rinaldi Street\nGranada Hills, California\n"}},{"type":"Feature","geometry":{"type":"Point","coordinates":[-118.53346636499998,34.26556167600006]},"properties":{"Name":"Darby Elementary","Type":"School Garden","SubType":"Elementary","Address":"10818 Darby Avenue\nNorthridge, CA 91326\n"}},{"type":"Feature","geometry":{"type":"Point","coordinates":[-118.61702638499997,34.217700499000046]},"properties":{"Name":"Capistrano Elementary","Type":"School Garden","SubType":"Elementary","Address":"8118 Capistrano Avenue\nWest Hills, CA 91304\n"}},{"type":"Feature","geometry":{"type":"Point","coordinates":[-118.43910715899995,34.22580680100003]},"properties":{"Name":"Chase Elementary","Type":"School Garden","SubType":"Elementary","Address":"14041 Chase Street\nPanorama City, CA 91402\n"}},{"type":"Feature","geometry":{"type":"Point","coordinates":[-118.38291959399999,34.21569322400006]},"properties":{"Name":"Arminta Elementary","Type":"School Garden","SubType":"Elementary","Address":"11530 Strathern Street\nNorth Hollywood, CA 91605\n"}},{"type":"Feature","geometry":{"type":"Point","coordinates":[-118.40947277599997,34.18043109600006]},"properties":{"Name":"Monlux Elementary","Type":"School Garden","SubType":"Elementary","Address":"6051 Bellaire Avenue\nNorth Hollywood, CA 91606\n"}},{"type":"Feature","geometry":{"type":"Point","coordinates":[-118.37736674799999,34.165980329000035]},"properties":{"Name":"Lankershim Elementary","Type":"School Garden","SubType":"Elementary","Address":"5250 Bakman Avenue\nNorth Hollywood, CA 91601\n"}},{"type":"Feature","geometry":{"type":"Point","coordinates":[-118.46400900199995,34.192666978000034]},"properties":{"Name":"Columbus Ave Elementary","Type":"School Garden","SubType":"Elementary","Address":"6700 Columbus Avenue\nVan Nuys, CA 91405\n"}},{"type":"Feature","geometry":{"type":"Point","coordinates":[-118.45750218599994,34.168340202000024]},"properties":{"Name":"Kester Elementary","Type":"School Garden","SubType":"Elementary","Address":"5353 Kester Avenue\nVan Nuys, CA 91411\n"}},{"type":"Feature","geometry":{"type":"Point","coordinates":[-118.44657279299997,34.18997083700003]},"properties":{"Name":"Ararat Charter School","Type":"School Garden","SubType":"Elementary","Address":"6555 Sylmar Avenue\nVan Nuys, CA 91401\n"}},{"type":"Feature","geometry":{"type":"Point","coordinates":[-118.53063981799994,34.20105348300007]},"properties":{"Name":"Magnolia Science Academy","Type":"School Garden","SubType":"Other","Address":"18238 Sherman Way\nReseda, CA 91335\n"}},{"type":"Feature","geometry":{"type":"Point","coordinates":[-118.57717587099995,34.19730050100003]},"properties":{"Name":"Fullbright Elementary","Type":"School Garden","SubType":"Elementary","Address":"6940 Fullbright Avenue\nCanoga Park, CA 91306\n"}},{"type":"Feature","geometry":{"type":"Point","coordinates":[-118.64779807099995,34.18374851500005]},"properties":{"Name":"Academy For Enriched Sciences","Type":"School Garden","SubType":"Elementary","Address":"6170 Lockhurst Drive\nWoodland Hills, CA 91367\n"}},{"type":"Feature","geometry":{"type":"Point","coordinates":[-118.63016931199996,34.157536408000055]},"properties":{"Name":"Calabash Elementary","Type":"School Garden","SubType":"Elementary","Address":"23055 Eugene Street\nWoodland Hills, CA 91364\n"}},{"type":"Feature","geometry":{"type":"Point","coordinates":[-118.52313731099997,34.17648337800006]},"properties":{"Name":"Emelita Elementary","Type":"School Garden","SubType":"Elementary","Address":"17931 Hatteras Street\nEncino, CA 91316\n"}},{"type":"Feature","geometry":{"type":"Point","coordinates":[-118.42484651999996,34.14804045400007]},"properties":{"Name":"Dixie Canyon Elementary","Type":"School Garden","SubType":"Elementary","Address":"4220 Dixie Canyon Avenue\nSherman Oaks, CA 91423\n"}},{"type":"Feature","geometry":{"type":"Point","coordinates":[-118.36738222599996,34.14707023200003]},"properties":{"Name":"Rio Vista Elementary","Type":"School Garden","SubType":"Elementary","Address":"4243 Satsuma Avenue\nNorth Hollywood, CA 91602\n"}},{"type":"Feature","geometry":{"type":"Point","coordinates":[-118.39203759999998,34.14095507300004]},"properties":{"Name":"Carpenter Community Charter","Type":"School Garden","SubType":"Elementary","Address":"3909 Carpenter Avenue\nStudio City, CA 91604\n"}},{"type":"Feature","geometry":{"type":"Point","coordinates":[-118.20601437599998,34.13338342900005]},"properties":{"Name":"Eagle Rock High School","Type":"School Garden","SubType":"Other","Address":"1750 Yosemite Drive\nLos Angeles, CA 90041\n"}},{"type":"Feature","geometry":{"type":"Point","coordinates":[-118.19828141199997,34.10992642800005]},"properties":{"Name":"Monte Vista Elementary","Type":"School Garden","SubType":"Other","Address":"5423 Monte Vista Street\nLos Angeles, CA 90042\n"}},{"type":"Feature","geometry":{"type":"Point","coordinates":[-118.22763809599996,34.127367366000044]},"properties":{"Name":"Delevan Drive Elementary","Type":"School Garden","SubType":"Elementary","Address":"4168 W Avenue 42\nLos Angeles, CA 90065\n"}},{"type":"Feature","geometry":{"type":"Point","coordinates":[-118.25371884299994,34.114643870000066]},"properties":{"Name":"Atwater Elementary","Type":"School Garden","SubType":"Elementary","Address":"3271 Silver Lake Blvd\nLos Angeles, CA 90039\n"}},{"type":"Feature","geometry":{"type":"Point","coordinates":[-118.28519605499997,34.10576826600004]},"properties":{"Name":"Franklin Elementary","Type":"School Garden","SubType":"Elementary","Address":"1910 N Commonwealth Avenue\nLos Angeles, CA 90027\n"}},{"type":"Feature","geometry":{"type":"Point","coordinates":[-118.34464651999997,34.12479464100005]},"properties":{"Name":"Valley View Elementary","Type":"School Garden","SubType":"Elementary","Address":"6921 Woodrow Wilson Drive\nLos Angeles, CA 90068\n"}},{"type":"Feature","geometry":{"type":"Point","coordinates":[-118.32097983699998,34.10526775300008]},"properties":{"Name":"Cheremoya Elementary","Type":"School Garden","SubType":"Elementary","Address":"6017 Franklin Avenue\nLos Angeles, CA 90028\n"}},{"type":"Feature","geometry":{"type":"Point","coordinates":[-118.28836910899997,34.09343266600007]},"properties":{"Name":"Lexington Ave PC","Type":"School Garden","SubType":"Other","Address":"4564 W Lexington Avenue\nLos Angeles, CA 90029\n"}},{"type":"Feature","geometry":{"type":"Point","coordinates":[-118.31570584299999,34.08954141100003]},"properties":{"Name":"Santa Monica Community Charter","Type":"School Garden","SubType":"Elementary","Address":"1022 N Van Ness Avenue\nLos Angeles, CA 90038\n"}},{"type":"Feature","geometry":{"type":"Point","coordinates":[-118.24937128399995,34.08907473600004]},"properties":{"Name":"Elysian Heights Elementary","Type":"School Garden","SubType":"Elementary","Address":"1562 Baxter Street\nLos Angeles, CA 90026\n"}},{"type":"Feature","geometry":{"type":"Point","coordinates":[-118.21084243599995,34.08335711400008]},"properties":{"Name":"L.A. Leadership Academy Charter School","Type":"School Garden","SubType":"Other","Address":"234 W Avenue 33\nLos Angeles, CA 90031\n"}},{"type":"Feature","geometry":{"type":"Point","coordinates":[-118.17791137399996,34.09056578900004]},"properties":{"Name":"El Sereno Elementary","Type":"School Garden","SubType":"Elementary","Address":"3838 Rosemead Avenue\nLos Angeles, CA 90032\n"}},{"type":"Feature","geometry":{"type":"Point","coordinates":[-118.20418109499997,34.041204341000025]},"properties":{"Name":"1st Street Elementary","Type":"School Garden","SubType":"Elementary","Address":"2820 E First Street\nLos Angeles, CA 90033\n"}},{"type":"Feature","geometry":{"type":"Point","coordinates":[-118.20707332299997,34.031043520000026]},"properties":{"Name":"Euclid Elementary","Type":"School Garden","SubType":"Elementary","Address":"806 Euclid Avenue\nLos Angeles, CA 90023\n"}},{"type":"Feature","geometry":{"type":"Point","coordinates":[-118.27346473699998,34.05500135800003]},"properties":{"Name":"Camino Nuevo Academy","Type":"School Garden","SubType":"Other","Address":"697 S Burlington Avenue\nLos Angeles, CA 90057\n"}},{"type":"Feature","geometry":{"type":"Point","coordinates":[-118.26172058799995,34.05807560300008]},"properties":{"Name":"Academy Leadership Community","Type":"School Garden","SubType":"High","Address":"322 Lucas Avenue\nLos Angeles, CA 90017\n"}},{"type":"Feature","geometry":{"type":"Point","coordinates":[-118.33483109399998,34.07097211700005]},"properties":{"Name":"3rd Street Elementary","Type":"School Garden","SubType":"Elementary","Address":"201 S June Street\nLos Angeles, CA 90004\n"}},{"type":"Feature","geometry":{"type":"Point","coordinates":[-118.29772761399994,34.057766840000056]},"properties":{"Name":"New Open World Academy","Type":"School Garden","SubType":"Other","Address":"3201 W 8th Street\nLos Angeles, CA 90010\n"}},{"type":"Feature","geometry":{"type":"Point","coordinates":[-118.29772761399994,34.057766840000056]},"properties":{"Name":"Ambassador-Global Education","Type":"School Garden","SubType":"Elementary","Address":"3201 W 8th Street\nLos Angeles, CA 90005\n"}},{"type":"Feature","geometry":{"type":"Point","coordinates":[-118.36137653299994,34.06952051400003]},"properties":{"Name":"Hancock Park Elementary","Type":"School Garden","SubType":"Elementary","Address":"408 S Fairfax Avenue\nLos Angeles, CA 90036\n"}},{"type":"Feature","geometry":{"type":"Point","coordinates":[-118.36922702899994,34.058837709000045]},"properties":{"Name":"Carthay Center Elementary","Type":"School Garden","SubType":"Elementary","Address":"6351 W Olympic Blvd\nLos Angeles, CA 90048\n"}},{"type":"Feature","geometry":{"type":"Point","coordinates":[-118.33866966699998,34.042922393000026]},"properties":{"Name":"Alta Loma Elementary","Type":"School Garden","SubType":"Elementary","Address":"1745 Vineyard Avenue\nLos Angeles, CA 90019\n"}},{"type":"Feature","geometry":{"type":"Point","coordinates":[-118.36479996199995,34.02159826600007]},"properties":{"Name":"Baldwin Hills G/HA Magnet","Type":"School Garden","SubType":"Elementary","Address":"5421 Rodeo Road\nLos Angeles, CA 90016\n"}},{"type":"Feature","geometry":{"type":"Point","coordinates":[-118.31851411599996,34.032614340000066]},"properties":{"Name":"Midcity Prescott Magnet","Type":"School Garden","SubType":"Other","Address":"3150 W Adams Blvd\nLos Angeles, CA 90018\n"}},{"type":"Feature","geometry":{"type":"Point","coordinates":[-118.25652580099995,34.02905698600006]},"properties":{"Name":"San Pedro Elementary","Type":"School Garden","SubType":"Elementary","Address":"1635 S San Pedro Street\nLos Angeles, CA 90015\n"}},{"type":"Feature","geometry":{"type":"Point","coordinates":[-118.27876794799994,34.03242919400003]},"properties":{"Name":"Lanterman High School","Type":"School Garden","SubType":"Other","Address":"2328 St James Pl\nLos Angeles, CA 90007\n"}},{"type":"Feature","geometry":{"type":"Point","coordinates":[-118.25094529999996,34.02290495300008]},"properties":{"Name":"20th Street Elementary","Type":"School Garden","SubType":"Elementary","Address":"1353 E 20th Street\nLos Angeles, CA 90011\n"}},{"type":"Feature","geometry":{"type":"Point","coordinates":[-118.30903594899996,34.00186036400004]},"properties":{"Name":"Obama Global Prep Academy","Type":"School Garden","SubType":"Middle","Address":"1700 W 46th Street\nLos Angeles, CA 90062\n"}},{"type":"Feature","geometry":{"type":"Point","coordinates":[-118.32957585899999,34.00922045400006]},"properties":{"Name":"Audubon G/HA Magnet","Type":"School Garden","SubType":"Middle","Address":"4120 11th Avenue\nLos Angeles, CA 90008\n"}},{"type":"Feature","geometry":{"type":"Point","coordinates":[-118.30465661299996,33.93744021100008]},"properties":{"Name":"Washington M/SC Magnet","Type":"School Garden","SubType":"High","Address":"10860 S Denker Avenue\nLos Angeles, CA 90047\n"}},{"type":"Feature","geometry":{"type":"Point","coordinates":[-118.28266646699996,33.98436112600007]},"properties":{"Name":"61st Street Elementary","Type":"School Garden","SubType":"Elementary","Address":"6020 S Figueroa Street\nLos Angeles, CA 90003\n"}},{"type":"Feature","geometry":{"type":"Point","coordinates":[-118.28372886999995,33.934712760000025]},"properties":{"Name":"Figueroa Elementary","Type":"School Garden","SubType":"Elementary","Address":"510 W 111th Street\nLos Angeles, CA 90044\n"}},{"type":"Feature","geometry":{"type":"Point","coordinates":[-118.24860847299999,33.94907825700005]},"properties":{"Name":"96th Street Elementary","Type":"School Garden","SubType":"Elementary","Address":"1471 E 96th Street\nLos Angeles, CA 90002\n"}},{"type":"Feature","geometry":{"type":"Point","coordinates":[-118.47389339499995,34.049655175000055]},"properties":{"Name":"Brentwood Science Magnet","Type":"School Garden","SubType":"Elementary","Address":"740 Gretna Green Way\nLos Angeles, CA 90049\n"}},{"type":"Feature","geometry":{"type":"Point","coordinates":[-118.54711053399996,34.04601166000003]},"properties":{"Name":"Marquez Elementary","Type":"School Garden","SubType":"Elementary","Address":"16821 Marquez Avenue\nPacific Palisades, CA 90272\n"}},{"type":"Feature","geometry":{"type":"Point","coordinates":[-118.43100316099998,34.05942076400004]},"properties":{"Name":"Fairburn Elementary","Type":"School Garden","SubType":"Elementary","Address":"1403 Fairburn Avenue\nLos Angeles, CA 90024\n"}},{"type":"Feature","geometry":{"type":"Point","coordinates":[-118.46242242999995,34.044351222000046]},"properties":{"Name":"Brockton Elementary","Type":"School Garden","SubType":"Elementary","Address":"1309 Armacost Avenue\nLos Angeles, CA 90025\n"}},{"type":"Feature","geometry":{"type":"Point","coordinates":[-118.42012562099995,34.03904496500007]},"properties":{"Name":"Overland Elementary","Type":"School Garden","SubType":"Elementary","Address":"10650 Ashby Avenue\nLos Angeles, CA 90064\n"}},{"type":"Feature","geometry":{"type":"Point","coordinates":[-118.39762270999995,34.037177116000066]},"properties":{"Name":"Castle Heights Elementary","Type":"School Garden","SubType":"Elementary","Address":"9755 Cattaraugus Avenue\nLos Angeles, CA 90034\n"}},{"type":"Feature","geometry":{"type":"Point","coordinates":[-118.44318913499995,34.00229186800004]},"properties":{"Name":"Beethoven Elementary","Type":"School Garden","SubType":"Elementary","Address":"3711 Beethoven Street\nLos Angeles, CA 90066\n"}},{"type":"Feature","geometry":{"type":"Point","coordinates":[-118.45366393599994,33.98971347500003]},"properties":{"Name":"Coeur D'Alene Elementary","Type":"School Garden","SubType":"Elementary","Address":"810 Coeur D'alene Avenue\nVenice, CA 90291\n"}},{"type":"Feature","geometry":{"type":"Point","coordinates":[-118.425649352,33.96841397800006]},"properties":{"Name":"Playa Vista Elementary","Type":"School Garden","SubType":"Elementary","Address":"13150 W Bluff Creek Drive\nPlaya Vista, CA 90094\n"}},{"type":"Feature","geometry":{"type":"Point","coordinates":[-118.40488208499994,33.97332111400004]},"properties":{"Name":"Cowan Elementary","Type":"School Garden","SubType":"Elementary","Address":"7615 Cowan Avenue\nLos Angeles, CA 90045\n"}},{"type":"Feature","geometry":{"type":"Point","coordinates":[-118.43342795599995,33.95623382900004]},"properties":{"Name":"Paseo Del Rey Natural Science Magnet","Type":"School Garden","SubType":"Elementary","Address":"7751 Paseo Del Rey\nPlaya Del Rey, CA 90293\n"}},{"type":"Feature","geometry":{"type":"Point","coordinates":[-118.21540892899998,33.83590920300003]},"properties":{"Name":"Dominguez Elementary","Type":"School Garden","SubType":"Elementary","Address":"21250 Santa Fe Avenue\nCarson, CA 90810\n"}},{"type":"Feature","geometry":{"type":"Point","coordinates":[-118.303480133,33.793742603000055]},"properties":{"Name":"Harbor City Elementary","Type":"School Garden","SubType":"Elementary","Address":"1508 W 254th Street\nHarbor City, CA 90710\n"}},{"type":"Feature","geometry":{"type":"Point","coordinates":[-118.26562191399995,33.78893758700008]},"properties":{"Name":"Fries Elementary","Type":"School Garden","SubType":"Elementary","Address":"1301 Fries Avenue\nWilmington, CA 90744\n"}},{"type":"Feature","geometry":{"type":"Point","coordinates":[-118.30463010999995,33.753743444000065]},"properties":{"Name":"Park Western Elementary","Type":"School Garden","SubType":"Elementary","Address":"1214 Park Western Pl\nSan Pedro, CA 90732\n"}},{"type":"Feature","geometry":{"type":"Point","coordinates":[-118.29897240699995,33.746431064000035]},"properties":{"Name":"Bandini Elementary","Type":"School Garden","SubType":"Elementary","Address":"425 N Bandini Street\nSan Pedro, CA 90731\n"}},{"type":"Feature","geometry":{"type":"Point","coordinates":[-118.39425689399997,34.231003592000036]},"properties":{"Name":"Fernangeles Elementary","Type":"School Garden","SubType":"Elementary","Address":"12001 Art Street\nSun Valley, CA 91352\n"}},{"type":"Feature","geometry":{"type":"Point","coordinates":[-118.35759243899997,34.21665077000006]},"properties":{"Name":"Glenwood Elementary","Type":"School Garden","SubType":"Elementary","Address":"8001 Ledge Avenue\nSun Valley, CA 91352\n"}},{"type":"Feature","geometry":{"type":"Point","coordinates":[-118.36642928899994,34.21570820300008]},"properties":{"Name":"Roscoe Elementary","Type":"School Garden","SubType":"Elementary","Address":"10765 Strathern Street\nSun Valley, CA 91352\n"}},{"type":"Feature","geometry":{"type":"Point","coordinates":[-118.36951164199996,34.24938594400004]},"properties":{"Name":"Stonehurst Elementary","Type":"School Garden","SubType":"Elementary","Address":"9851 Stonehurst Avenue\nSun Valley, CA 91352\n"}},{"type":"Feature","geometry":{"type":"Point","coordinates":[-118.40338987999996,34.22168854600005]},"properties":{"Name":"POLY MATH/SCI MAG","Type":"School Garden","SubType":"High","Address":"12431 Roscoe Blvd\nSun Valley, CA 91352\n"}},{"type":"Feature","geometry":{"type":"Point","coordinates":[-118.37786111399998,34.20361634300008]},"properties":{"Name":"SUN VALLEY MS","Type":"School Garden","SubType":"Middle","Address":"7330 Bakman Avenue\nSun Valley, CA 91352\n"}},{"type":"Feature","geometry":{"type":"Point","coordinates":[-118.43577936999998,34.229208337000046]},"properties":{"Name":"VALOR ACAD CHT SCH","Type":"School Garden","SubType":"Other","Address":"8755 Woodman Avenue\nPacoima, CA 91331\n"}},{"type":"Feature","geometry":{"type":"Point","coordinates":[-118.42956280899995,34.23421730600006]},"properties":{"Name":"CANTERBURY EL","Type":"School Garden","SubType":"Elementary","Address":"13670 Montague Street\nArleta, CA 91331\n"}},{"type":"Feature","geometry":{"type":"Point","coordinates":[-118.42122028899996,34.25390865000003]},"properties":{"Name":"HADDON EL","Type":"School Garden","SubType":"Elementary","Address":"10115 Haddon Avenue\nPacoima, CA 91331\n"}},{"type":"Feature","geometry":{"type":"Point","coordinates":[-118.41556456899997,34.24442016100005]},"properties":{"Name":"MONTAGUE ST EL","Type":"School Garden","SubType":"Elementary","Address":"13000 Montague Street\nPacoima, CA 91331\n"}},{"type":"Feature","geometry":{"type":"Point","coordinates":[-118.41637675599998,34.27055855100008]},"properties":{"Name":"PACOIMA EL","Type":"School Garden","SubType":"Elementary","Address":"11016 Norris Avenue\nPacoima, CA 91331\n"}},{"type":"Feature","geometry":{"type":"Point","coordinates":[-118.43176942899998,34.26937918600004]},"properties":{"Name":"TELFAIR EL","Type":"School Garden","SubType":"Elementary","Address":"10975 Telfair Avenue\nPacoima, CA 91331\n"}},{"type":"Feature","geometry":{"type":"Point","coordinates":[-118.42035953399994,34.240799140000036]},"properties":{"Name":"VENA EL","Type":"School Garden","SubType":"Elementary","Address":"9377 Vena Avenue\nArleta, CA 91331\n"}},{"type":"Feature","geometry":{"type":"Point","coordinates":[-118.47484748499994,34.27302731000003]},"properties":{"Name":"DANUBE EL","Type":"School Garden","SubType":"Elementary","Address":"11220 Danube Avenue\nGranada Hills, CA 91344\n"}},{"type":"Feature","geometry":{"type":"Point","coordinates":[-118.50484714199996,34.29366928600007]},"properties":{"Name":"EL ORO EL","Type":"School Garden","SubType":"Elementary","Address":"12230 El Oro Way\nGranada Hills, CA 91344\n"}},{"type":"Feature","geometry":{"type":"Point","coordinates":[-118.50684980699998,34.267203678000044]},"properties":{"Name":"GRANADA EL","Type":"School Garden","SubType":"Elementary","Address":"17170 Tribune Street\nGranada Hills, CA 91344\n"}},{"type":"Feature","geometry":{"type":"Point","coordinates":[-118.47722003299998,34.268193488000065]},"properties":{"Name":"HASKELL EL","Type":"School Garden","SubType":"Elementary","Address":"15850 Tulsa Street\nGranada Hills, CA 91344\n"}},{"type":"Feature","geometry":{"type":"Point","coordinates":[-118.49352251599998,34.28535442100008]},"properties":{"Name":"KNOLLWOOD EL","Type":"School Garden","SubType":"Elementary","Address":"11822 Gerald Avenue\nGranada Hills, CA 91344\n"}},{"type":"Feature","geometry":{"type":"Point","coordinates":[-118.49342572399996,34.27000026600007]},"properties":{"Name":"TULSA EL","Type":"School Garden","SubType":"Elementary","Address":"10900 Hayvenhurst Avenue\nGranada Hills, CA 91344\n"}},{"type":"Feature","geometry":{"type":"Point","coordinates":[-118.51307789099997,34.26118300500008]},"properties":{"Name":"HENRY MS","Type":"School Garden","SubType":"Middle","Address":"17340 San Jose Street\nGranada Hills, CA 91344\n"}},{"type":"Feature","geometry":{"type":"Point","coordinates":[-118.47841840599995,34.26363275600005]},"properties":{"Name":"PORTER G/HA MAG","Type":"School Garden","SubType":"Middle","Address":"15960 Kingsbury Street\nGranada Hills, CA 91344\n"}},{"type":"Feature","geometry":{"type":"Point","coordinates":[-118.47841840599995,34.26363275600005]},"properties":{"Name":"PORTER MS","Type":"School Garden","SubType":"Middle","Address":"15960 Kingsbury Street\nGranada Hills, CA 91344\n"}},{"type":"Feature","geometry":{"type":"Point","coordinates":[-118.59248969599997,34.242713080000044]},"properties":{"Name":"CDS AGGELER","Type":"School Garden","SubType":41467,"Address":"21050 Plummer Street\nChatsworth, CA 91311\n"}},{"type":"Feature","geometry":{"type":"Point","coordinates":[-118.56341067899996,34.251902194000024]},"properties":{"Name":"ELEMENTARY CDS","Type":"School Garden","SubType":"Elementary","Address":"10001 Jumilla Avenue\nChatsworth, CA 91311\n"}},{"type":"Feature","geometry":{"type":"Point","coordinates":[-118.58432923699996,34.262632576000044]},"properties":{"Name":"GERMAIN EL","Type":"School Garden","SubType":"Elementary","Address":"20730 Germain Street\nChatsworth, CA 91311\n"}},{"type":"Feature","geometry":{"type":"Point","coordinates":[-118.57536678899999,34.248300494000034]},"properties":{"Name":"SUPERIOR EL","Type":"School Garden","SubType":"Elementary","Address":"9756 Oso Avenue\nChatsworth, CA 91311\n"}},{"type":"Feature","geometry":{"type":"Point","coordinates":[-118.58422207399997,34.25191059300005]},"properties":{"Name":"CHATSWORTH SH","Type":"School Garden","SubType":"High","Address":"10027 Lurline Avenue\nChatsworth, CA 91311\n"}},{"type":"Feature","geometry":{"type":"Point","coordinates":[-118.56342039699996,34.25255326700005]},"properties":{"Name":"OUR COMMUNITY CHT","Type":"School Garden","SubType":"Other","Address":"10045 Jumilla Avenue\nChatsworth, CA 91311\n"}},{"type":"Feature","geometry":{"type":"Point","coordinates":[-118.59290567,34.25526027700005]},"properties":{"Name":"LAWRENCE MS","Type":"School Garden","SubType":"Middle","Address":"10100 Variel Avenue\nChatsworth, CA 91311\n"}},{"type":"Feature","geometry":{"type":"Point","coordinates":[-118.59290567,34.25526027700005]},"properties":{"Name":"LAWRENCE MS G/HG/HA","Type":"School Garden","SubType":"Middle","Address":"10100 Variel Avenue\nChatsworth, CA 91311\n"}},{"type":"Feature","geometry":{"type":"Point","coordinates":[-118.63579129499999,34.21616335500005]},"properties":{"Name":"JUSTICE EL","Type":"School Garden","SubType":"Elementary","Address":"23350 Justice Street\nWest Hills, CA 91304\n"}},{"type":"Feature","geometry":{"type":"Point","coordinates":[-118.64195600199997,34.208933939000076]},"properties":{"Name":"POMELO COMM CHTR SCH","Type":"School Garden","SubType":"Elementary","Address":"7633 March Avenue\nWest Hills, CA 91304\n"}},{"type":"Feature","geometry":{"type":"Point","coordinates":[-118.61158660499996,34.21277480200007]},"properties":{"Name":"COLUMBUS MS","Type":"School Garden","SubType":"Middle","Address":"22250 Elkwood Street\nCanoga Park, CA 91304\n"}},{"type":"Feature","geometry":{"type":"Point","coordinates":[-118.51546657099999,34.25470026800008]},"properties":{"Name":"ANDASOL EL","Type":"School Garden","SubType":"Elementary","Address":"10126 Encino Avenue\nNorthridge, CA 91325\n"}},{"type":"Feature","geometry":{"type":"Point","coordinates":[-118.50319144399998,34.249100087000045]},"properties":{"Name":"BALBOA G/HA MAG","Type":"School Garden","SubType":"Elementary","Address":"17020 Labrador Street\nNorthridge, CA 91325\n"}},{"type":"Feature","geometry":{"type":"Point","coordinates":[-118.50441273099995,34.24057098800006]},"properties":{"Name":"HOLMES INT HUMAN MAG","Type":"School Garden","SubType":"Middle","Address":"9351 Paso Robles Avenue\nNorthridge, CA 91325\n"}},{"type":"Feature","geometry":{"type":"Point","coordinates":[-118.55353565699994,34.251740056000074]},"properties":{"Name":"NOBEL MS","Type":"School Garden","SubType":"Middle","Address":"9950 Tampa Avenue\nNorthridge, CA 91324\n"}},{"type":"Feature","geometry":{"type":"Point","coordinates":[-118.47637310599998,34.23577058200004]},"properties":{"Name":"JAMES MONROE","Type":"School Garden","SubType":41620,"Address":"9229 Haskell Avenue\nNorth Hills, CA 91343\n"}},{"type":"Feature","geometry":{"type":"Point","coordinates":[-118.48248019899995,34.24188343700007]},"properties":{"Name":"GLEDHILL EL","Type":"School Garden","SubType":"Elementary","Address":"16030 Gledhill Street\nNorth Hills, CA 91343\n"}},{"type":"Feature","geometry":{"type":"Point","coordinates":[-118.46116298599998,34.22162978000006]},"properties":{"Name":"NOBLE EL","Type":"School Garden","SubType":"Elementary","Address":"8329 Noble Avenue\nNorth Hills, CA 91343\n"}},{"type":"Feature","geometry":{"type":"Point","coordinates":[-118.46095672699994,34.24009048600004]},"properties":{"Name":"PLUMMER EL","Type":"School Garden","SubType":"Elementary","Address":"9340 Noble Avenue\nNorth Hills, CA 91343\n"}},{"type":"Feature","geometry":{"type":"Point","coordinates":[-118.47675316199997,34.25268491300005]},"properties":{"Name":"VINTAGE MATH/SCI MAG","Type":"School Garden","SubType":"Elementary","Address":"15848 Stare Street\nNorth Hills, CA 91343\n"}},{"type":"Feature","geometry":{"type":"Point","coordinates":[-118.47637310599998,34.23577058200004]},"properties":{"Name":"MONROE LAW/GOV MAG","Type":"School Garden","SubType":"High","Address":"9229 Haskell Avenue\nNorth Hills, CA 91343\n"}},{"type":"Feature","geometry":{"type":"Point","coordinates":[-118.49213977799997,34.23566342000004]},"properties":{"Name":"VALLEY CHARTER EL","Type":"School Garden","SubType":"Other","Address":"16514 Nordhoff Street\nNorth Hills, CA 91343\n"}},{"type":"Feature","geometry":{"type":"Point","coordinates":[-118.43456601699995,34.21409040000003]},"properties":{"Name":"RANCHITO EL","Type":"School Garden","SubType":"Elementary","Address":"7940 Ranchito Avenue\nPanorama City, CA 91402\n"}},{"type":"Feature","geometry":{"type":"Point","coordinates":[-118.38239300099997,34.20507033800004]},"properties":{"Name":"CAMELLIA EL","Type":"School Garden","SubType":"Elementary","Address":"7451 Camellia Avenue\nNo Hollywood, CA 91605\n"}},{"type":"Feature","geometry":{"type":"Point","coordinates":[-118.41376617799995,34.195490267000025]},"properties":{"Name":"COLDWATER CYN EL","Type":"School Garden","SubType":"Elementary","Address":"6850 Coldwater Canyon Avenue\nNo Hollywood, CA 91605\n"}},{"type":"Feature","geometry":{"type":"Point","coordinates":[-118.41656737499994,34.21364216200004]},"properties":{"Name":"SATICOY EL","Type":"School Garden","SubType":"Elementary","Address":"7850 Ethel Avenue\nNorth Hollywood, CA 91605\n"}},{"type":"Feature","geometry":{"type":"Point","coordinates":[-118.41649938999996,34.197543633000066]},"properties":{"Name":"MADISON M/S/MED MAG","Type":"School Garden","SubType":"Middle","Address":"13000 Hart Street\nNo Hollywood, CA 91605\n"}},{"type":"Feature","geometry":{"type":"Point","coordinates":[-118.41422478599998,34.20660748200004]},"properties":{"Name":"LOWMAN SP ED CTR","Type":"School Garden","SubType":"Other","Address":"12827 Saticoy Street\nNorth Hollywood, CA 91605\n"}},{"type":"Feature","geometry":{"type":"Point","coordinates":[-118.39221274599998,34.18648979300008]},"properties":{"Name":"VICTORY EL","Type":"School Garden","SubType":"Elementary","Address":"6315 Radford Avenue\nNorth Hollywood, CA 91606\n"}},{"type":"Feature","geometry":{"type":"Point","coordinates":[-118.39891902699998,34.17039817800003]},"properties":{"Name":"BURBANK EL","Type":"School Garden","SubType":"Elementary","Address":"12215 Albers Street\nNorth Hollywood, CA 91607\n"}},{"type":"Feature","geometry":{"type":"Point","coordinates":[-118.38982867499999,34.16121333900003]},"properties":{"Name":"COLFAX EL","Type":"School Garden","SubType":"Elementary","Address":"11724 Addison Street\nNorth Hollywood, CA 91607\n"}},{"type":"Feature","geometry":{"type":"Point","coordinates":[-118.38780037599997,34.16594250500003]},"properties":{"Name":"NHHS/LA ZOO BIOL MAG","Type":"School Garden","SubType":"High","Address":"5231 Colfax Avenue\nNorth Hollywood, CA 91601\n"}},{"type":"Feature","geometry":{"type":"Point","coordinates":[-118.47614956299998,34.19568269800004]},"properties":{"Name":"BASSETT EL","Type":"School Garden","SubType":"Elementary","Address":"15756 Bassett Street\nLake Balboa, CA 91406\n"}},{"type":"Feature","geometry":{"type":"Point","coordinates":[-118.51435922799999,34.193662748000065]},"properties":{"Name":"LEMAY EL","Type":"School Garden","SubType":"Elementary","Address":"17520 Vanowen Street\nLake Balboa, CA 91406\n"}},{"type":"Feature","geometry":{"type":"Point","coordinates":[-118.50115018199995,34.19230892000007]},"properties":{"Name":"VALLEY ALTERN MAG","Type":"School Garden","SubType":"Other","Address":"6701 Balboa Blvd\nLake Balboa, CA 91406\n"}},{"type":"Feature","geometry":{"type":"Point","coordinates":[-118.45750218599994,34.168340202000024]},"properties":{"Name":"KESTER G/HA MAG","Type":"School Garden","SubType":"Elementary","Address":"5353 Kester Avenue\nVan Nuys, CA 91411\n"}},{"type":"Feature","geometry":{"type":"Point","coordinates":[-118.45342588999995,34.18766737100003]},"properties":{"Name":"ROGERS HS","Type":"School Garden","SubType":"High","Address":"14711 Gilmore Street\nVan Nuys, CA 91411\n"}},{"type":"Feature","geometry":{"type":"Point","coordinates":[-118.45314310399999,34.18915041200006]},"properties":{"Name":"VAN NUYS M/SC SH MAG","Type":"School Garden","SubType":"High","Address":"6535 Cedros Avenue\nVan Nuys, CA 91411\n"}},{"type":"Feature","geometry":{"type":"Point","coordinates":[-118.45314310399999,34.18915041200006]},"properties":{"Name":"VAN NUYS PER ARTS MG","Type":"School Garden","SubType":"High","Address":"6535 Cedros Avenue\nVan Nuys, CA 91411\n"}},{"type":"Feature","geometry":{"type":"Point","coordinates":[-118.45314310399999,34.18915041200006]},"properties":{"Name":"VAN NUYS SH","Type":"School Garden","SubType":"High","Address":"6535 Cedros Avenue\nVan Nuys, CA 91411\n"}},{"type":"Feature","geometry":{"type":"Point","coordinates":[-118.45095261699998,34.168470410000054]},"properties":{"Name":"VAN NUYS MS","Type":"School Garden","SubType":"Middle","Address":"5435 Vesper Avenue\nVan Nuys, CA 91411\n"}},{"type":"Feature","geometry":{"type":"Point","coordinates":[-118.439769722,34.16662330300005]},"properties":{"Name":"CHANDLER EL","Type":"School Garden","SubType":"Elementary","Address":"14030 Weddington Street\nVan Nuys, CA 91401\n"}},{"type":"Feature","geometry":{"type":"Point","coordinates":[-118.42561970099996,34.183002989000045]},"properties":{"Name":"ERWIN EL","Type":"School Garden","SubType":"Elementary","Address":"13400 Erwin Street\nVan Nuys, CA 91401\n"}},{"type":"Feature","geometry":{"type":"Point","coordinates":[-118.42987968699998,34.19033841500004]},"properties":{"Name":"KITTRIDGE EL","Type":"School Garden","SubType":"Elementary","Address":"13619 Kittridge Street\nVan Nuys, CA 91401\n"}},{"type":"Feature","geometry":{"type":"Point","coordinates":[-118.44648637199998,34.188350728000046]},"properties":{"Name":"VAN NUYS EL","Type":"School Garden","SubType":"Elementary","Address":"6464 Sylmar Avenue\nVan Nuys, CA 91401\n"}},{"type":"Feature","geometry":{"type":"Point","coordinates":[-118.41613987799997,34.179362930000025]},"properties":{"Name":"GRANT SH","Type":"School Garden","SubType":"High","Address":"13000 Oxnard Street\nVan Nuys, CA 91401\n"}},{"type":"Feature","geometry":{"type":"Point","coordinates":[-118.41430736699999,34.17938772600007]},"properties":{"Name":"LONDON HS","Type":"School Garden","SubType":"High","Address":"12924 Oxnard Street\nVan Nuys, CA 91401\n"}},{"type":"Feature","geometry":{"type":"Point","coordinates":[-118.54763021299999,34.19925361900005]},"properties":{"Name":"LEICHMAN SP ED CTR","Type":"School Garden","SubType":"Other","Address":"19034 Gault Street\nReseda, CA 91335\n"}},{"type":"Feature","geometry":{"type":"Point","coordinates":[-118.52935963299996,34.204798399000026]},"properties":{"Name":"GARDEN GROVE EL","Type":"School Garden","SubType":"Elementary","Address":"18141 Valerio Street\nReseda, CA 91335\n"}},{"type":"Feature","geometry":{"type":"Point","coordinates":[-118.54174197099996,34.21294921100008]},"properties":{"Name":"WOODEN HS","Type":"School Garden","SubType":"High","Address":"18741 Elkwood Street\nReseda, CA 91335\n"}},{"type":"Feature","geometry":{"type":"Point","coordinates":[-118.55678970099996,34.20294783400004]},"properties":{"Name":"LOKRANTZ SP ED CTR","Type":"School Garden","SubType":"PElementary","Address":"19451 Wyandotte Street\nReseda, CA 91335\n"}},{"type":"Feature","geometry":{"type":"Point","coordinates":[-118.56803500999996,34.20352023100003]},"properties":{"Name":"MOSK EL","Type":"School Garden","SubType":"Elementary","Address":"7335 Lubao Avenue\nWinnetka, CA 91306\n"}},{"type":"Feature","geometry":{"type":"Point","coordinates":[-118.58198203899997,34.21354306600006]},"properties":{"Name":"SUNNY BRAE EL","Type":"School Garden","SubType":"Elementary","Address":"20620 Arminta Street\nWinnetka, CA 91306\n"}},{"type":"Feature","geometry":{"type":"Point","coordinates":[-118.60592645499997,34.20626064500004]},"properties":{"Name":"CANOGA PARK EL","Type":"School Garden","SubType":"Elementary","Address":"7438 Topanga Canyon Blvd\nCanoga Park, CA 91303\n"}},{"type":"Feature","geometry":{"type":"Point","coordinates":[-118.60589649499997,34.19555133800003]},"properties":{"Name":"CANOGA PARK SH","Type":"School Garden","SubType":"High","Address":"6850 Topanga Cyn Blvd\nCanoga Park, CA 91303\n"}},{"type":"Feature","geometry":{"type":"Point","coordinates":[-118.60589649499997,34.19555133800003]},"properties":{"Name":"CANOGA PK ENV/AG MAG","Type":"School Garden","SubType":"High","Address":"6850 Topanga Cyn Blvd\nCanoga Park, CA 91303\n"}},{"type":"Feature","geometry":{"type":"Point","coordinates":[-118.56513913499998,34.18237269000008]},"properties":{"Name":"CALVERT EL","Type":"School Garden","SubType":"Elementary","Address":"19850 Delano Street\nWoodland Hills, CA 91367\n"}},{"type":"Feature","geometry":{"type":"Point","coordinates":[-118.64779807099995,34.18374851500005]},"properties":{"Name":"LOCKHURST EL","Type":"School Garden","SubType":"Elementary","Address":"6170 Lockhurst Drive\nWoodland Hills, CA 91367\n"}},{"type":"Feature","geometry":{"type":"Point","coordinates":[-118.63351899499997,34.17555809600003]},"properties":{"Name":"WOODLAKE EL","Type":"School Garden","SubType":"Elementary","Address":"23231 Hatteras Street\nWoodland Hills, CA 91367\n"}},{"type":"Feature","geometry":{"type":"Point","coordinates":[-118.58833571999998,34.16071094500006]},"properties":{"Name":"SERRANIA EL","Type":"School Garden","SubType":"Elementary","Address":"5014 Serrania Avenue\nWoodland Hills, CA 91364\n"}},{"type":"Feature","geometry":{"type":"Point","coordinates":[-118.60972898499995,34.158636837000074]},"properties":{"Name":"WOODLAND HILLS EL","Type":"School Garden","SubType":"Elementary","Address":"22201 San Miguel Street\nWoodland Hills, CA 91364\n"}},{"type":"Feature","geometry":{"type":"Point","coordinates":[-118.50166914799996,34.161728409000034]},"properties":{"Name":"ENCINO EL","Type":"School Garden","SubType":"Elementary","Address":"16941 Addison Street\nEncino, CA 91316\n"}},{"type":"Feature","geometry":{"type":"Point","coordinates":[-118.51427972099998,34.17456828600007]},"properties":{"Name":"LULL SP ED CTR","Type":"School Garden","SubType":"Other","Address":"17551 Miranda Street\nEncino, CA 91316\n"}},{"type":"Feature","geometry":{"type":"Point","coordinates":[-118.49214208199999,34.14829049900004]},"properties":{"Name":"LANAI EL","Type":"School Garden","SubType":"Elementary","Address":"4241 Lanai Road\nEncino, CA 91436\n"}},{"type":"Feature","geometry":{"type":"Point","coordinates":[-118.53080689899997,34.16224002300004]},"properties":{"Name":"NESTLE EL","Type":"School Garden","SubType":"Elementary","Address":"5060 Nestle Avenue\nTarzana, CA 91356\n"}},{"type":"Feature","geometry":{"type":"Point","coordinates":[-118.54416414899998,34.16526245800003]},"properties":{"Name":"WILBUR EL","Type":"School Garden","SubType":"Elementary","Address":"5213 Crebs Avenue\nTarzana, CA 91356\n"}},{"type":"Feature","geometry":{"type":"Point","coordinates":[-118.54120048099998,34.16717409300003]},"properties":{"Name":"PORTOLA HG MAG","Type":"School Garden","SubType":"Middle","Address":"18720 Linnet Street\nTarzana, CA 91356\n"}},{"type":"Feature","geometry":{"type":"Point","coordinates":[-118.38556292799996,34.15388021800004]},"properties":{"Name":"REED MS","Type":"School Garden","SubType":"Middle","Address":"4525 Irvine Avenue\nNorth Hollywood, CA 91602\n"}},{"type":"Feature","geometry":{"type":"Point","coordinates":[-118.19883220299994,34.13862631100005]},"properties":{"Name":"DAHLIA HTS EL","Type":"School Garden","SubType":"Elementary","Address":"5063 Floristan Avenue\nLos Angeles, CA 90041\n"}},{"type":"Feature","geometry":{"type":"Point","coordinates":[-118.21358486699995,34.13583778900005]},"properties":{"Name":"EAGLE ROCK EL","Type":"School Garden","SubType":"Elementary","Address":"2057 Fair Park Avenue\nLos Angeles, CA 90041\n"}},{"type":"Feature","geometry":{"type":"Point","coordinates":[-118.19368612099998,34.133265418000065]},"properties":{"Name":"ROCKDALE EL","Type":"School Garden","SubType":"Elementary","Address":"1303 Yosemite Drive\nLos Angeles, CA 90041\n"}},{"type":"Feature","geometry":{"type":"Point","coordinates":[-118.216751338,34.12085812600003]},"properties":{"Name":"TOLAND WAY EL","Type":"School Garden","SubType":"Elementary","Address":"4545 Toland Way\nLos Angeles, CA 90041\n"}},{"type":"Feature","geometry":{"type":"Point","coordinates":[-118.20577483799997,34.109887195000056]},"properties":{"Name":"ALDAMA EL","Type":"School Garden","SubType":"Elementary","Address":"632 N Avenue 50\nLos Angeles, CA 90042\n"}},{"type":"Feature","geometry":{"type":"Point","coordinates":[-118.18622623999994,34.12849775400008]},"properties":{"Name":"ANNANDALE EL","Type":"School Garden","SubType":"Elementary","Address":"6125 Poppy Peak Drive\nLos Angeles, CA 90042\n"}},{"type":"Feature","geometry":{"type":"Point","coordinates":[-118.19374948799998,34.120678370000064]},"properties":{"Name":"YORKDALE EL","Type":"School Garden","SubType":"Elementary","Address":"5657 Meridian Street\nLos Angeles, CA 90042\n"}},{"type":"Feature","geometry":{"type":"Point","coordinates":[-118.20362223899997,34.10216120100006]},"properties":{"Name":"ARROYO SECO MUSM SCI","Type":"School Garden","SubType":"Other","Address":"4805 Sycamore Terr\nLos Angeles, CA 90042\n"}},{"type":"Feature","geometry":{"type":"Point","coordinates":[-118.24096308299994,34.11821709600002]},"properties":{"Name":"FLETCHER DR EL","Type":"School Garden","SubType":"Elementary","Address":"3350 Fletcher Drive\nLos Angeles, CA 90065\n"}},{"type":"Feature","geometry":{"type":"Point","coordinates":[-118.23701536599998,34.10451877000003]},"properties":{"Name":"GLASSELL PARK EL","Type":"School Garden","SubType":"Elementary","Address":"2211 W Avenue 30\nLos Angeles, CA 90065\n"}},{"type":"Feature","geometry":{"type":"Point","coordinates":[-118.21653586099995,34.08705593900004]},"properties":{"Name":"LORETO EL","Type":"School Garden","SubType":"Elementary","Address":"3408 Arroyo Seco Avenue\nLos Angeles, CA 90065\n"}},{"type":"Feature","geometry":{"type":"Point","coordinates":[-118.21492957999999,34.10527236200005]},"properties":{"Name":"MT WASHINGTON EL","Type":"School Garden","SubType":"Elementary","Address":"3981 San Rafael Avenue\nLos Angeles, CA 90065\n"}},{"type":"Feature","geometry":{"type":"Point","coordinates":[-118.23681459899996,34.10177168000007]},"properties":{"Name":"SOTOMAYOR LA-ARTLAB","Type":"School Garden","SubType":"High","Address":"2050 N San Fernando Road\nLos Angeles, CA 90065\n"}},{"type":"Feature","geometry":{"type":"Point","coordinates":[-118.21885770899996,34.08661346200006]},"properties":{"Name":"NIGHTINGALE MS","Type":"School Garden","SubType":"Middle","Address":"3311 N Figueroa Street\nLos Angeles, CA 90065\n"}},{"type":"Feature","geometry":{"type":"Point","coordinates":[-118.29329626599997,34.10228103800006]},"properties":{"Name":"LOS FELIZ EL","Type":"School Garden","SubType":"Elementary","Address":"1740 N New Hampshire Avenue\nLos Angeles, CA 90027\n"}},{"type":"Feature","geometry":{"type":"Point","coordinates":[-118.31359601499997,34.09964116100008]},"properties":{"Name":"GRANT EL","Type":"School Garden","SubType":"Elementary","Address":"1530 N Wilton Pl\nLos Angeles, CA 90028\n"}},{"type":"Feature","geometry":{"type":"Point","coordinates":[-118.33388633899995,34.09979499200006]},"properties":{"Name":"SELMA EL","Type":"School Garden","SubType":"Elementary","Address":"6611 Selma Avenue\nLos Angeles, CA 90028\n"}},{"type":"Feature","geometry":{"type":"Point","coordinates":[-118.31363288799997,34.09503088100007]},"properties":{"Name":"APEX ACADEMY","Type":"School Garden","SubType":"High","Address":"1309 N Wilton Pl\nHollywood, CA 90028\n"}},{"type":"Feature","geometry":{"type":"Point","coordinates":[-118.33870308399997,34.098670939000044]},"properties":{"Name":"HOLLYWOOD SH","Type":"School Garden","SubType":"High","Address":"1521 N Highland Avenue\nLos Angeles, CA 90028\n"}},{"type":"Feature","geometry":{"type":"Point","coordinates":[-118.31793666099998,34.09521063700004]},"properties":{"Name":"LE CONTE INT HUM MAG","Type":"School Garden","SubType":"Middle","Address":"1316 N Bronson Avenue\nHollywood, CA 90028\n"}},{"type":"Feature","geometry":{"type":"Point","coordinates":[-118.28081935899996,34.095828260000076]},"properties":{"Name":"KING MS","Type":"School Garden","SubType":"Middle","Address":"4201 Fountain Avenue\nLos Angeles, CA 90029\n"}},{"type":"Feature","geometry":{"type":"Point","coordinates":[-118.32665251999998,34.08826007300007]},"properties":{"Name":"VINE EL","Type":"School Garden","SubType":"Elementary","Address":"955 N Vine Street\nLos Angeles, CA 90038\n"}},{"type":"Feature","geometry":{"type":"Point","coordinates":[-118.31908172499999,34.09107832900003]},"properties":{"Name":"HOLLYWOOD PC","Type":"School Garden","SubType":"Other","Address":"1115 Tamarind Avenue\nLos Angeles, CA 90038\n"}},{"type":"Feature","geometry":{"type":"Point","coordinates":[-118.32447240299996,34.08575040300008]},"properties":{"Name":"LARCHMONT CHARTER","Type":"School Garden","SubType":"Other9","Address":"815 N El Centro Avenue\nLos Angeles, CA 90038\n"}},{"type":"Feature","geometry":{"type":"Point","coordinates":[-118.35230922699998,34.09979326200005]},"properties":{"Name":"GARDNER EL","Type":"School Garden","SubType":"Elementary","Address":"7450 Hawthorn Avenue\nLos Angeles, CA 90046\n"}},{"type":"Feature","geometry":{"type":"Point","coordinates":[-118.36157242099995,34.09318031600003]},"properties":{"Name":"LARCHMONT CHT SC WH","Type":"School Garden","SubType":"Elementary","Address":"1265 N Fairfax Avenue\nLos Angeles, CA 90046\n"}},{"type":"Feature","geometry":{"type":"Point","coordinates":[-118.36274198699999,34.087990439000066]},"properties":{"Name":"LAUREL EL","Type":"School Garden","SubType":"Other","Address":"925 N Hayworth Avenue\nLos Angeles, CA 90046\n"}},{"type":"Feature","geometry":{"type":"Point","coordinates":[-118.27514552299999,34.08872674700007]},"properties":{"Name":"MICHELTORENA EL","Type":"School Garden","SubType":"Elementary","Address":"1511 Micheltorena Street\nLos Angeles, CA 90026\n"}},{"type":"Feature","geometry":{"type":"Point","coordinates":[-118.27918542299994,34.07114753600007]},"properties":{"Name":"NEW VILLAGE CHT SH","Type":"School Garden","SubType":"High","Address":"147 N Occidental Blvd\nLos Angeles, CA 90026\n"}},{"type":"Feature","geometry":{"type":"Point","coordinates":[-118.25510370799998,34.06223685700007]},"properties":{"Name":"ROYBAL LC","Type":"School Garden","SubType":"High","Address":"1200 W Colton Street\nLos Angeles, CA 90026\n"}},{"type":"Feature","geometry":{"type":"Point","coordinates":[-118.25785553499998,34.07850485500006]},"properties":{"Name":"LOGAN EL","Type":"School Garden","SubType":"Other","Address":"1711 W Montana Street\nLos Angeles, CA 90026\n"}},{"type":"Feature","geometry":{"type":"Point","coordinates":[-118.32063535099996,34.08733119000004]},"properties":{"Name":"ALBION EL","Type":"School Garden","SubType":"Elementary","Address":"322 S Avenue 18\nLos Angeles, CA 90031\n"}},{"type":"Feature","geometry":{"type":"Point","coordinates":[-118.23753850199995,34.09102324500003]},"properties":{"Name":"DORRIS PLACE EL","Type":"School Garden","SubType":"Elementary","Address":"2225 Dorris Pl\nLos Angeles, CA 90031\n"}},{"type":"Feature","geometry":{"type":"Point","coordinates":[-118.22025427499995,34.066416608000054]},"properties":{"Name":"MILAGRO CHARTER ELEM","Type":"School Garden","SubType":"Elementary","Address":"1855 N Main Street\nLos Angeles, CA 90031\n"}},{"type":"Feature","geometry":{"type":"Point","coordinates":[-118.20391952699998,34.07383811400007]},"properties":{"Name":"LINCOLN HS MTH/SC MG","Type":"School Garden","SubType":"High","Address":"3501 N Broadway\nLos Angeles, CA 90031\n"}},{"type":"Feature","geometry":{"type":"Point","coordinates":[-118.20447764,34.07529885900004]},"properties":{"Name":"PUEBLO DE LA HS","Type":"School Garden","SubType":"High","Address":"2506 Alta Street\nLos Angeles, CA 90031\n"}},{"type":"Feature","geometry":{"type":"Point","coordinates":[-118.16955041799997,34.08200779200007]},"properties":{"Name":"SIERRA PARK EL","Type":"School Garden","SubType":"Elementary","Address":"3170 Budau Avenue\nLos Angeles, CA 90032\n"}},{"type":"Feature","geometry":{"type":"Point","coordinates":[-118.15940688099994,34.09571303200005]},"properties":{"Name":"SIERRA VISTA EL","Type":"School Garden","SubType":"Elementary","Address":"4342 Alpha Street\nLos Angeles, CA 90032\n"}},{"type":"Feature","geometry":{"type":"Point","coordinates":[-118.189318964,34.06972446800006]},"properties":{"Name":"WILSON ADM/LAW MAG","Type":"School Garden","SubType":"High","Address":"4500 Multnomah Street\nLos Angeles, CA 90032\n"}},{"type":"Feature","geometry":{"type":"Point","coordinates":[-118.189318964,34.06972446800006]},"properties":{"Name":"WILSON POLICE ACD MG","Type":"School Garden","SubType":"High","Address":"4500 Multnomah Street\nLos Angeles, CA 90032\n"}},{"type":"Feature","geometry":{"type":"Point","coordinates":[-118.189318964,34.06972446800006]},"properties":{"Name":"WILSON SH","Type":"School Garden","SubType":"High","Address":"4500 Multnomah Street\nLos Angeles, CA 90032\n"}},{"type":"Feature","geometry":{"type":"Point","coordinates":[-118.21714080899994,34.04526498200005]},"properties":{"Name":"2ND ST EL","Type":"School Garden","SubType":"Elementary","Address":"1942 E Second Street\nLos Angeles, CA 90033\n"}},{"type":"Feature","geometry":{"type":"Point","coordinates":[-118.21669948499999,34.05248633200006]},"properties":{"Name":"BRIDGE EL","Type":"School Garden","SubType":"Elementary","Address":"605 N Boyle Avenue\nLos Angeles, CA 90033\n"}},{"type":"Feature","geometry":{"type":"Point","coordinates":[-118.19714180599999,34.052485180000076]},"properties":{"Name":"EVERGREEN EL","Type":"School Garden","SubType":"Elementary","Address":"2730 Ganahl Street\nLos Angeles, CA 90033\n"}},{"type":"Feature","geometry":{"type":"Point","coordinates":[-118.19496629799994,34.060886466000056]},"properties":{"Name":"MURCHISON EL","Type":"School Garden","SubType":"Elementary","Address":"1501 Murchison Street\nLos Angeles, CA 90033\n"}},{"type":"Feature","geometry":{"type":"Point","coordinates":[-118.20783267599995,34.05060350300005]},"properties":{"Name":"SHERIDAN ST EL","Type":"School Garden","SubType":"Elementary","Address":"416 N Cornwell Street\nLos Angeles, CA 90033\n"}},{"type":"Feature","geometry":{"type":"Point","coordinates":[-118.22397268799995,34.049250725000036]},"properties":{"Name":"UTAH EL","Type":"School Garden","SubType":"Other","Address":"255 Gabriel Garcia Marquez Street\nLos Angeles, CA 90033\n"}},{"type":"Feature","geometry":{"type":"Point","coordinates":[-118.18737433299998,34.029380325000034]},"properties":{"Name":"ROWAN EL","Type":"School Garden","SubType":"Elementary","Address":"600 S Rowan Avenue\nLos Angeles, CA 90023\n"}},{"type":"Feature","geometry":{"type":"Point","coordinates":[-118.21269069699997,34.03698468500005]},"properties":{"Name":"HOLLENBECK MS","Type":"School Garden","SubType":"Middle","Address":"2510 E Sixth Street\nLos Angeles, CA 90023\n"}},{"type":"Feature","geometry":{"type":"Point","coordinates":[-118.24006084599995,34.06460603200003]},"properties":{"Name":"CASTELAR EL","Type":"School Garden","SubType":"Elementary","Address":"840 Yale Street\nLos Angeles, CA 90012\n"}},{"type":"Feature","geometry":{"type":"Point","coordinates":[-118.28095302399998,34.06650384000005]},"properties":{"Name":"LAFAYETTE PARK PC","Type":"School Garden","SubType":"Other","Address":"310 S La Fayette Park Pl\nLos Angeles, CA 90057\n"}},{"type":"Feature","geometry":{"type":"Point","coordinates":[-118.29879956399998,34.077687887000025]},"properties":{"Name":"ALEXANDRIA EL","Type":"School Garden","SubType":"Elementary","Address":"4211 Oakwood Avenue\nLos Angeles, CA 90004\n"}},{"type":"Feature","geometry":{"type":"Point","coordinates":[-118.28805223199998,34.08192021900004]},"properties":{"Name":"DAYTON HEIGHTS EL","Type":"School Garden","SubType":"Elementary","Address":"607 N Westmoreland Avenue\nLos Angeles, CA 90004\n"}},{"type":"Feature","geometry":{"type":"Point","coordinates":[-118.29289642499998,34.07292089800006]},"properties":{"Name":"DEL OLMO EL","Type":"School Garden","SubType":"Elementary","Address":"100 N New Hampshire Avenue\nLos Angeles, CA 90004\n"}},{"type":"Feature","geometry":{"type":"Point","coordinates":[-118.30792217899995,34.070550654000044]},"properties":{"Name":"KIM EL","Type":"School Garden","SubType":"Elementary","Address":"225 S Oxford Avenue\nLos Angeles, CA 90004\n"}},{"type":"Feature","geometry":{"type":"Point","coordinates":[-118.29165656899994,34.07443038700006]},"properties":{"Name":"VIRGIL MS","Type":"School Garden","SubType":"Middle","Address":"152 N Vermont Avenue\nLos Angeles, CA 90004\n"}},{"type":"Feature","geometry":{"type":"Point","coordinates":[-118.31601926399998,34.081612559000064]},"properties":{"Name":"BLEND EL","Type":"School Garden","SubType":"Other","Address":"5210 Clinton Street\nLos Angeles, CA 90004\n"}},{"type":"Feature","geometry":{"type":"Point","coordinates":[-118.31652857199998,34.06080811100003]},"properties":{"Name":"WILSHIRE PARK EL","Type":"School Garden","SubType":"Elementary","Address":"4063 Ingraham Street\nLos Angeles, CA 90005\n"}},{"type":"Feature","geometry":{"type":"Point","coordinates":[-118.31430236399996,34.05834107600003]},"properties":{"Name":"WILTON PL EL","Type":"School Garden","SubType":"Elementary","Address":"745 S Wilton Pl\nLos Angeles, CA 90005\n"}},{"type":"Feature","geometry":{"type":"Point","coordinates":[-118.28992238499995,34.06296979200005]},"properties":{"Name":"KIM ACADEMY","Type":"School Garden","SubType":"Middle","Address":"615 S Shatto Pl\nLos Angeles, CA 90005\n"}},{"type":"Feature","geometry":{"type":"Point","coordinates":[-118.28848664199995,34.043371783000055]},"properties":{"Name":"MAGNOLIA EL","Type":"School Garden","SubType":"Elementary","Address":"1626 S Orchard Avenue\nLos Angeles, CA 90006\n"}},{"type":"Feature","geometry":{"type":"Point","coordinates":[-118.28665653399997,34.05082758100008]},"properties":{"Name":"POLITI EL","Type":"School Garden","SubType":"Elementary","Address":"2481 W 11th Street\nLos Angeles, CA 90006\n"}},{"type":"Feature","geometry":{"type":"Point","coordinates":[-118.29372261099996,34.04999049000003]},"properties":{"Name":"BERENDO MS","Type":"School Garden","SubType":"Middle","Address":"1157 S Berendo Street\nLos Angeles, CA 90006\n"}},{"type":"Feature","geometry":{"type":"Point","coordinates":[-118.34417872699998,34.05727752000007]},"properties":{"Name":"WILSHIRE CREST EL","Type":"School Garden","SubType":"Elementary","Address":"5241 W Olympic Blvd\nLos Angeles, CA 90036\n"}},{"type":"Feature","geometry":{"type":"Point","coordinates":[-118.37426249999999,34.08030011000005]},"properties":{"Name":"ROSEWOOD EL","Type":"School Garden","SubType":"Elementary","Address":"503 N Croft Avenue\nLos Angeles, CA 90048\n"}},{"type":"Feature","geometry":{"type":"Point","coordinates":[-118.39087379499995,34.049857977000045]},"properties":{"Name":"CANFIELD EL","Type":"School Garden","SubType":"Elementary","Address":"9233 Airdrome Street\nLos Angeles, CA 90035\n"}},{"type":"Feature","geometry":{"type":"Point","coordinates":[-118.32488261499998,34.04135068000005]},"properties":{"Name":"ARLINGTON HTS EL","Type":"School Garden","SubType":"Elementary","Address":"1717 Seventh Avenue\nLos Angeles, CA 90019\n"}},{"type":"Feature","geometry":{"type":"Point","coordinates":[-118.33144946899995,34.05134903000004]},"properties":{"Name":"QUEEN ANNE EL","Type":"School Garden","SubType":"Elementary","Address":"1212 Queen Anne Pl\nLos Angeles, CA 90019\n"}},{"type":"Feature","geometry":{"type":"Point","coordinates":[-118.35620624399996,34.04678368900005]},"properties":{"Name":"SATURN EL","Type":"School Garden","SubType":"Elementary","Address":"5360 Saturn Street\nLos Angeles, CA 90019\n"}},{"type":"Feature","geometry":{"type":"Point","coordinates":[-118.31769583399995,34.04454019700006]},"properties":{"Name":"PIO PICO MS","Type":"School Garden","SubType":"Middle","Address":"1512 S Arlington Avenue\nLos Angeles, CA 90019\n"}},{"type":"Feature","geometry":{"type":"Point","coordinates":[-118.35344002199997,34.032285932000036]},"properties":{"Name":"CIENEGA EL","Type":"School Garden","SubType":"Elementary","Address":"2611 S Orange Drive\nLos Angeles, CA 90016\n"}},{"type":"Feature","geometry":{"type":"Point","coordinates":[-118.34475947699997,34.018223232000025]},"properties":{"Name":"COLISEUM EL","Type":"School Garden","SubType":"Elementary","Address":"4400 Coliseum Street\nLos Angeles, CA 90016\n"}},{"type":"Feature","geometry":{"type":"Point","coordinates":[-118.36413970499996,34.03468127300005]},"properties":{"Name":"MARVIN DUAL LANG MAG","Type":"School Garden","SubType":"Elementary","Address":"2411 Marvin Avenue\nLos Angeles, CA 90016\n"}},{"type":"Feature","geometry":{"type":"Point","coordinates":[-118.34610303699998,34.02381064700006]},"properties":{"Name":"DORSEY SH","Type":"School Garden","SubType":"High","Address":"3537 Farmdale Avenue\nLos Angeles, CA 90016\n"}},{"type":"Feature","geometry":{"type":"Point","coordinates":[-118.31328605099998,34.03578055000003]},"properties":{"Name":"WIDNEY HS","Type":"School Garden","SubType":"Other","Address":"2302 S Gramercy Pl\nLos Angeles, CA 90018\n"}},{"type":"Feature","geometry":{"type":"Point","coordinates":[-118.31011958099998,34.03474810600005]},"properties":{"Name":"24TH ST EL","Type":"School Garden","SubType":"Elementary","Address":"2055 W 24th Street\nLos Angeles, CA 90018\n"}},{"type":"Feature","geometry":{"type":"Point","coordinates":[-118.32363238999994,34.02662106200006]},"properties":{"Name":"6TH AVE EL","Type":"School Garden","SubType":"Elementary","Address":"3109 Sixth Avenue\nLos Angeles, CA 90018\n"}},{"type":"Feature","geometry":{"type":"Point","coordinates":[-118.29368573799997,34.02652081300005]},"properties":{"Name":"MACK EL","Type":"School Garden","SubType":"Elementary","Address":"3020 S Catalina Street\nLos Angeles, CA 90007\n"}},{"type":"Feature","geometry":{"type":"Point","coordinates":[-118.27867380999999,34.03540375400007]},"properties":{"Name":"NORWOOD EL","Type":"School Garden","SubType":"Elementary","Address":"2020 Oak Street\nLos Angeles, CA 90007\n"}},{"type":"Feature","geometry":{"type":"Point","coordinates":[-118.29273971399999,34.03052845000008]},"properties":{"Name":"VERMONT EL","Type":"School Garden","SubType":"Elementary","Address":"1435 W 27th Street\nLos Angeles, CA 90007\n"}},{"type":"Feature","geometry":{"type":"Point","coordinates":[-118.282170985,34.02491453300007]},"properties":{"Name":"LAUSD/USC MTH/SC MAG","Type":"School Garden","SubType":"High","Address":"822 W 32nd Street\nLos Angeles, CA 90007\n"}},{"type":"Feature","geometry":{"type":"Point","coordinates":[-118.282170985,34.02491453300007]},"properties":{"Name":"32ND/USC PER ART MAG","Type":"School Garden","SubType":"Other","Address":"822 W 32nd Street\nLos Angeles, CA 90007\n"}},{"type":"Feature","geometry":{"type":"Point","coordinates":[-118.27338944599995,34.01492770600004]},"properties":{"Name":"ACCELERATED ELEM","Type":"School Garden","SubType":"Elementary","Address":"119 E 37th Street\nLos Angeles, CA 90011\n"}},{"type":"Feature","geometry":{"type":"Point","coordinates":[-118.25407950699997,33.995987650000075]},"properties":{"Name":"HOOPER EL","Type":"School Garden","SubType":"Elementary","Address":"1225 E 52nd Street\nLos Angeles, CA 90011\n"}},{"type":"Feature","geometry":{"type":"Point","coordinates":[-118.26074575399997,34.014596649000055]},"properties":{"Name":"JONES EL","Type":"School Garden","SubType":"Elementary","Address":"900 E 33rd Street\nLos Angeles, CA 90011\n"}},{"type":"Feature","geometry":{"type":"Point","coordinates":[-118.27267963999998,33.99423848600003]},"properties":{"Name":"MAIN ST EL","Type":"School Garden","SubType":"Elementary","Address":"129 E 53rd Street\nLos Angeles, CA 90011\n"}},{"type":"Feature","geometry":{"type":"Point","coordinates":[-118.24604234099996,34.01219679800005]},"properties":{"Name":"NEVIN EL","Type":"School Garden","SubType":"Elementary","Address":"1569 E 32nd Street\nLos Angeles, CA 90011\n"}},{"type":"Feature","geometry":{"type":"Point","coordinates":[-118.26074575399997,34.014596649000055]},"properties":{"Name":"SYNERGY CHARTER ACAD","Type":"School Garden","SubType":"Elementary","Address":"900 E 33rd Street\nLos Angeles, CA 90011\n"}},{"type":"Feature","geometry":{"type":"Point","coordinates":[-118.25136588299995,34.00918819000003]},"properties":{"Name":"JEFFERSON SH","Type":"School Garden","SubType":"High","Address":"1319 E 41st Street\nLos Angeles, CA 90011\n"}},{"type":"Feature","geometry":{"type":"Point","coordinates":[-118.25136588299995,34.00918819000003]},"properties":{"Name":"NEW TECH SH @JEFF SH","Type":"School Garden","SubType":"High","Address":"1319 E 41st Street\nLos Angeles, CA 90011\n"}},{"type":"Feature","geometry":{"type":"Point","coordinates":[-118.26162763999997,34.02940683400004]},"properties":{"Name":"SANTEE EDUC COMPLEX","Type":"School Garden","SubType":"High","Address":"1921 S Maple Avenue\nLos Angeles, CA 90011\n"}},{"type":"Feature","geometry":{"type":"Point","coordinates":[-118.27062512199996,34.01542779600004]},"properties":{"Name":"MAPLE PC","Type":"School Garden","SubType":"Other","Address":"3601 S Maple Avenue\nLos Angeles, CA 90011\n"}},{"type":"Feature","geometry":{"type":"Point","coordinates":[-118.25259825899997,33.99592599700003]},"properties":{"Name":"HOOPER PC","Type":"School Garden","SubType":"Other","Address":"1280 E 52nd Street\nLos Angeles, CA 90011\n"}},{"type":"Feature","geometry":{"type":"Point","coordinates":[-118.26084685799998,34.00282068100006]},"properties":{"Name":"CARVER MS","Type":"School Garden","SubType":"Middle","Address":"4410 Mc Kinley Avenue\nLos Angeles, CA 90011\n"}},{"type":"Feature","geometry":{"type":"Point","coordinates":[-118.28997654199998,34.00781006100004]},"properties":{"Name":"MENLO EL","Type":"School Garden","SubType":"Elementary","Address":"4156 Menlo Avenue\nLos Angeles, CA 90037\n"}},{"type":"Feature","geometry":{"type":"Point","coordinates":[-118.29809206299996,34.00218001200005]},"properties":{"Name":"NORMANDIE EL","Type":"School Garden","SubType":"Elementary","Address":"4505 S Raymond Avenue\nLos Angeles, CA 90037\n"}},{"type":"Feature","geometry":{"type":"Point","coordinates":[-118.28049671999997,34.00492129100007]},"properties":{"Name":"WEST VERNON EL","Type":"School Garden","SubType":"Elementary","Address":"4312 S Grand Avenue\nLos Angeles, CA 90037\n"}},{"type":"Feature","geometry":{"type":"Point","coordinates":[-118.27398574899996,34.011060556000075]},"properties":{"Name":"ANNENBERG HS","Type":"School Garden","SubType":"High","Address":"4000 S Main Street\nLos Angeles, CA 90037\n"}},{"type":"Feature","geometry":{"type":"Point","coordinates":[-118.27398574899996,34.011060556000075]},"properties":{"Name":"ACCELERATED CHARTER","Type":"School Garden","SubType":"Other","Address":"4000 S Main Street\nLos Angeles, CA 90037\n"}},{"type":"Feature","geometry":{"type":"Point","coordinates":[-118.34407502099998,34.009456672000056]},"properties":{"Name":"MARLTON","Type":"School Garden","SubType":"Other","Address":"4000 Santo Tomas Drive\nLos Angeles, CA 90008\n"}},{"type":"Feature","geometry":{"type":"Point","coordinates":[-118.30899207799996,33.921813299000064]},"properties":{"Name":"ANIMO CHARTER MS #3","Type":"School Garden","SubType":"Middle","Address":"12226 S Western Avenue\nLos Angeles, CA 90047\n"}},{"type":"Feature","geometry":{"type":"Point","coordinates":[-118.26954658599999,33.979250757000045]},"properties":{"Name":"66TH ST EL","Type":"School Garden","SubType":"Elementary","Address":"6600 S San Pedro Street\nLos Angeles, CA 90003\n"}},{"type":"Feature","geometry":{"type":"Point","coordinates":[-118.27608924199995,33.97175285900005]},"properties":{"Name":"75TH ST EL","Type":"School Garden","SubType":"Elementary","Address":"142 W 75th Street\nLos Angeles, CA 90003\n"}},{"type":"Feature","geometry":{"type":"Point","coordinates":[-118.26745980299995,33.95196357100008]},"properties":{"Name":"93RD ST EL","Type":"School Garden","SubType":"Elementary","Address":"330 E 93rd Street\nLos Angeles, CA 90003\n"}},{"type":"Feature","geometry":{"type":"Point","coordinates":[-118.28113969299994,33.947407449000025]},"properties":{"Name":"BARRETT EL","Type":"School Garden","SubType":"Elementary","Address":"419 W 98th Street\nLos Angeles, CA 90003\n"}},{"type":"Feature","geometry":{"type":"Point","coordinates":[-118.26588093199996,33.97976743900006]},"properties":{"Name":"FREMONT CAS/AEWC","Type":"School Garden","SubType":"High","Address":"501 E 66th Street\nLos Angeles, CA 90003\n"}},{"type":"Feature","geometry":{"type":"Point","coordinates":[-118.29471933399998,33.93731806900007]},"properties":{"Name":"WOODCREST EL","Type":"School Garden","SubType":"Elementary","Address":"1151 W 109th Street\nLos Angeles, CA 90044\n"}},{"type":"Feature","geometry":{"type":"Point","coordinates":[-118.28967317399997,33.960068808000074]},"properties":{"Name":"YTH OPP UNLTD ALT HS","Type":"School Garden","SubType":"High","Address":"915 W Manchester Avenue\nLos Angeles, CA 90044\n"}},{"type":"Feature","geometry":{"type":"Point","coordinates":[-118.29066906399999,33.933323108000025]},"properties":{"Name":"WASHINGTON PC","Type":"School Garden","SubType":"Other","Address":"860 W 112th Street\nLos Angeles, CA 90044\n"}},{"type":"Feature","geometry":{"type":"Point","coordinates":[-118.298172723,33.97161112800006]},"properties":{"Name":"KIPP EMPOWER ACADEMY","Type":"School Garden","SubType":"Other","Address":"7511 Raymond Avenue\nLos Angeles, CA 90044\n"}},{"type":"Feature","geometry":{"type":"Point","coordinates":[-118.28703246199996,33.95144043500005]},"properties":{"Name":"HARTE PREP MS","Type":"School Garden","SubType":"Middle","Address":"9301 S Hoover Street\nLos Angeles, CA 90044\n"}},{"type":"Feature","geometry":{"type":"Point","coordinates":[-118.25863678199994,33.946108827000046]},"properties":{"Name":"99TH ST EL","Type":"School Garden","SubType":"Elementary","Address":"9900 S Wadsworth Avenue\nLos Angeles, CA 90002\n"}},{"type":"Feature","geometry":{"type":"Point","coordinates":[-118.24772812999998,33.94150776600003]},"properties":{"Name":"COMPTON EL","Type":"School Garden","SubType":"Elementary","Address":"1515 E 104th Street\nLos Angeles, CA 90002\n"}},{"type":"Feature","geometry":{"type":"Point","coordinates":[-118.24603888499996,33.94141327900007]},"properties":{"Name":"MARKHAM HLTH CAR MAG","Type":"School Garden","SubType":"Middle","Address":"1650 E 104th Street\nLos Angeles, CA 90002\n"}},{"type":"Feature","geometry":{"type":"Point","coordinates":[-118.24603888499996,33.94141327900007]},"properties":{"Name":"MARKHAM MS","Type":"School Garden","SubType":"Middle","Address":"1650 E 104th Street\nLos Angeles, CA 90002\n"}},{"type":"Feature","geometry":{"type":"Point","coordinates":[-118.46362195499995,34.11926682500007]},"properties":{"Name":"ROSCOMARE EL","Type":"School Garden","SubType":"Elementary","Address":"2425 Roscomare Road\nLos Angeles, CA 90077\n"}},{"type":"Feature","geometry":{"type":"Point","coordinates":[-118.46296976399998,34.08094308400007]},"properties":{"Name":"COMMUNITY MAG CHT SC","Type":"School Garden","SubType":"Elementary","Address":"11301 Bellagio Road\nLos Angeles, CA 90049\n"}},{"type":"Feature","geometry":{"type":"Point","coordinates":[-118.53572692699998,34.04886410800003]},"properties":{"Name":"PACIFIC PALISADES EL","Type":"School Garden","SubType":"Elementary","Address":"800 Via De La\nPacific Palisades, CA 90272\n"}},{"type":"Feature","geometry":{"type":"Point","coordinates":[-118.43362114599995,34.070064391000074]},"properties":{"Name":"WARNER EL","Type":"School Garden","SubType":"Elementary","Address":"615 Holmby Avenue\nLos Angeles, CA 90024\n"}},{"type":"Feature","geometry":{"type":"Point","coordinates":[-118.43553623799994,34.05274098600006]},"properties":{"Name":"EMERSON MS","Type":"School Garden","SubType":"Middle","Address":"1650 Selby Avenue\nLos Angeles, CA 90024\n"}},{"type":"Feature","geometry":{"type":"Point","coordinates":[-118.44773659799995,34.04405047700004]},"properties":{"Name":"STERRY EL","Type":"School Garden","SubType":"Elementary","Address":"1730 Corinth Avenue\nLos Angeles, CA 90025\n"}},{"type":"Feature","geometry":{"type":"Point","coordinates":[-118.43084081199999,34.04757401100005]},"properties":{"Name":"WESTWOOD EL","Type":"School Garden","SubType":"Elementary","Address":"2050 Selby Avenue\nLos Angeles, CA 90025\n"}},{"type":"Feature","geometry":{"type":"Point","coordinates":[-118.46165500999996,34.04559568700006]},"properties":{"Name":"UNIVERSITY SH","Type":"School Garden","SubType":"High","Address":"11800 Texas Avenue\nLos Angeles, CA 90025\n"}},{"type":"Feature","geometry":{"type":"Point","coordinates":[-118.43492668099998,34.03031066800003]},"properties":{"Name":"WEBSTER MS","Type":"School Garden","SubType":"Middle","Address":"11330 W Graham Pl\nLos Angeles, CA 90064\n"}},{"type":"Feature","geometry":{"type":"Point","coordinates":[-118.41900329899994,34.017614827000045]},"properties":{"Name":"CHARNOCK ROAD EL","Type":"School Garden","SubType":"Elementary","Address":"11133 Charnock Road\nLos Angeles, CA 90034\n"}},{"type":"Feature","geometry":{"type":"Point","coordinates":[-118.42547566599995,34.02750601400004]},"properties":{"Name":"CLOVER EL","Type":"School Garden","SubType":"Elementary","Address":"11020 Clover Avenue\nLos Angeles, CA 90034\n"}},{"type":"Feature","geometry":{"type":"Point","coordinates":[-118.40797596199997,34.02574993700006]},"properties":{"Name":"PALMS EL","Type":"School Garden","SubType":"Elementary","Address":"3520 Motor Avenue\nLos Angeles, CA 90034\n"}},{"type":"Feature","geometry":{"type":"Point","coordinates":[-118.38949105699999,34.03407747800003]},"properties":{"Name":"HAMILTON SH-COMPLEX","Type":"School Garden","SubType":"High","Address":"2955 S Robertson Blvd\nLos Angeles, CA 90034\n"}},{"type":"Feature","geometry":{"type":"Point","coordinates":[-118.416705649,34.02379566700006]},"properties":{"Name":"PALMS G/HA MAG","Type":"School Garden","SubType":"Middle","Address":"10860 Woodbine Street\nLos Angeles, CA 90034\n"}},{"type":"Feature","geometry":{"type":"Point","coordinates":[-118.43420535299998,34.01559948600004]},"properties":{"Name":"MAR VISTA EL","Type":"School Garden","SubType":"Elementary","Address":"3330 Granville Avenue\nLos Angeles, CA 90066\n"}},{"type":"Feature","geometry":{"type":"Point","coordinates":[-118.44252713199995,33.99907461300006]},"properties":{"Name":"VENICE FOR LANG MAG","Type":"School Garden","SubType":"High","Address":"13000 Venice Blvd\nLos Angeles, CA 90066\n"}},{"type":"Feature","geometry":{"type":"Point","coordinates":[-118.42388551699997,33.98726142000004]},"properties":{"Name":"OCEAN CHARTER","Type":"School Garden","SubType":"Other","Address":"12606 Culver Blvd\nLos Angeles, CA 90066\n"}},{"type":"Feature","geometry":{"type":"Point","coordinates":[-118.44828508399996,33.99976943900003]},"properties":{"Name":"MARK TWAIN MS","Type":"School Garden","SubType":"Middle","Address":"2224 Walgrove Avenue\nLos Angeles, CA 90066\n"}},{"type":"Feature","geometry":{"type":"Point","coordinates":[-118.44828508399996,33.99976943900003]},"properties":{"Name":"MARK TWAIN WL MAG","Type":"School Garden","SubType":"Middle","Address":"2224 Walgrove Avenue\nLos Angeles, CA 90066\n"}},{"type":"Feature","geometry":{"type":"Point","coordinates":[-118.47220414999998,33.99211367800007]},"properties":{"Name":"WESTMINSTER EL","Type":"School Garden","SubType":"Elementary","Address":"1010 Abbot Kinney Blvd\nVenice, CA 90291\n"}},{"type":"Feature","geometry":{"type":"Point","coordinates":[-118.47220414999998,33.99211367800007]},"properties":{"Name":"WESTMNSTR COMP SC MG","Type":"School Garden","SubType":"Elementary","Address":"1010 Abbot Kinney Blvd\nVenice, CA 90291\n"}},{"type":"Feature","geometry":{"type":"Point","coordinates":[-118.46499297699995,33.97928393700005]},"properties":{"Name":"WESTSIDE GLBL AWR MG","Type":"School Garden","SubType":"Other","Address":"104 Anchorage Street\nMarina Del Rey, CA 90292\n"}},{"type":"Feature","geometry":{"type":"Point","coordinates":[-118.42004726599998,33.957777985000064]},"properties":{"Name":"LOYOLA PER ARTS MAG","Type":"School Garden","SubType":"Elementary","Address":"8821 Villanova Avenue\nLos Angeles, CA 90045\n"}},{"type":"Feature","geometry":{"type":"Point","coordinates":[-118.37754079199999,33.968518550000056]},"properties":{"Name":"OPEN CHARTER MAGNET","Type":"School Garden","SubType":"Elementary","Address":"5540 W 77th Street\nLos Angeles, CA 90045\n"}},{"type":"Feature","geometry":{"type":"Point","coordinates":[-118.42790928499994,33.95967348900007]},"properties":{"Name":"WESM A/A G/HA MAG","Type":"School Garden","SubType":"High","Address":"7400 W Manchester Avenue\nLos Angeles, CA 90045\n"}},{"type":"Feature","geometry":{"type":"Point","coordinates":[-118.21897344799999,33.797122976000026]},"properties":{"Name":"REID, WILL J.","Type":"School Garden","SubType":"High","Address":"2153 W Hill Street\nLong Beach, CA 90810\n"}},{"type":"Feature","geometry":{"type":"Point","coordinates":[-118.21983032699995,33.79958936300005]},"properties":{"Name":"ELIZABETH A. HUDSON","Type":"School Garden","SubType":"Other","Address":"2335 Webster Avenue\nLong Beach, CA 90810\n"}},{"type":"Feature","geometry":{"type":"Point","coordinates":[-118.21109454399999,33.81258122500003]},"properties":{"Name":"JOHN MUIR","Type":"School Garden","SubType":"Other","Address":"3038 Delta Avenue\nLong Beach, CA 90810\n"}},{"type":"Feature","geometry":{"type":"Point","coordinates":[-118.30215961799996,33.80404745900006]},"properties":{"Name":"PRESIDENT EL","Type":"School Garden","SubType":"Elementary","Address":"1465 W 243rd Street\nHarbor City, CA 90710\n"}},{"type":"Feature","geometry":{"type":"Point","coordinates":[-118.30735640899996,33.80482064000006]},"properties":{"Name":"NARBONNE MATH/SC MAG","Type":"School Garden","SubType":"High","Address":"24300 S Western Avenue\nHarbor City, CA 90710\n"}},{"type":"Feature","geometry":{"type":"Point","coordinates":[-118.30736393499996,33.80281543700005]},"properties":{"Name":"PATTON HS","Type":"School Garden","SubType":"High","Address":"24514 S Western Avenue\nHarbor City, CA 90710\n"}},{"type":"Feature","geometry":{"type":"Point","coordinates":[-118.27645681999996,33.77552272300005]},"properties":{"Name":"HAWAIIAN EL","Type":"School Garden","SubType":"Elementary","Address":"540 Hawaiian Avenue\nWilmington, CA 90744\n"}},{"type":"Feature","geometry":{"type":"Point","coordinates":[-118.32210434099994,33.72205635600005]},"properties":{"Name":"S SHORES PER ARTS MG","Type":"School Garden","SubType":"Elementary","Address":"2060 W 35th Street\nSan Pedro, CA 90732\n"}},{"type":"Feature","geometry":{"type":"Point","coordinates":[-118.30991335099998,33.74189255500005]},"properties":{"Name":"WILLENBERG SP ED CTR","Type":"School Garden","SubType":"Other","Address":"308 Weymouth Avenue\nSan Pedro, CA 90732\n"}},{"type":"Feature","geometry":{"type":"Point","coordinates":[-118.28983250699997,33.715040602000045]},"properties":{"Name":"PT FERMIN MAR SCI MG","Type":"School Garden","SubType":"Elementary","Address":"3333 Kerckhoff Avenue\nSan Pedro, CA 90731\n"}},{"type":"Feature","geometry":{"type":"Point","coordinates":[-118.29899077899995,33.730679950000024]},"properties":{"Name":"SAN PEDRO SH","Type":"School Garden","SubType":"High","Address":"1001 W 15th Street\nSan Pedro, CA 90731\n"}},{"type":"Feature","geometry":{"type":"Point","coordinates":[-118.29464213099999,33.730360189000066]},"properties":{"Name":"DANA MS","Type":"School Garden","SubType":"Middle","Address":"1501 S Cabrillo Avenue\nSan Pedro, CA 90731\n"}},{"type":"Feature","geometry":{"type":"Point","coordinates":[-118.44288376299994,34.30730129700004]},"properties":{"Name":"SYLMAR PROMISE ACAD","Type":"School Garden","SubType":"Other","Address":"13050 Bordan Avenue\nSylmar, CA 91342\n"}},{"type":"Feature","geometry":{"type":"Point","coordinates":[-118.46566725499997,34.301487518000044]},"properties":{"Name":"EL DORADO ELEMENTARY","Type":"School Garden","SubType":"Elementary","Address":"12749 El Dorado Avenue\nSylmar, CA 91342\n"}},{"type":"Feature","geometry":{"type":"Point","coordinates":[-118.41754220499996,34.30554700700003]},"properties":{"Name":"HARDING ELEMENTARY","Type":"School Garden","SubType":"Elementary","Address":"13060 Harding Street\nSylmar, CA 91342\n"}},{"type":"Feature","geometry":{"type":"Point","coordinates":[-118.45583368199999,34.29089574400007]},"properties":{"Name":"OSCEOLA ELEMENTARY","Type":"School Garden","SubType":"Elementary","Address":"14940 Osceola Street\nSylmar, CA 91342\n"}},{"type":"Feature","geometry":{"type":"Point","coordinates":[-118.30708216599999,34.255899793000026]},"properties":{"Name":"APPERSON ELEMENTARY","Type":"School Garden","SubType":"Elementary","Address":"10233 Woodward Avenue\nSunland, CA 91040\n"}},{"type":"Feature","geometry":{"type":"Point","coordinates":[-118.31560905099997,34.263283615000034]},"properties":{"Name":"SUNLAND ELEMENTARY","Type":"School Garden","SubType":"Elementary","Address":"8350 Hillrose Street\nSunland, CA 91040\n"}},{"type":"Feature","geometry":{"type":"Point","coordinates":[-118.44288376299994,34.30730129700004]},"properties":{"Name":"SYLMAR MATH/SCI MAG","Type":"School Garden","SubType":"High","Address":"13050 Borden Avenue\nSylmar, CA 91342\n"}},{"type":"Feature","geometry":{"type":"Point","coordinates":[-118.44288376299994,34.30730129700004]},"properties":{"Name":"SYLMAR HIGH SCHOOL","Type":"School Garden","SubType":"High","Address":"13050 Borden Avenue\nSylmar, CA 91342\n"}},{"type":"Feature","geometry":{"type":"Point","coordinates":[-118.30277136899997,34.26888656800003]},"properties":{"Name":"MOUNT GLEASON MIDDLE SCHOOL","Type":"School Garden","SubType":"Middle","Address":"10965 Mt Gleason Avenue\nSunland, CA 91040\n"}},{"type":"Feature","geometry":{"type":"Point","coordinates":[-118.51243722199996,34.03109422000006]},"properties":{"Name":"CANYON EL","Type":"School Garden","SubType":"Elementary","Address":"421 Entrada Drive\nSanta Monica, CA 90402\n"}},{"type":"Feature","geometry":{"type":"Point","coordinates":[-118.429640012,34.30162233500005]},"properties":{"Name":"GRIDLEY EL","Type":"School Garden","SubType":"Elementary","Address":"1907 Eighth Street\nSan Fernando, CA 91340\n"}},{"type":"Feature","geometry":{"type":"Point","coordinates":[-118.44492963899995,34.27617880100007]},"properties":{"Name":"O MELVENY EL","Type":"School Garden","SubType":"Elementary","Address":"728 Woodworth Street\nSan Fernando, CA 91340\n"}},{"type":"Feature","geometry":{"type":"Point","coordinates":[-118.28701056899996,33.881737756000064]},"properties":{"Name":"GARDENA EL","Type":"School Garden","SubType":"Elementary","Address":"647 W Gardena Blvd\nGardena, CA 90247\n"}},{"type":"Feature","geometry":{"type":"Point","coordinates":[-118.30491933299999,33.862027975000046]},"properties":{"Name":"186TH ST EL","Type":"School Garden","SubType":"Elementary","Address":"1581 W 186th Street\nGardena, CA 90248\n"}},{"type":"Feature","geometry":{"type":"Point","coordinates":[-118.29746983099994,33.86637783900005]},"properties":{"Name":"GARDENA SH","Type":"School Garden","SubType":"High","Address":"1301 W 182nd Street\nGardena, CA 90248\n"}},{"type":"Feature","geometry":{"type":"Point","coordinates":[-118.30163648199999,33.83331080800008]},"properties":{"Name":"HALLDALE EL","Type":"School Garden","SubType":"Elementary","Address":"21514 Halldale Avenue\nTorrance, CA 90501\n"}},{"type":"Feature","geometry":{"type":"Point","coordinates":[-118.41265422599997,33.99519833700003]},"properties":{"Name":"STONER EL","Type":"School Garden","SubType":"Elementary","Address":"11735 Braddock Drive\nCulver City, CA 90230\n"}}]}