{"type":"FeatureCollection","features":[{"type":"Feature","geometry":{"type":"Point","coordinates":[null,null]},"properties":{"area":"中和區","name":"823紀念公園  (公四)","address":"新北市中安街、永貞路、安樂路及安平路間"}},{"type":"Feature","geometry":{"type":"Point","coordinates":[121.3836844,25.0837497]},"properties":{"area":"林口區","name":"一品公園(公鄰22)","address":"新北市中北三街與中華一路口"}},{"type":"Feature","geometry":{"type":"Point","coordinates":[121.4898243,25.0779412]},"properties":{"area":"三重區","name":"一號人行道廣場","address":"新北市三重區自強路四段"}},{"type":"Feature","geometry":{"type":"Point","coordinates":[121.4666911,25.0790051]},"properties":{"area":"蘆洲區","name":"九芎公園","address":"新北市蘆洲區九芎里九芎街與和平路121巷交叉口"}},{"type":"Feature","geometry":{"type":"Point","coordinates":[null,null]},"properties":{"area":"五股區","name":"二支郵局對面公園","address":"新北市中興路4段48巷19號對面"}},{"type":"Feature","geometry":{"type":"Point","coordinates":[121.6350782,24.9535657]},"properties":{"area":"石碇區","name":"二格公園","address":"新北市石碇區格頭里北宜路23K處"}},{"type":"Feature","geometry":{"type":"Point","coordinates":[121.4898243,25.0779412]},"properties":{"area":"三重區","name":"二號人行道廣場","address":"新北市三重區自強路四段"}},{"type":"Feature","geometry":{"type":"Point","coordinates":[null,null]},"properties":{"area":"板橋區","name":"八德公園","address":"新北市雙十路二段與萬板路交叉口"}},{"type":"Feature","geometry":{"type":"Point","coordinates":[113.6459356,34.8607077]},"properties":{"area":"林口區","name":"力行公園(公鄰11)","address":"新北市民族路與文化北路526巷口"}},{"type":"Feature","geometry":{"type":"Point","coordinates":[121.4600417,25.0940978]},"properties":{"area":"蘆洲區","name":"三民公園","address":"新北市蘆洲區南港里三民路611號"}},{"type":"Feature","geometry":{"type":"Point","coordinates":[121.4627868,25.0169826]},"properties":{"area":"新店區","name":"三民公園","address":"新北市三民咯中正國小旁"}},{"type":"Feature","geometry":{"type":"Point","coordinates":[121.483024,25.065531]},"properties":{"area":"三重區","name":"三民公園(公廿八)","address":"新北市三重區忠孝路3段40巷51號"}},{"type":"Feature","geometry":{"type":"Point","coordinates":[null,null]},"properties":{"area":"樹林區","name":"三多公園","address":"新北市三龍街14巷20號旁"}},{"type":"Feature","geometry":{"type":"Point","coordinates":[null,null]},"properties":{"area":"泰山區","name":"三角公園","address":"新北市橫窠雅路大轉彎處"}},{"type":"Feature","geometry":{"type":"Point","coordinates":[121.3765511,24.9311881]},"properties":{"area":"三峽區","name":"三角圓環公園","address":"新北市介壽路、中正路口"}},{"type":"Feature","geometry":{"type":"Point","coordinates":[121.4715241,25.0868908]},"properties":{"area":"蘆洲區","name":"三角綠地","address":"新北市蘆洲區溪漧里中山一、二路交叉路口"}},{"type":"Feature","geometry":{"type":"Point","coordinates":[121.4919252,25.0689394]},"properties":{"area":"三重區","name":"三張公園 (公廿二)","address":"新北市三重區大智街(重陽路四段忠孝路一段)"}},{"type":"Feature","geometry":{"type":"Point","coordinates":[null,null]},"properties":{"area":"雙溪區","name":"三貂運動公園","address":"新北市三貂里牡丹派出所旁，尪子崙坑路"}},{"type":"Feature","geometry":{"type":"Point","coordinates":[121.500214,25.0751522]},"properties":{"area":"三重區","name":"三德公園(公一)","address":"新北市三重區仁昌街109號"}},{"type":"Feature","geometry":{"type":"Point","coordinates":[121.483787,25.0846622]},"properties":{"area":"蘆洲區","name":"三蘆公園","address":"新北市蘆洲區玉清里永安北路二段76巷底"}},{"type":"Feature","geometry":{"type":"Point","coordinates":[121.4871653,25.0879199]},"properties":{"area":"三重區","name":"大山公園","address":"新北市三重區三賢路與信賢路口"}},{"type":"Feature","geometry":{"type":"Point","coordinates":[121.4627868,25.0169826]},"properties":{"area":"汐止區","name":"大公雞公園   (湖興公園)","address":"新北市伯爵五代自由女神旁"}},{"type":"Feature","geometry":{"type":"Point","coordinates":[null,null]},"properties":{"area":"樹林區","name":"大同公園","address":"新北市太平路33巷8號(太平路33巷10號旁)"}},{"type":"Feature","geometry":{"type":"Point","coordinates":[121.4906846,25.0663418]},"properties":{"area":"三重區","name":"大同公園(公九)","address":"新北市三重區大同北路186號"}},{"type":"Feature","geometry":{"type":"Point","coordinates":[121.4586783,25.0874817]},"properties":{"area":"蘆洲區","name":"大地兒童公園","address":"新北市蘆洲區正義里永樂街27巷與31巷間"}},{"type":"Feature","geometry":{"type":"Point","coordinates":[null,null]},"properties":{"area":"淡水區","name":"大庄(1)口袋公園","address":"新北市沙崙路與淡海路交接路口（淡水都市計畫(市五用地)）"}},{"type":"Feature","geometry":{"type":"Point","coordinates":[121.4214435,25.1624648]},"properties":{"area":"八里區","name":"大崁環保公園","address":"新北市八里區觀海大道29號對面"}},{"type":"Feature","geometry":{"type":"Point","coordinates":[null,null]},"properties":{"area":"林口區","name":"大崙公園(公鄰1)","address":"新北市南勢二街412號對面"}},{"type":"Feature","geometry":{"type":"Point","coordinates":[116.24242,28.443797]},"properties":{"area":"土城區","name":"大清水公園","address":"新北市清水高中對面"}},{"type":"Feature","geometry":{"type":"Point","coordinates":[121.4952603,25.0633702]},"properties":{"area":"三重區","name":"大智公園","address":"新北市三重區大同北路61號對面"}},{"type":"Feature","geometry":{"type":"Point","coordinates":[121.498929,25.068343]},"properties":{"area":"永和區","name":"大新公園","address":"新北市自強街6巷至8巷間"}},{"type":"Feature","geometry":{"type":"Point","coordinates":[121.4410384,24.9695639]},"properties":{"area":"土城區","name":"大墓公公園","address":"新北市金城路一段千歲路口"}},{"type":"Feature","geometry":{"type":"Point","coordinates":[null,null]},"properties":{"area":"板橋區","name":"大豐公園","address":"新北市溪崑國中後面"}},{"type":"Feature","geometry":{"type":"Point","coordinates":[121.466766,25.008254]},"properties":{"area":"新店區","name":"大豐公園","address":"新北市民族路105號大豐國小旁"}},{"type":"Feature","geometry":{"type":"Point","coordinates":[121.4627868,25.0169826]},"properties":{"area":"板橋區","name":"大觀公園","address":"新北市僑中二街12巷旁"}},{"type":"Feature","geometry":{"type":"Point","coordinates":[121.4900457,25.0720886]},"properties":{"area":"三重區","name":"小永德公園","address":"新北市三重區忠孝路一段、大智街口"}},{"type":"Feature","geometry":{"type":"Point","coordinates":[121.466766,25.008254]},"properties":{"area":"新店區","name":"小金門公園","address":"新北市民族路105號大豐國小對面"}},{"type":"Feature","geometry":{"type":"Point","coordinates":[121.4198606,24.9815605]},"properties":{"area":"樹林區","name":"山仔腳公園","address":"新北市樹林地政事務所旁(地政街8巷10弄2號前)"}},{"type":"Feature","geometry":{"type":"Point","coordinates":[null,null]},"properties":{"area":"樹林區","name":"山佳車站廣場","address":"新北市中山路三段、佳園路一段口"}},{"type":"Feature","geometry":{"type":"Point","coordinates":[121.4266829,25.0658105]},"properties":{"area":"泰山區","name":"山腳公園","address":"新北市忠孝街19巷3弄旁河堤邊"}},{"type":"Feature","geometry":{"type":"Point","coordinates":[121.471635,25.022927]},"properties":{"area":"板橋區","name":"中山公園","address":"新北市莊敬路179號"}},{"type":"Feature","geometry":{"type":"Point","coordinates":[120.7300209,24.2171222]},"properties":{"area":"樹林區","name":"中山公園","address":"新北市龍興街59巷11號前"}},{"type":"Feature","geometry":{"type":"Point","coordinates":[121.4438657,25.178083]},"properties":{"area":"淡水區","name":"中山北路一段景觀公園","address":"新北市中山北路一段(水碓派出所與新春街口間)"}},{"type":"Feature","geometry":{"type":"Point","coordinates":[121.6405078,25.22206]},"properties":{"area":"金山區","name":"中山區溫泉公園","address":"新北市金山區溫泉路2巷10號"}},{"type":"Feature","geometry":{"type":"Point","coordinates":[121.4733008,25.0836893]},"properties":{"area":"蘆洲區","name":"中山廣場","address":"新北市蘆洲區中央路與中央路9巷、37巷、74巷交叉口"}},{"type":"Feature","geometry":{"type":"Point","coordinates":[121.4914477,25.0616755]},"properties":{"area":"三重區","name":"中山藝術公園","address":"新北市三重區新北大道1段1號旁"}},{"type":"Feature","geometry":{"type":"Point","coordinates":[121.4474273,24.9878033]},"properties":{"area":"新店區","name":"中央八街底公園","address":"新北市中央八街底"}},{"type":"Feature","geometry":{"type":"Point","coordinates":[121.4448225,25.0502413]},"properties":{"area":"新莊區","name":"中平公園","address":"新北市中平路文藝中心後方及新泰游泳池側邊"}},{"type":"Feature","geometry":{"type":"Point","coordinates":[121.5145353,25.0103251]},"properties":{"area":"永和區","name":"中正派出所邊小公園","address":"新北市永和路2段393號旁"}},{"type":"Feature","geometry":{"type":"Point","coordinates":[null,null]},"properties":{"area":"樹林區","name":"中正路橋下廣場","address":"新北市千歲街中正陸橋下（中正路21-1號對面）"}},{"type":"Feature","geometry":{"type":"Point","coordinates":[121.5145353,25.0103251]},"properties":{"area":"永和區","name":"中正橋小公園 (鴿子園)","address":"新北市永和路2段340號旁"}},{"type":"Feature","geometry":{"type":"Point","coordinates":[121.4645848,25.0844999]},"properties":{"area":"蘆洲區","name":"中原公園","address":"新北市蘆洲區光明里長興路50巷與長樂路交叉口"}},{"type":"Feature","geometry":{"type":"Point","coordinates":[null,null]},"properties":{"area":"三峽區","name":"中悅兒童公園","address":"新北市學成路、國際一街底"}},{"type":"Feature","geometry":{"type":"Point","coordinates":[null,null]},"properties":{"area":"新莊區","name":"中港三角公園","address":"新北市中華路與復興路口"}},{"type":"Feature","geometry":{"type":"Point","coordinates":[null,null]},"properties":{"area":"新莊區","name":"中港厝休閒廣場","address":"新北市中港路352號旁"}},{"type":"Feature","geometry":{"type":"Point","coordinates":[121.468405,25.082004]},"properties":{"area":"蘆洲區","name":"中路兒童公園","address":"新北市蘆洲區中華里光華路73巷26號"}},{"type":"Feature","geometry":{"type":"Point","coordinates":[null,null]},"properties":{"area":"淡水區","name":"中興(1)口袋公園","address":"新北市原德路73巷27號旁"}},{"type":"Feature","geometry":{"type":"Point","coordinates":[121.5457358,24.9781876]},"properties":{"area":"新店區","name":"中興公園(公一)","address":"新北市中興路3段126號巷內"}},{"type":"Feature","geometry":{"type":"Point","coordinates":[121.500585,24.9881841]},"properties":{"area":"中和區","name":"中興公園(公十二)","address":"新北市中興街263巷74號對面"}},{"type":"Feature","geometry":{"type":"Point","coordinates":[121.4775205,24.9988058]},"properties":{"area":"永和區","name":"中興社區休閒公園","address":"新北市中興街68巷5弄"}},{"type":"Feature","geometry":{"type":"Point","coordinates":[null,null]},"properties":{"area":"林口區","name":"井泉公園(公鄰3)","address":"新北市南勢二街72號對面"}},{"type":"Feature","geometry":{"type":"Point","coordinates":[null,null]},"properties":{"area":"新店區","name":"五峰重劃區附設公園","address":"新北市中正路惠國市場對面"}},{"type":"Feature","geometry":{"type":"Point","coordinates":[121.496026,25.08079]},"properties":{"area":"三重區","name":"五常公園(遊二)","address":"新北市三重區五華街7巷30號"}},{"type":"Feature","geometry":{"type":"Point","coordinates":[121.4941483,25.084305]},"properties":{"area":"三重區","name":"五華公園(遊一)","address":"新北市三重區仁義街228巷12號"}},{"type":"Feature","geometry":{"type":"Point","coordinates":[120.5586145,24.2779989]},"properties":{"area":"板橋區","name":"五權公園","address":"新北市五權街77巷2號(五權街底)"}},{"type":"Feature","geometry":{"type":"Point","coordinates":[121.4596444,24.9957191]},"properties":{"area":"板橋區","name":"仁愛公園","address":"新北市國慶路51號(忠孝公園旁)"}},{"type":"Feature","geometry":{"type":"Point","coordinates":[121.4337491,25.0566263]},"properties":{"area":"泰山區","name":"仁愛公園","address":"新北市仁德路(加油站斜對面)"}},{"type":"Feature","geometry":{"type":"Point","coordinates":[null,null]},"properties":{"area":"永和區","name":"仁愛公園","address":"新北市保安，仁愛，永平，保生路交界"}},{"type":"Feature","geometry":{"type":"Point","coordinates":[null,null]},"properties":{"area":"土城區","name":"仁愛公園","address":"新北市仁愛路16號旁"}},{"type":"Feature","geometry":{"type":"Point","coordinates":[121.4703023,25.0901084]},"properties":{"area":"蘆洲區","name":"仁愛公園","address":"新北市蘆洲區水湳里水湳街76號旁"}},{"type":"Feature","geometry":{"type":"Point","coordinates":[null,null]},"properties":{"area":"林口區","name":"仁愛公園(公鄰35)","address":"新北市仁愛路一段211巷111號對面(文小18旁)"}},{"type":"Feature","geometry":{"type":"Point","coordinates":[121.4703023,25.0901084]},"properties":{"area":"蘆洲區","name":"仁愛廣場","address":"新北市蘆洲區水湳里水湳街76號"}},{"type":"Feature","geometry":{"type":"Point","coordinates":[121.36997,25.0709214]},"properties":{"area":"林口區","name":"仁愛籃球場(廣1)","address":"新北市忠孝路與公園路口"}},{"type":"Feature","geometry":{"type":"Point","coordinates":[121.4449527,24.9738272]},"properties":{"area":"土城區","name":"仁德公園","address":"新北市金城路一段127巷"}},{"type":"Feature","geometry":{"type":"Point","coordinates":[null,null]},"properties":{"area":"板橋區","name":"介壽公園","address":"新北市館前東路、公園路、實踐路三角地帶(板橋地政事務所對面)"}},{"type":"Feature","geometry":{"type":"Point","coordinates":[121.4867114,25.0614534]},"properties":{"area":"三重區","name":"介壽公園(公十七)","address":"新北市三重區三和路三段〈高速公路匝道〉"}},{"type":"Feature","geometry":{"type":"Point","coordinates":[121.4882833,25.0694502]},"properties":{"area":"三重區","name":"六合公園(公廿五)","address":"新北市三重區自強路二段50巷"}},{"type":"Feature","geometry":{"type":"Point","coordinates":[121.4723739,25.0299058]},"properties":{"area":"板橋區","name":"六海園","address":"新北市板橋市文化路與民生路口"}},{"type":"Feature","geometry":{"type":"Point","coordinates":[121.493553,25.069785]},"properties":{"area":"三重區","name":"六張公園(公七)","address":"新北市三重區六張街78號前"}},{"type":"Feature","geometry":{"type":"Point","coordinates":[null,null]},"properties":{"area":"淡水區","name":"公22公園","address":"位於新北市淡水區新市五路2段。(鄰旁太子廟與崁頂社區)"}},{"type":"Feature","geometry":{"type":"Point","coordinates":[null,null]},"properties":{"area":"淡水區","name":"公23公園","address":"位於新北市淡水區新市五路2段和後州路一段和新市3路。"}},{"type":"Feature","geometry":{"type":"Point","coordinates":[121.5003161,25.060556]},"properties":{"area":"三重區","name":"公35同安公園","address":"新北市三重區文化南路、福德南路交叉口"}},{"type":"Feature","geometry":{"type":"Point","coordinates":[121.4985611,25.0592298]},"properties":{"area":"三重區","name":"公36同安公園","address":"新北市三重區正義南路、同安東街交叉口"}},{"type":"Feature","geometry":{"type":"Point","coordinates":[null,null]},"properties":{"area":"淡水區","name":"公7公園","address":"位於新北市淡水區沙崙路和濱海路2段交叉口。"}},{"type":"Feature","geometry":{"type":"Point","coordinates":[121.5047614,25.0096538]},"properties":{"area":"永和區","name":"公一公園","address":"新北市保生，保順路口交界處"}},{"type":"Feature","geometry":{"type":"Point","coordinates":[121.4075141,25.154531]},"properties":{"area":"三峽區","name":"公七-中山、鳶山公園","address":"新北市中山路文化路口、仁愛街"}},{"type":"Feature","geometry":{"type":"Point","coordinates":[121.4433119,25.1863497]},"properties":{"area":"淡水區","name":"公八公園","address":"新北市淡水區中山北路二段381巷內"}},{"type":"Feature","geometry":{"type":"Point","coordinates":[121.4627868,25.0169826]},"properties":{"area":"五股區","name":"公五公園","address":"新北市芳洲二路與芳洲五路交岔口"}},{"type":"Feature","geometry":{"type":"Point","coordinates":[null,null]},"properties":{"area":"五股區","name":"公四公園","address":"新北市新五路與中興路交岔口"}},{"type":"Feature","geometry":{"type":"Point","coordinates":[null,null]},"properties":{"area":"板橋區","name":"公兒二公園","address":"新北市民權路和中山路交叉口"}},{"type":"Feature","geometry":{"type":"Point","coordinates":[null,null]},"properties":{"area":"中和區","name":"公路二村","address":"新北市連城路144巷口"}},{"type":"Feature","geometry":{"type":"Point","coordinates":[120.548874,24.0753289]},"properties":{"area":"林口區","name":"公鄰23","address":"公園路192號(新北市立圖書館林口分館)旁"}},{"type":"Feature","geometry":{"type":"Point","coordinates":[121.3769041,25.0673931]},"properties":{"area":"林口區","name":"公鄰31","address":"新北市忠孝路616巷26號(區立游泳池)"}},{"type":"Feature","geometry":{"type":"Point","coordinates":[null,null]},"properties":{"area":"林口區","name":"公鄰43","address":"新北市粉療28-1號東林托兒所下方"}},{"type":"Feature","geometry":{"type":"Point","coordinates":[null,null]},"properties":{"area":"林口區","name":"公鄰45","address":"新北市中山路與橫窠雅路口(銅雕公園)"}},{"type":"Feature","geometry":{"type":"Point","coordinates":[null,null]},"properties":{"area":"林口區","name":"公鄰46","address":"新北市粉療28-1號(東林托兒所)"}},{"type":"Feature","geometry":{"type":"Point","coordinates":[121.4620624,25.0509034]},"properties":{"area":"新莊區","name":"化成公園","address":"新北市新莊區頭成街/思源路128巷"}},{"type":"Feature","geometry":{"type":"Point","coordinates":[null,null]},"properties":{"area":"新店區","name":"天山公園","address":"新北市永安街34號旁"}},{"type":"Feature","geometry":{"type":"Point","coordinates":[120.2130372,23.0087764]},"properties":{"area":"新店區","name":"太平運動公園","address":"新北市精忠路10-1號邊"}},{"type":"Feature","geometry":{"type":"Point","coordinates":[121.4858152,25.0867092]},"properties":{"area":"三重區","name":"太陽公園","address":"新北市三重區集英路與三賢路口"}},{"type":"Feature","geometry":{"type":"Point","coordinates":[null,null]},"properties":{"area":"淡水區","name":"文中八運動園區","address":"新北市中山北路一段(新春街口對面)"}},{"type":"Feature","geometry":{"type":"Point","coordinates":[121.4238757,25.1844017]},"properties":{"area":"淡水區","name":"文中四壘球及多功能社區公園","address":"新北市沙崙路181巷旁"}},{"type":"Feature","geometry":{"type":"Point","coordinates":[null,null]},"properties":{"area":"林口區","name":"文化二停車場(廣停1)","address":"新北市文化二路與仁愛ㄧ路口"}},{"type":"Feature","geometry":{"type":"Point","coordinates":[null,null]},"properties":{"area":"林口區","name":"文化三停車場(廣停2)","address":"新北市文化三路與仁愛ㄧ路口"}},{"type":"Feature","geometry":{"type":"Point","coordinates":[121.6605582,25.0439246]},"properties":{"area":"汐止區","name":"文化白雲公園","address":"新北市水源路二段"}},{"type":"Feature","geometry":{"type":"Point","coordinates":[121.3695807,25.0754231]},"properties":{"area":"林口區","name":"文化廣場(廣停4)","address":"新北市文化三路與忠孝路口"}},{"type":"Feature","geometry":{"type":"Point","coordinates":[121.4218631,25.0350925]},"properties":{"area":"泰山區","name":"文史影像公園","address":"新北市明志路一段352巷底"}},{"type":"Feature","geometry":{"type":"Point","coordinates":[null,null]},"properties":{"area":"林口區","name":"文林公園(公鄰8)","address":"新北市文林二街與文林三街口"}},{"type":"Feature","geometry":{"type":"Point","coordinates":[121.4199087,25.028651]},"properties":{"area":"泰山區","name":"文程廣場","address":"新北市明志路2段文程路口"}},{"type":"Feature","geometry":{"type":"Point","coordinates":[null,null]},"properties":{"area":"新莊區","name":"文德公園","address":"新北市思明街環河路口"}},{"type":"Feature","geometry":{"type":"Point","coordinates":[121.4386569,25.17126]},"properties":{"area":"淡水區","name":"木下靜涯紀念公園","address":"新北市淡水區中正路260號旁"}},{"type":"Feature","geometry":{"type":"Point","coordinates":[121.5097736,25.0050024]},"properties":{"area":"永和區","name":"水源公園","address":"新北市保平路177巷"}},{"type":"Feature","geometry":{"type":"Point","coordinates":[121.401758,25.039521]},"properties":{"area":"新莊區","name":"水源地","address":"新北市新莊區壽山路115號斜對面"}},{"type":"Feature","geometry":{"type":"Point","coordinates":[121.4627868,25.0169826]},"properties":{"area":"五股區","name":"水碓景觀公園","address":"新北市水碓二路接外寮路"}},{"type":"Feature","geometry":{"type":"Point","coordinates":[null,null]},"properties":{"area":"五股區","name":"水碓綠一公園","address":"新北市水碓五路與登林路交叉"}},{"type":"Feature","geometry":{"type":"Point","coordinates":[null,null]},"properties":{"area":"八里區","name":"北河公園(公兒六)","address":"新北市忠孝路與忠八街交叉口"}},{"type":"Feature","geometry":{"type":"Point","coordinates":[null,null]},"properties":{"area":"汐止區","name":"北峰公園","address":"新北市中興路與明峰街口"}},{"type":"Feature","geometry":{"type":"Point","coordinates":[null,null]},"properties":{"area":"新店區","name":"北新藝術廣場","address":"新北市北新路一段351號旁"}},{"type":"Feature","geometry":{"type":"Point","coordinates":[121.4255919,24.967901]},"properties":{"area":"鶯歌區","name":"北鶯公園","address":"新北市成功街20巷內"}},{"type":"Feature","geometry":{"type":"Point","coordinates":[121.548977,24.9738378]},"properties":{"area":"新店區","name":"台北人社區鄰里公園","address":"新北市寶興路46巷"}},{"type":"Feature","geometry":{"type":"Point","coordinates":[121.4457362,25.0024587]},"properties":{"area":"板橋區","name":"台北紙廠公園","address":"新北市板橋市大觀路二段28號"}},{"type":"Feature","geometry":{"type":"Point","coordinates":[121.7628581,25.1036333]},"properties":{"area":"瑞芳區","name":"四腳亭公園","address":"新北市瑞芳區瑞竹路91號旁"}},{"type":"Feature","geometry":{"type":"Point","coordinates":[121.4627868,25.0169826]},"properties":{"area":"新莊區","name":"四維公園","address":"新北市四維路186巷旁"}},{"type":"Feature","geometry":{"type":"Point","coordinates":[121.462223,25.026309]},"properties":{"area":"板橋區","name":"四維公園","address":"新北市陽明街166號(新埔國小旁)"}},{"type":"Feature","geometry":{"type":"Point","coordinates":[null,null]},"properties":{"area":"林口區","name":"四維公園(公鄰29)","address":"新北市四維路與佳林路口"}},{"type":"Feature","geometry":{"type":"Point","coordinates":[121.4819868,25.0834541]},"properties":{"area":"蘆洲區","name":"尼加拉瓜公園","address":"新北市蘆洲區仁義里集賢路269巷旁"}},{"type":"Feature","geometry":{"type":"Point","coordinates":[121.461083,25.0833388]},"properties":{"area":"蘆洲區","name":"正義公園","address":"新北市蘆洲區正義里中原路13巷及20巷間"}},{"type":"Feature","geometry":{"type":"Point","coordinates":[121.4955569,25.0677044]},"properties":{"area":"三重區","name":"正義公園(公六)","address":"新北市三重區雙園街、文化北路交叉口"}},{"type":"Feature","geometry":{"type":"Point","coordinates":[121.475955,25.0133319]},"properties":{"area":"板橋區","name":"民生公園","address":"新北市民生路一段30號(板橋憲兵隊旁)"}},{"type":"Feature","geometry":{"type":"Point","coordinates":[121.422974,24.995107]},"properties":{"area":"樹林區","name":"民生公園","address":"新北市保安市場旁(保安街一段)"}},{"type":"Feature","geometry":{"type":"Point","coordinates":[null,null]},"properties":{"area":"林口區","name":"民有停車場(廣停5)","address":"新北市仁愛一路與民有街口"}},{"type":"Feature","geometry":{"type":"Point","coordinates":[121.5174207,24.9965295]},"properties":{"area":"永和區","name":"民有街25巷小公園","address":"新北市民有街25巷"}},{"type":"Feature","geometry":{"type":"Point","coordinates":[null,null]},"properties":{"area":"中和區","name":"民享藝文特區(公一)","address":"新北市民享街、民治街間"}},{"type":"Feature","geometry":{"type":"Point","coordinates":[121.518065,24.9991319]},"properties":{"area":"永和區","name":"民治社區公園","address":"新北市智光街22巷"}},{"type":"Feature","geometry":{"type":"Point","coordinates":[121.5190194,24.998388]},"properties":{"area":"永和區","name":"民族街43巷公園","address":"新北市民族街43巷"}},{"type":"Feature","geometry":{"type":"Point","coordinates":[120.9595558,24.8068665]},"properties":{"area":"林口區","name":"民富停車場(廣停6)","address":"新北市仁愛ㄧ路與民富街口"}},{"type":"Feature","geometry":{"type":"Point","coordinates":[null,null]},"properties":{"area":"五股區","name":"民義公園","address":"新北市五福路五福橋旁"}},{"type":"Feature","geometry":{"type":"Point","coordinates":[121.482319,25.001227]},"properties":{"area":"中和區","name":"民樂人行廣場","address":"新北市民樂路17號中和郵局後方"}},{"type":"Feature","geometry":{"type":"Point","coordinates":[null,null]},"properties":{"area":"汐止區","name":"民權公園","address":"新北市民權街一段與橫科路口"}},{"type":"Feature","geometry":{"type":"Point","coordinates":[null,null]},"properties":{"area":"樹林區","name":"民權公園","address":"新北市民權街68號旁"}},{"type":"Feature","geometry":{"type":"Point","coordinates":[121.4592476,25.0903977]},"properties":{"area":"蘆洲區","name":"永平公園","address":"新北市蘆洲區永樂里永平街1號旁"}},{"type":"Feature","geometry":{"type":"Point","coordinates":[121.4592476,25.0903977]},"properties":{"area":"蘆洲區","name":"永平廣場","address":"新北市蘆洲區永樂里永平街1號"}},{"type":"Feature","geometry":{"type":"Point","coordinates":[121.477489,25.0244138]},"properties":{"area":"板橋區","name":"永安公園","address":"新北市雙十路一段25號"}},{"type":"Feature","geometry":{"type":"Point","coordinates":[121.4803704,25.0809083]},"properties":{"area":"蘆洲區","name":"永安兒童公園","address":"新北市蘆洲區恆德里永安北路2段與重陽1街交叉口"}},{"type":"Feature","geometry":{"type":"Point","coordinates":[null,null]},"properties":{"area":"永和區","name":"永利路三角公園","address":"新北市永元,永利,林森路交界口"}},{"type":"Feature","geometry":{"type":"Point","coordinates":[121.4586151,25.0841441]},"properties":{"area":"蘆洲區","name":"永康公園","address":"新北市蘆洲區永康里長安街204號"}},{"type":"Feature","geometry":{"type":"Point","coordinates":[121.484637,25.076315]},"properties":{"area":"三重區","name":"永盛公園(公十八)","address":"新北市三重區車路頭街133號﹝義天宮旁﹞"}},{"type":"Feature","geometry":{"type":"Point","coordinates":[121.438034,24.968371]},"properties":{"area":"土城區","name":"永寧廣場","address":"新北市土城國中對面"}},{"type":"Feature","geometry":{"type":"Point","coordinates":[121.4810339,25.0765291]},"properties":{"area":"三重區","name":"永福公園(遊七)","address":"新北市三重區力行路二段162巷55號"}},{"type":"Feature","geometry":{"type":"Point","coordinates":[121.4876819,25.0728203]},"properties":{"area":"三重區","name":"永德公園(公廿)","address":"新北市三重區自強路三段43巷23號"}},{"type":"Feature","geometry":{"type":"Point","coordinates":[121.477063,25.0210838]},"properties":{"area":"板橋區","name":"永豐公園","address":"新北市永豐街124號"}},{"type":"Feature","geometry":{"type":"Point","coordinates":[121.478258,25.0746092]},"properties":{"area":"三重區","name":"永豐公園(遊八)","address":"新北市三重區永福街197巷6-1號"}},{"type":"Feature","geometry":{"type":"Point","coordinates":[121.4622622,24.982813]},"properties":{"area":"土城區","name":"永豐社區公園","address":"新北市清水路278巷28弄內"}},{"type":"Feature","geometry":{"type":"Point","coordinates":[121.4158433,25.031117]},"properties":{"area":"新莊區","name":"生命紀念公園","address":"新北市壽山路162之1號"}},{"type":"Feature","geometry":{"type":"Point","coordinates":[121.5741036,25.2865154]},"properties":{"area":"石門區","name":"石門洞遊憩區","address":"新北市石門區尖鹿里中路37之2號(五龍宮)斜對面"}},{"type":"Feature","geometry":{"type":"Point","coordinates":[null,null]},"properties":{"area":"五股區","name":"石德公園","address":"新北市水碓路與水碓一路交叉"}},{"type":"Feature","geometry":{"type":"Point","coordinates":[121.4694241,25.0302889]},"properties":{"area":"板橋區","name":"石雕公園","address":"新北市吳鳳路50巷(農村公園旁)"}},{"type":"Feature","geometry":{"type":"Point","coordinates":[null,null]},"properties":{"area":"林口區","name":"立功公園(公鄰14)","address":"新北市三民路75號旁"}},{"type":"Feature","geometry":{"type":"Point","coordinates":[null,null]},"properties":{"area":"林口區","name":"立言公園(公鄰13)","address":"新北市忠孝一路與三民路口"}},{"type":"Feature","geometry":{"type":"Point","coordinates":[121.4610337,24.9833549]},"properties":{"area":"土城區","name":"立雲廣場","address":"新北市清水路235巷"}},{"type":"Feature","geometry":{"type":"Point","coordinates":[null,null]},"properties":{"area":"林口區","name":"立德公園(公鄰12)","address":"新北市民族路與仁愛二路口"}},{"type":"Feature","geometry":{"type":"Point","coordinates":[121.466766,25.008254]},"properties":{"area":"新店區","name":"交通公園(公三)","address":"新北市民族路105號大豐國小對面"}},{"type":"Feature","geometry":{"type":"Point","coordinates":[121.4821605,25.0165515]},"properties":{"area":"板橋區","name":"光復簡易公園","address":"新北市板橋市光環路1段7號光復國中右側"}},{"type":"Feature","geometry":{"type":"Point","coordinates":[121.4627868,25.0169826]},"properties":{"area":"樹林區","name":"光華公園","address":"新北市保安街二段三多國中旁"}},{"type":"Feature","geometry":{"type":"Point","coordinates":[121.4627868,25.0169826]},"properties":{"area":"樹林區","name":"光華營區公園","address":"新北市保安街二段三多國中旁"}},{"type":"Feature","geometry":{"type":"Point","coordinates":[121.4987847,25.0590567]},"properties":{"area":"三重區","name":"光興公園","address":"新北市三重區正義南路62號之1旁"}},{"type":"Feature","geometry":{"type":"Point","coordinates":[null,null]},"properties":{"area":"泰山區","name":"全興公園","address":"新北市全興路7巷對面"}},{"type":"Feature","geometry":{"type":"Point","coordinates":[121.4975665,24.9468848]},"properties":{"area":"林口區","name":"吉祥廣場(廣停(二))","address":"新北市吉祥路內"}},{"type":"Feature","geometry":{"type":"Point","coordinates":[121.4322941,25.0551463]},"properties":{"area":"泰山區","name":"同興公園","address":"新北市仁義路、仁愛路口"}},{"type":"Feature","geometry":{"type":"Point","coordinates":[121.3404379,24.9561319]},"properties":{"area":"鶯歌區","name":"地標公園","address":"新北市永明街與國華路口"}},{"type":"Feature","geometry":{"type":"Point","coordinates":[null,null]},"properties":{"area":"淡水區","name":"安伯樂公園","address":"新北市中正東路(竿蓁一街與平遠街間)"}},{"type":"Feature","geometry":{"type":"Point","coordinates":[null,null]},"properties":{"area":"中和區","name":"安邦公園","address":"新北市連勝街、安邦街口"}},{"type":"Feature","geometry":{"type":"Point","coordinates":[null,null]},"properties":{"area":"新店區","name":"安和景觀公園","address":"新北市安和路2段163號旁"}},{"type":"Feature","geometry":{"type":"Point","coordinates":[null,null]},"properties":{"area":"新店區","name":"安康森林公園","address":"新北市安康路2段169號對面"}},{"type":"Feature","geometry":{"type":"Point","coordinates":[121.4175085,25.0073157]},"properties":{"area":"新店區","name":"安華公園(公五)","address":"新北市中正路307巷內"}},{"type":"Feature","geometry":{"type":"Point","coordinates":[121.3462754,24.9476197]},"properties":{"area":"鶯歌區","name":"尖山公園","address":"新北市尖山路137巷內"}},{"type":"Feature","geometry":{"type":"Point","coordinates":[121.4598179,25.0823983]},"properties":{"area":"蘆洲區","name":"成功廣場","address":"新北市蘆洲區永康里長安街222號"}},{"type":"Feature","geometry":{"type":"Point","coordinates":[121.4627868,25.0169826]},"properties":{"area":"五股區","name":"成州公園","address":"新北市西雲路435巷底"}},{"type":"Feature","geometry":{"type":"Point","coordinates":[121.4270144,24.9263449]},"properties":{"area":"三峽區","name":"成福河濱公園","address":"新北市成福路成福國小對面"}},{"type":"Feature","geometry":{"type":"Point","coordinates":[121.4627868,25.0169826]},"properties":{"area":"五股區","name":"成德人行廣場","address":"新北市成泰路四段成州派出所旁"}},{"type":"Feature","geometry":{"type":"Point","coordinates":[121.4557525,25.110318]},"properties":{"area":"五股區","name":"成德公園(原公二公園)","address":"新北市成泰路四段與成州八路交叉口"}},{"type":"Feature","geometry":{"type":"Point","coordinates":[121.5370774,24.9802415]},"properties":{"area":"新店區","name":"江陵禮社區旁公共空間","address":"新北市廿張路1號前"}},{"type":"Feature","geometry":{"type":"Point","coordinates":[null,null]},"properties":{"area":"汐止區","name":"汐止公園","address":"新北市大同路二段451號旁"}},{"type":"Feature","geometry":{"type":"Point","coordinates":[121.46538,24.9824699]},"properties":{"area":"土城區","name":"百喬廣場","address":"新北市明德路一段70巷內"}},{"type":"Feature","geometry":{"type":"Point","coordinates":[null,null]},"properties":{"area":"淡水區","name":"百齡公園","address":"新北市中正東路1段3巷西側"}},{"type":"Feature","geometry":{"type":"Point","coordinates":[121.5210962,25.01264]},"properties":{"area":"永和區","name":"竹林小公園","address":"新北市竹林路91巷"}},{"type":"Feature","geometry":{"type":"Point","coordinates":[121.4750195,25.0134994]},"properties":{"area":"淡水區","name":"竹圍公園","address":"新北市民生里民生路旁"}},{"type":"Feature","geometry":{"type":"Point","coordinates":[null,null]},"properties":{"area":"林口區","name":"自強公園","address":"新北市粉寮路一段與中山路口"}},{"type":"Feature","geometry":{"type":"Point","coordinates":[null,null]},"properties":{"area":"中和區","name":"自強公園(公廿)","address":"新北市莒光路、國光街口"}},{"type":"Feature","geometry":{"type":"Point","coordinates":[121.4897526,25.0856178]},"properties":{"area":"三重區","name":"自然公園","address":"新北市三重區五華街與集興路口"}},{"type":"Feature","geometry":{"type":"Point","coordinates":[121.4627868,25.0169826]},"properties":{"area":"五股區","name":"自然湧泉公園","address":"新北市成泰路1段189巷底"}},{"type":"Feature","geometry":{"type":"Point","coordinates":[null,null]},"properties":{"area":"新莊區","name":"西盛公園","address":"新北市龍安路與西盛街口"}},{"type":"Feature","geometry":{"type":"Point","coordinates":[121.500171,25.002857]},"properties":{"area":"鶯歌區","name":"西鶯公園","address":"新北市中山路198號加油站後方"}},{"type":"Feature","geometry":{"type":"Point","coordinates":[121.4627868,25.0169826]},"properties":{"area":"五股區","name":"坑口公園","address":"新北市工商路85巷及成泰路2段91巷交叉"}},{"type":"Feature","geometry":{"type":"Point","coordinates":[121.4767137,24.9729593]},"properties":{"area":"土城區","name":"廷寮山林公園","address":"新北市永豐路255巷"}},{"type":"Feature","geometry":{"type":"Point","coordinates":[121.3697153,25.0725776]},"properties":{"area":"林口區","name":"扶輪公園(公13)","address":"新北市文化二路與忠孝路口"}},{"type":"Feature","geometry":{"type":"Point","coordinates":[null,null]},"properties":{"area":"土城區","name":"沛陂公園","address":"新北市民族路22巷5號旁"}},{"type":"Feature","geometry":{"type":"Point","coordinates":[121.5224072,24.9961319]},"properties":{"area":"中和區","name":"秀山公園(公七)","address":"新北市自立路15巷內"}},{"type":"Feature","geometry":{"type":"Point","coordinates":[121.4526802,25.0481771]},"properties":{"area":"三峽區","name":"防災公園","address":"新北市國光街中段"}},{"type":"Feature","geometry":{"type":"Point","coordinates":[121.376464,24.9297149]},"properties":{"area":"三峽區","name":"兒七公園(=介壽公園)","address":"新北市永安街9巷5號(圖書館旁)"}},{"type":"Feature","geometry":{"type":"Point","coordinates":[121.4627868,25.0169826]},"properties":{"area":"樹林區","name":"兒二公園","address":"新北市大雅路學勤路口"}},{"type":"Feature","geometry":{"type":"Point","coordinates":[null,null]},"properties":{"area":"五股區","name":"兒八公園","address":"新北市新五路與中興路交岔口"}},{"type":"Feature","geometry":{"type":"Point","coordinates":[121.4627868,25.0169826]},"properties":{"area":"樹林區","name":"兒三公園","address":"新北市大成路、學成路口"}},{"type":"Feature","geometry":{"type":"Point","coordinates":[121.3754642,24.9287918]},"properties":{"area":"三峽區","name":"兒五公園","address":"新北市光明路75巷內"}},{"type":"Feature","geometry":{"type":"Point","coordinates":[121.4425702,25.1852627]},"properties":{"area":"淡水區","name":"兒童遊樂場","address":"新北市淡水區中山北路2段189巷內"}},{"type":"Feature","geometry":{"type":"Point","coordinates":[121.6160196,25.0006713]},"properties":{"area":"深坑區","name":"兒童遊戲場","address":"新北市平埔街14號前15公尺"}},{"type":"Feature","geometry":{"type":"Point","coordinates":[121.5023475,25.2591537]},"properties":{"area":"三芝區","name":"兒童遊戲場一","address":"新北市淡金路二段43號巷內"}},{"type":"Feature","geometry":{"type":"Point","coordinates":[121.4728267,25.0101406]},"properties":{"area":"三芝區","name":"兒童遊戲場二","address":"新北市長安街巷內"}},{"type":"Feature","geometry":{"type":"Point","coordinates":[121.4627868,25.0169826]},"properties":{"area":"三芝區","name":"兒童遊戲場三","address":"新北市公正街旁"}},{"type":"Feature","geometry":{"type":"Point","coordinates":[null,null]},"properties":{"area":"淡水區","name":"協元(1)口袋公園","address":"新北市新生街30巷64號前、65號後(含建設街一巷一號前)"}},{"type":"Feature","geometry":{"type":"Point","coordinates":[121.4627868,25.0169826]},"properties":{"area":"淡水區","name":"協元(2)口袋公園","address":"新北市重建街1巷1弄旁空地"}},{"type":"Feature","geometry":{"type":"Point","coordinates":[121.4261891,25.1764852]},"properties":{"area":"淡水區","name":"和平公園","address":"新北市中正路一段〈淡水高爾夫球場前〉"}},{"type":"Feature","geometry":{"type":"Point","coordinates":[121.4214154,24.9849626]},"properties":{"area":"樹林區","name":"和平公園","address":"新北市樹中街底"}},{"type":"Feature","geometry":{"type":"Point","coordinates":[121.5096334,24.9902167]},"properties":{"area":"泰山區","name":"和平公園","address":"新北市和平街27巷旁"}},{"type":"Feature","geometry":{"type":"Point","coordinates":[121.4642959,24.9977051]},"properties":{"area":"板橋區","name":"和平公園","address":"新北市重慶路355號"}},{"type":"Feature","geometry":{"type":"Point","coordinates":[121.4857167,25.0695356]},"properties":{"area":"三重區","name":"和平公園(公廿三、廿四)","address":"新北市三重區忠孝路2段35號"}},{"type":"Feature","geometry":{"type":"Point","coordinates":[null,null]},"properties":{"area":"林口區","name":"宗北公園(公鄰21)","address":"新北市民享路406號對面"}},{"type":"Feature","geometry":{"type":"Point","coordinates":[null,null]},"properties":{"area":"土城區","name":"延和社區公園","address":"新北市延和路250巷(延和段49地號)"}},{"type":"Feature","geometry":{"type":"Point","coordinates":[121.4643618,24.9875211]},"properties":{"area":"土城區","name":"延和廣場","address":"新北市延和路12巷"}},{"type":"Feature","geometry":{"type":"Point","coordinates":[null,null]},"properties":{"area":"土城區","name":"延壽親子廣場","address":"新北市延壽路75巷27弄旁"}},{"type":"Feature","geometry":{"type":"Point","coordinates":[null,null]},"properties":{"area":"林口區","name":"忠孝一停車場(廣停3)","address":"新北市文化二路與文化二路309巷口"}},{"type":"Feature","geometry":{"type":"Point","coordinates":[121.3708427,25.0734859]},"properties":{"area":"林口區","name":"忠孝二停車場(廣停7)","address":"新北市文化二路241巷24號旁"}},{"type":"Feature","geometry":{"type":"Point","coordinates":[121.460397,24.997358]},"properties":{"area":"板橋區","name":"忠孝公園","address":"新北市國慶路149巷21弄16弄"}},{"type":"Feature","geometry":{"type":"Point","coordinates":[121.4532083,25.0573104]},"properties":{"area":"新莊區","name":"昌平公園","address":"新北市新莊區富貴路、福壽街口"}},{"type":"Feature","geometry":{"type":"Point","coordinates":[null,null]},"properties":{"area":"土城區","name":"明德公園","address":"新北市靈恩寺旁"}},{"type":"Feature","geometry":{"type":"Point","coordinates":[null,null]},"properties":{"area":"中和區","name":"明德公園(公七)","address":"新北市民德路208號及274號對面"}},{"type":"Feature","geometry":{"type":"Point","coordinates":[121.3888895,25.0700525]},"properties":{"area":"林口區","name":"東明公園(公鄰34)","address":"新北市興林路221巷與東明一街98巷口"}},{"type":"Feature","geometry":{"type":"Point","coordinates":[121.3852666,25.0724385]},"properties":{"area":"林口區","name":"東湖公園(公鄰32)","address":"新北市東湖路75巷與東湖一街口"}},{"type":"Feature","geometry":{"type":"Point","coordinates":[null,null]},"properties":{"area":"汐止區","name":"東勢公園","address":"新北市東勢街與芳園街口"}},{"type":"Feature","geometry":{"type":"Point","coordinates":[null,null]},"properties":{"area":"林口區","name":"東勢籃球場(廣3)","address":"新北市忠孝路與忠孝路622巷口"}},{"type":"Feature","geometry":{"type":"Point","coordinates":[null,null]},"properties":{"area":"林口區","name":"林口社區運動公園","address":"新北市文化一路與仁愛路口"}},{"type":"Feature","geometry":{"type":"Point","coordinates":[null,null]},"properties":{"area":"林口區","name":"松柏公園(公鄰7)","address":"新北市松柏路78號旁"}},{"type":"Feature","geometry":{"type":"Point","coordinates":[121.3716329,24.9257849]},"properties":{"area":"淡水區","name":"油車(1)口袋公園","address":"新北市中正路一段蘇府王爺廟右側"}},{"type":"Feature","geometry":{"type":"Point","coordinates":[121.4233853,25.1788489]},"properties":{"area":"淡水區","name":"油車(2)口袋公園","address":"新北市淡海路25巷旁"}},{"type":"Feature","geometry":{"type":"Point","coordinates":[121.4245195,25.183907]},"properties":{"area":"淡水區","name":"油車(3)口袋公園","address":"新北市沙崙路、淡海路口至沙崙路216巷"}},{"type":"Feature","geometry":{"type":"Point","coordinates":[121.4245195,25.183907]},"properties":{"area":"淡水區","name":"油車(4)口袋公園","address":"新北市沙崙路社福大樓左側空地"}},{"type":"Feature","geometry":{"type":"Point","coordinates":[121.4561932,25.0266838]},"properties":{"area":"板橋區","name":"玫瑰公園","address":"新北市綠堤街(縣立醫院旁)"}},{"type":"Feature","geometry":{"type":"Point","coordinates":[121.4887463,25.0536082]},"properties":{"area":"三重區","name":"玫瑰公園(公四五)","address":"新北市三重區集美街60號"}},{"type":"Feature","geometry":{"type":"Point","coordinates":[null,null]},"properties":{"area":"中和區","name":"金山板南公園","address":"新北市板南路(南山路及中興街間)"}},{"type":"Feature","geometry":{"type":"Point","coordinates":[121.6468652,25.2277133]},"properties":{"area":"金山區","name":"金青中心旁磺港里公共浴室","address":"新北市金山區磺港路314號"}},{"type":"Feature","geometry":{"type":"Point","coordinates":[121.4449527,24.9738272]},"properties":{"area":"土城區","name":"金城公園","address":"新北市金城路一段127巷"}},{"type":"Feature","geometry":{"type":"Point","coordinates":[116.24242,28.443797]},"properties":{"area":"汐止區","name":"金龍公園","address":"新北市康寧街明湖加油站對面巷弄"}},{"type":"Feature","geometry":{"type":"Point","coordinates":[121.4616152,25.0808021]},"properties":{"area":"蘆洲區","name":"長安公園","address":"新北市蘆洲區忠義里長安街102號"}},{"type":"Feature","geometry":{"type":"Point","coordinates":[121.4615027,25.081022]},"properties":{"area":"蘆洲區","name":"長安廣場","address":"新北市蘆洲區忠義里長安街100號"}},{"type":"Feature","geometry":{"type":"Point","coordinates":[null,null]},"properties":{"area":"新莊區","name":"長青公園","address":"新北市博愛路與長青街口"}},{"type":"Feature","geometry":{"type":"Point","coordinates":[121.4207876,24.9920318]},"properties":{"area":"樹林區","name":"長壽公園     (睦鄰公園)","address":"新北市樹德街、復興路口"}},{"type":"Feature","geometry":{"type":"Point","coordinates":[121.4627868,25.0169826]},"properties":{"area":"土城區","name":"青山廣場","address":"新北市青雲、明德路交叉口"}},{"type":"Feature","geometry":{"type":"Point","coordinates":[121.4132055,25.0312139]},"properties":{"area":"新莊區","name":"青年公園","address":"新北市新莊區壽山路61號對面"}},{"type":"Feature","geometry":{"type":"Point","coordinates":[null,null]},"properties":{"area":"土城區","name":"青雲廣場","address":"新北市家樂福後方"}},{"type":"Feature","geometry":{"type":"Point","coordinates":[121.6338766,24.9530873]},"properties":{"area":"新店區","name":"青潭河濱公園","address":"新北市北宜路2段64號邊"}},{"type":"Feature","geometry":{"type":"Point","coordinates":[null,null]},"properties":{"area":"板橋區","name":"非常熱區","address":"新北市重慶路口與縣民大道交叉口"}},{"type":"Feature","geometry":{"type":"Point","coordinates":[121.4574715,24.9916865]},"properties":{"area":"板橋區","name":"信義公園","address":"新北市信義路150巷43-1號"}},{"type":"Feature","geometry":{"type":"Point","coordinates":[121.4985514,25.0664629]},"properties":{"area":"三重區","name":"信義公園(公八)","address":"新北市三重區文化北路、信義西街交叉口"}},{"type":"Feature","geometry":{"type":"Point","coordinates":[121.52502,24.8350272]},"properties":{"area":"烏來區","name":"信賢社區藝文公園","address":"新北市信賢里信福路169號之1"}},{"type":"Feature","geometry":{"type":"Point","coordinates":[null,null]},"properties":{"area":"土城區","name":"保安宮後山公園","address":"新北市永寧路保安宮後山(代管)"}},{"type":"Feature","geometry":{"type":"Point","coordinates":[null,null]},"properties":{"area":"汐止區","name":"保長公園","address":"新北市保長路45巷旁"}},{"type":"Feature","geometry":{"type":"Point","coordinates":[120.2653662,23.0125937]},"properties":{"area":"八里區","name":"南山公園 (公兒五)","address":"新北市賢三街30號對面"}},{"type":"Feature","geometry":{"type":"Point","coordinates":[null,null]},"properties":{"area":"板橋區","name":"南雅公園","address":"新北市南雅南路二段(光華商職對面)"}},{"type":"Feature","geometry":{"type":"Point","coordinates":[121.3581962,25.07313]},"properties":{"area":"林口區","name":"南勢公園(公鄰2)","address":"新北市南勢二街與忠孝一路口"}},{"type":"Feature","geometry":{"type":"Point","coordinates":[121.4917054,25.0724978]},"properties":{"area":"三重區","name":"厚德公園(公十九)","address":"新北市三重區忠孝路一段21巷"}},{"type":"Feature","geometry":{"type":"Point","coordinates":[121.4627868,25.0169826]},"properties":{"area":"汐止區","name":"姜子寮公園","address":"新北市姜子寮路底"}},{"type":"Feature","geometry":{"type":"Point","coordinates":[121.4294144,25.0273118]},"properties":{"area":"新莊區","name":"建安公園","address":"新北市後港一路130巷底"}},{"type":"Feature","geometry":{"type":"Point","coordinates":[null,null]},"properties":{"area":"樹林區","name":"建國公園","address":"新北市樹新路125號對面"}},{"type":"Feature","geometry":{"type":"Point","coordinates":[121.4278154,25.0280072]},"properties":{"area":"新莊區","name":"建福公園","address":"新北市建福路49巷底"}},{"type":"Feature","geometry":{"type":"Point","coordinates":[121.4332747,25.0626145]},"properties":{"area":"泰山區","name":"後山公園","address":"新北市明志路一段(公所後方)"}},{"type":"Feature","geometry":{"type":"Point","coordinates":[121.4856932,25.0730189]},"properties":{"area":"三重區","name":"後竹圍公園","address":"新北市三重區自強路3段62巷25號對面"}},{"type":"Feature","geometry":{"type":"Point","coordinates":[121.4288067,25.0260018]},"properties":{"area":"新莊區","name":"後港公園","address":"新北市建安街26巷4號旁"}},{"type":"Feature","geometry":{"type":"Point","coordinates":[null,null]},"properties":{"area":"新莊區","name":"後港段綠美化地","address":"新北市後港抽水站對面"}},{"type":"Feature","geometry":{"type":"Point","coordinates":[121.4294144,25.0273118]},"properties":{"area":"新莊區","name":"後港新公園","address":"新北市後港一路與民安路口"}},{"type":"Feature","geometry":{"type":"Point","coordinates":[121.4259633,25.0262741]},"properties":{"area":"新莊區","name":"後德公園","address":"新北市後港一路49巷底"}},{"type":"Feature","geometry":{"type":"Point","coordinates":[121.4627868,25.0169826]},"properties":{"area":"新莊區","name":"思賢公園","address":"新北市自由街自信街路口"}},{"type":"Feature","geometry":{"type":"Point","coordinates":[121.457883,24.9832617]},"properties":{"area":"土城區","name":"柑林廣場","address":"新北市金城路二段242巷內"}},{"type":"Feature","geometry":{"type":"Point","coordinates":[121.4625008,25.0885692]},"properties":{"area":"蘆洲區","name":"柳堤公園","address":"新北市蘆洲區正義里光榮路及長榮路交叉路口"}},{"type":"Feature","geometry":{"type":"Point","coordinates":[121.4627868,25.0169826]},"properties":{"area":"五股區","name":"洲子洋公園(原公三公園)","address":"新北市成泰路與洲子路交岔口"}},{"type":"Feature","geometry":{"type":"Point","coordinates":[null,null]},"properties":{"area":"汐止區","name":"茄興公園","address":"新北市茄興街上新台五路旁"}},{"type":"Feature","geometry":{"type":"Point","coordinates":[121.4820368,25.0888425]},"properties":{"area":"蘆洲區","name":"重陽公園","address":"新北市蘆洲區樓厝里重陽街與集賢路221巷"}},{"type":"Feature","geometry":{"type":"Point","coordinates":[121.4834988,25.0577875]},"properties":{"area":"三重區","name":"重陽公園(公三三)","address":"新北市三重區重陽路1段60巷101號"}},{"type":"Feature","geometry":{"type":"Point","coordinates":[121.4766517,25.0480325]},"properties":{"area":"三重區","name":"重新公園(公四二)","address":"新北市三重區重新路五段254-1號重新橋下"}},{"type":"Feature","geometry":{"type":"Point","coordinates":[121.4626221,25.0029251]},"properties":{"area":"板橋區","name":"重慶公園","address":"新北市重慶路擎天雙星旁"}},{"type":"Feature","geometry":{"type":"Point","coordinates":[121.4796595,25.0281038]},"properties":{"area":"板橋區","name":"音樂公園","address":"新北市大同街70號"}},{"type":"Feature","geometry":{"type":"Point","coordinates":[121.4627868,25.0169826]},"properties":{"area":"新店區","name":"原民局公園","address":"新北市安忠路57巷旁"}},{"type":"Feature","geometry":{"type":"Point","coordinates":[121.6408337,25.0682788]},"properties":{"area":"汐止區","name":"原住民公園","address":"新北市樟樹二路與樟樹一路口"}},{"type":"Feature","geometry":{"type":"Point","coordinates":[null,null]},"properties":{"area":"土城區","name":"原住民生態公園","address":"新北市永寧路底"}},{"type":"Feature","geometry":{"type":"Point","coordinates":[121.543721,24.9725404]},"properties":{"area":"新店區","name":"原野公園(公八)","address":"新北市德正街19巷內"}},{"type":"Feature","geometry":{"type":"Point","coordinates":[121.4804715,25.004313]},"properties":{"area":"中和區","name":"員山公園(公八)","address":"新北市員山路455巷內"}},{"type":"Feature","geometry":{"type":"Point","coordinates":[null,null]},"properties":{"area":"土城區","name":"員林社區公園","address":"新北市員林街12巷對面"}},{"type":"Feature","geometry":{"type":"Point","coordinates":[null,null]},"properties":{"area":"土城區","name":"員福社區公園","address":"新北市員福街員福橋旁"}},{"type":"Feature","geometry":{"type":"Point","coordinates":[121.472347,25.047132]},"properties":{"area":"板橋區","name":"埔墘公園","address":"新北市光復路一段9號光復國中斜對面"}},{"type":"Feature","geometry":{"type":"Point","coordinates":[null,null]},"properties":{"area":"土城區","name":"桐花公園","address":"新北市承天路153號旁(清濂茶館承天路149號旁)"}},{"type":"Feature","geometry":{"type":"Point","coordinates":[null,null]},"properties":{"area":"中和區","name":"泰隆公園","address":"新北市橋和路、福祥路口"}},{"type":"Feature","geometry":{"type":"Point","coordinates":[null,null]},"properties":{"area":"板橋區","name":"浮洲運動公園","address":"新北市僑中一街1 24巷與80巷交會處"}},{"type":"Feature","geometry":{"type":"Point","coordinates":[121.467221,25.010741]},"properties":{"area":"板橋區","name":"特專六公園","address":"新北市板橋市區運路與新站路口"}},{"type":"Feature","geometry":{"type":"Point","coordinates":[null,null]},"properties":{"area":"土城區","name":"祖田兒童遊戲公園","address":"新北市溪頭路81號旁"}},{"type":"Feature","geometry":{"type":"Point","coordinates":[null,null]},"properties":{"area":"板橋區","name":"站前廣場","address":"新北市文化路與新府路交叉口"}},{"type":"Feature","geometry":{"type":"Point","coordinates":[121.3959288,25.1452014]},"properties":{"area":"八里區","name":"訊塘社區公園(公兒)","address":"新北市商港路、中山路口"}},{"type":"Feature","geometry":{"type":"Point","coordinates":[121.542137,24.968774]},"properties":{"area":"新店區","name":"馬公公園(公十)","address":"新北市北新路一段92號"}},{"type":"Feature","geometry":{"type":"Point","coordinates":[121.4261891,25.1764852]},"properties":{"area":"淡水區","name":"馬偕銅像三角公園","address":"新北市淡水區中正路與建設街交接路口"}},{"type":"Feature","geometry":{"type":"Point","coordinates":[121.4536,25.02027]},"properties":{"area":"板橋區","name":"國光公園","address":"新北市中正路375巷48號(國光國小旁)"}},{"type":"Feature","geometry":{"type":"Point","coordinates":[null,null]},"properties":{"area":"林口區","name":"婦幼公園(公5)","address":"新北市文化一路一段與仁愛一路口對面"}},{"type":"Feature","geometry":{"type":"Point","coordinates":[121.4294477,24.993106]},"properties":{"area":"板橋區","name":"崑崙公園","address":"新北市大觀路三段240號"}},{"type":"Feature","geometry":{"type":"Point","coordinates":[121.4298503,24.9935933]},"properties":{"area":"板橋區","name":"崑崙活力廣場","address":"新北市板橋市沙崙街9號"}},{"type":"Feature","geometry":{"type":"Point","coordinates":[null,null]},"properties":{"area":"泰山區","name":"崩崁腳公園","address":"新北市大科路自強路口"}},{"type":"Feature","geometry":{"type":"Point","coordinates":[121.6375591,25.0689734]},"properties":{"area":"汐止區","name":"康福公園","address":"新北市福德一路86巷"}},{"type":"Feature","geometry":{"type":"Point","coordinates":[121.465243,25.0887126]},"properties":{"area":"蘆洲區","name":"彩虹兒童公園","address":"新北市蘆洲區正義里光榮路120巷及光明路交叉口"}},{"type":"Feature","geometry":{"type":"Point","coordinates":[121.4627868,25.0169826]},"properties":{"area":"五股區","name":"御史路籃球場","address":"新北市御史路35巷底"}},{"type":"Feature","geometry":{"type":"Point","coordinates":[121.4715241,25.0868908]},"properties":{"area":"蘆洲區","name":"捷運公園","address":"新北市蘆洲區長榮路口以南至捷運蘆洲站"}},{"type":"Feature","geometry":{"type":"Point","coordinates":[121.4882469,25.0046918]},"properties":{"area":"金山區","name":"淡金公路中山路交叉處綠地","address":"新北市中山路與環金路口"}},{"type":"Feature","geometry":{"type":"Point","coordinates":[121.4720555,24.9891191]},"properties":{"area":"土城區","name":"清水社區公園","address":"新北市清水路延吉街交叉口"}},{"type":"Feature","geometry":{"type":"Point","coordinates":[121.4637664,24.97895]},"properties":{"area":"土城區","name":"清和社區公園","address":"新北市明德路一段青山路口"}},{"type":"Feature","geometry":{"type":"Point","coordinates":[null,null]},"properties":{"area":"土城區","name":"清華社區公園","address":"新北市青雲路信義路交界"}},{"type":"Feature","geometry":{"type":"Point","coordinates":[121.4683419,24.9988133]},"properties":{"area":"中和區","name":"清穗公園(公廿九)","address":"新北市華順街二巷內民德停車場後方及民德路、華順街口"}},{"type":"Feature","geometry":{"type":"Point","coordinates":[121.548036,24.9721157]},"properties":{"area":"新店區","name":"現代君址旁公共空間","address":"新北市寶興路42巷"}},{"type":"Feature","geometry":{"type":"Point","coordinates":[121.4729704,25.0167155]},"properties":{"area":"板橋區","name":"莊敬公園","address":"新北市民生路二段20號(公園大鎮對面)"}},{"type":"Feature","geometry":{"type":"Point","coordinates":[121.413659,24.957752]},"properties":{"area":"土城區","name":"頂埔永福公園","address":"新北市頂埔祖師廟後方"}},{"type":"Feature","geometry":{"type":"Point","coordinates":[null,null]},"properties":{"area":"土城區","name":"頂新公園","address":"新北市頂埔國小後方"}},{"type":"Feature","geometry":{"type":"Point","coordinates":[null,null]},"properties":{"area":"樹林區","name":"鹿角溪公園","address":"新北市中山路三段129-6號右側"}},{"type":"Feature","geometry":{"type":"Point","coordinates":[null,null]},"properties":{"area":"烏來區","name":"堰堤社區兒童遊戲區","address":"新北市新烏路5段137號正對面"}},{"type":"Feature","geometry":{"type":"Point","coordinates":[null,null]},"properties":{"area":"烏來區","name":"堰堤社區籃球場","address":"新北市新烏路5段137號正對面"}},{"type":"Feature","geometry":{"type":"Point","coordinates":[121.4212516,25.0255323]},"properties":{"area":"新莊區","name":"富國公園","address":"新北市富國路與福營路口"}},{"type":"Feature","geometry":{"type":"Point","coordinates":[121.4940855,24.948896]},"properties":{"area":"林口區","name":"富貴森林公園(廣停(一))","address":"新北市富貴路內"}},{"type":"Feature","geometry":{"type":"Point","coordinates":[null,null]},"properties":{"area":"汐止區","name":"復興公園","address":"新北市復興路與龍安路口"}},{"type":"Feature","geometry":{"type":"Point","coordinates":[121.3664275,24.9389123]},"properties":{"area":"中和區","name":"復興公園(公四)","address":"新北市復興路280巷內"}},{"type":"Feature","geometry":{"type":"Point","coordinates":[121.5160597,25.0155284]},"properties":{"area":"永和區","name":"復興社區公園","address":"新北市永和路二段286巷底"}},{"type":"Feature","geometry":{"type":"Point","coordinates":[121.4627868,25.0169826]},"properties":{"area":"中和區","name":"景新公園(公六)","address":"新北市景新街467巷50弄三介廟旁"}},{"type":"Feature","geometry":{"type":"Point","coordinates":[121.387189,24.9512798]},"properties":{"area":"樹林區","name":"景觀休憩公園","address":"新北市佳園路三段、學府路口"}},{"type":"Feature","geometry":{"type":"Point","coordinates":[121.4333141,25.0717176]},"properties":{"area":"五股區","name":"朝陽公園","address":"新北市明德路12巷.自強路87巷"}},{"type":"Feature","geometry":{"type":"Point","coordinates":[121.4597159,25.144993]},"properties":{"area":"林口區","name":"湖南公園(公鄰9)","address":"新北市民權路165號"}},{"type":"Feature","geometry":{"type":"Point","coordinates":[null,null]},"properties":{"area":"板橋區","name":"華中公園","address":"新北市僑中一街124巷底(四汴頭抽水站旁)"}},{"type":"Feature","geometry":{"type":"Point","coordinates":[null,null]},"properties":{"area":"板橋區","name":"華江公園","address":"新北市民生路二段與縣民大道交叉口"}},{"type":"Feature","geometry":{"type":"Point","coordinates":[null,null]},"properties":{"area":"板橋區","name":"華東公園","address":"新北市南雅南路二段144巷24號(湳仔溝旁)"}},{"type":"Feature","geometry":{"type":"Point","coordinates":[null,null]},"properties":{"area":"板橋區","name":"華陽公園","address":"新北市南雅南路2段4巷、34巷與華東路交界點"}},{"type":"Feature","geometry":{"type":"Point","coordinates":[121.5065581,24.9848546]},"properties":{"area":"中和區","name":"華新人行廣場","address":"新北市興南路2段79巷內"}},{"type":"Feature","geometry":{"type":"Point","coordinates":[121.4646075,24.9970628]},"properties":{"area":"中和區","name":"華福公園(公廿一)","address":"新北市華福街、和平街口"}},{"type":"Feature","geometry":{"type":"Point","coordinates":[121.453289,24.9918059]},"properties":{"area":"板橋區","name":"華德公園","address":"新北市四川路二段245巷125號(信義國小對面)"}},{"type":"Feature","geometry":{"type":"Point","coordinates":[121.4926596,25.0579178]},"properties":{"area":"三重區","name":"菜寮公園 (公十三)","address":"新北市三重區中寮街57巷18號"}},{"type":"Feature","geometry":{"type":"Point","coordinates":[121.4230807,25.0357655]},"properties":{"area":"泰山區","name":"貴子兒童公園","address":"新北市明志路3段74巷"}},{"type":"Feature","geometry":{"type":"Point","coordinates":[null,null]},"properties":{"area":"泰山區","name":"貴和兒童公園","address":"新北市明志路三段(飛指部對面)"}},{"type":"Feature","geometry":{"type":"Point","coordinates":[121.49583,25.0850096]},"properties":{"area":"三重區","name":"進安公園","address":"新北市三重區進安街與仁義街口"}},{"type":"Feature","geometry":{"type":"Point","coordinates":[121.5036879,25.0666783]},"properties":{"area":"三重區","name":"開元公園(公卅)","address":"新北市三重區長元街65巷16弄16號對面"}},{"type":"Feature","geometry":{"type":"Point","coordinates":[null,null]},"properties":{"area":"林口區","name":"隆林公園(公鄰33)","address":"新北市隆林街36號對面"}},{"type":"Feature","geometry":{"type":"Point","coordinates":[121.4897526,25.0856178]},"properties":{"area":"三重區","name":"集賢環保公園","address":"新北市三重區五華街與集賢路口"}},{"type":"Feature","geometry":{"type":"Point","coordinates":[null,null]},"properties":{"area":"土城區","name":"雲溪廣場","address":"新北市青雲路183巷2號旁"}},{"type":"Feature","geometry":{"type":"Point","coordinates":[null,null]},"properties":{"area":"新莊區","name":"黃城公園","address":"新北市中榮街與中信街口"}},{"type":"Feature","geometry":{"type":"Point","coordinates":[121.4879021,25.0845335]},"properties":{"area":"三重區","name":"慈化公園(遊三)","address":"新北市三重區溪尾街327號"}},{"type":"Feature","geometry":{"type":"Point","coordinates":[121.4844131,25.0798617]},"properties":{"area":"三重區","name":"慈生公園","address":"新北市三重區三和路四段191巷78號"}},{"type":"Feature","geometry":{"type":"Point","coordinates":[121.4908395,25.0817707]},"properties":{"area":"三重區","name":"慈祐公園(遊四)","address":"新北市三重區仁愛街425巷9-1號"}},{"type":"Feature","geometry":{"type":"Point","coordinates":[121.4850054,25.0806301]},"properties":{"area":"三重區","name":"慈愛公園(公十五)","address":"新北市三重區仁美街108巷13號"}},{"type":"Feature","geometry":{"type":"Point","coordinates":[null,null]},"properties":{"area":"新莊區","name":"新泰三角公園","address":"新北市新泰路與中平路口"}},{"type":"Feature","geometry":{"type":"Point","coordinates":[121.4440861,25.0378288]},"properties":{"area":"新莊區","name":"新泰公園","address":"新北市公園一路112號旁"}},{"type":"Feature","geometry":{"type":"Point","coordinates":[121.4422348,25.0361422]},"properties":{"area":"新莊區","name":"新泰綠地","address":"新北市中環路與新泰路口"}},{"type":"Feature","geometry":{"type":"Point","coordinates":[121.4422348,25.0361422]},"properties":{"area":"新莊區","name":"新泰籃球場","address":"新北市中環路(特二號高架橋下)"}},{"type":"Feature","geometry":{"type":"Point","coordinates":[120.6795392,24.4905607]},"properties":{"area":"新莊區","name":"新莊公園","address":"新北市中正路84號對面"}},{"type":"Feature","geometry":{"type":"Point","coordinates":[null,null]},"properties":{"area":"林口區","name":"新寮公園(公鄰36)","address":"新北市仁愛路一段83巷與123巷間"}},{"type":"Feature","geometry":{"type":"Point","coordinates":[null,null]},"properties":{"area":"新莊區","name":"新樹公園","address":"新北市新樹路647號對面"}},{"type":"Feature","geometry":{"type":"Point","coordinates":[121.5012908,25.0625882]},"properties":{"area":"泰山區","name":"楓樹河濱公園","address":"新北市和平街底"}},{"type":"Feature","geometry":{"type":"Point","coordinates":[121.43451,25.061919]},"properties":{"area":"泰山區","name":"楓樹腳公園","address":"新北市楓江路26巷"}},{"type":"Feature","geometry":{"type":"Point","coordinates":[121.4307,24.99005]},"properties":{"area":"板橋區","name":"溪北公園","address":"新北市篤行路二段133號(沙崙國小對面)"}},{"type":"Feature","geometry":{"type":"Point","coordinates":[null,null]},"properties":{"area":"三峽區","name":"溪北河濱公園","address":"新北市介壽路三段101之2號旁"}},{"type":"Feature","geometry":{"type":"Point","coordinates":[121.4262221,24.9879986]},"properties":{"area":"板橋區","name":"溪州公園","address":"新北市溪崑二街113號"}},{"type":"Feature","geometry":{"type":"Point","coordinates":[121.4755933,25.0804092]},"properties":{"area":"蘆洲區","name":"溪墘公園","address":"新北市蘆洲區溪墘里信義路61號"}},{"type":"Feature","geometry":{"type":"Point","coordinates":[null,null]},"properties":{"area":"板橋區","name":"溪頭公園","address":"新北市溪頭路(長江路三段217巷進入)"}},{"type":"Feature","geometry":{"type":"Point","coordinates":[null,null]},"properties":{"area":"萬里區","name":"獅子公園","address":"新北市台二線52km旁"}},{"type":"Feature","geometry":{"type":"Point","coordinates":[121.448059,25.1159757]},"properties":{"area":"五股區","name":"獅子頭景觀公園","address":"新北市孝義路"}},{"type":"Feature","geometry":{"type":"Point","coordinates":[121.8191861,25.1075017]},"properties":{"area":"瑞芳區","name":"瑞芳公園","address":"新北市瑞芳區明燈路1段175號對面"}},{"type":"Feature","geometry":{"type":"Point","coordinates":[null,null]},"properties":{"area":"新莊區","name":"萬安公園","address":"新北市龍安路龍安橋頭"}},{"type":"Feature","geometry":{"type":"Point","coordinates":[null,null]},"properties":{"area":"板橋區","name":"萬坪公園","address":"新北市文化路與民權路交叉口"}},{"type":"Feature","geometry":{"type":"Point","coordinates":[121.4345688,25.0062069]},"properties":{"area":"新莊區","name":"萬善公園","address":"新北市瓊林南路301巷內"}},{"type":"Feature","geometry":{"type":"Point","coordinates":[121.6013718,25.0049875]},"properties":{"area":"深坑區","name":"萬福公園","address":"新北市北深路3段158巷內"}},{"type":"Feature","geometry":{"type":"Point","coordinates":[null,null]},"properties":{"area":"泰山區","name":"義學坑自然公園","address":"新北市明志路西側山區"}},{"type":"Feature","geometry":{"type":"Point","coordinates":[121.4533536,24.9850563]},"properties":{"area":"土城區","name":"裕民廣場","address":"新北市裕民路171巷4號"}},{"type":"Feature","geometry":{"type":"Point","coordinates":[null,null]},"properties":{"area":"土城區","name":"裕生廣場","address":"新北市裕生路裕生停車場旁"}},{"type":"Feature","geometry":{"type":"Point","coordinates":[121.4627868,25.0169826]},"properties":{"area":"新店區","name":"裕隆公園","address":"新北市品牌路旁"}},{"type":"Feature","geometry":{"type":"Point","coordinates":[121.4723739,25.0299058]},"properties":{"area":"板橋區","name":"資訊公園","address":"新北市文化路與長江路口(華江橋頭)"}},{"type":"Feature","geometry":{"type":"Point","coordinates":[null,null]},"properties":{"area":"板橋區","name":"農村公園","address":"新北市吳鳳路50巷與雙十路3段交叉口"}},{"type":"Feature","geometry":{"type":"Point","coordinates":[null,null]},"properties":{"area":"淡水區","name":"運動公園","address":"新北市竿蓁里中正東路東側"}},{"type":"Feature","geometry":{"type":"Point","coordinates":[121.4882211,25.0601787]},"properties":{"area":"三重區","name":"過圳公園 (公十二)","address":"新北市三重區過圳街19號"}},{"type":"Feature","geometry":{"type":"Point","coordinates":[121.4807262,24.9990328]},"properties":{"area":"中和區","name":"嘉穗公園(公十一)","address":"新北市民利街9巷內"}},{"type":"Feature","geometry":{"type":"Point","coordinates":[121.5470961,24.9747633]},"properties":{"area":"新店區","name":"夢想生活家旁公共空間","address":"新北市寶橋路78巷"}},{"type":"Feature","geometry":{"type":"Point","coordinates":[null,null]},"properties":{"area":"新莊區","name":"榮和公園","address":"新北市環河路新海橋下"}},{"type":"Feature","geometry":{"type":"Point","coordinates":[121.4268695,25.1764257]},"properties":{"area":"淡水區","name":"滬尾砲臺公園","address":"位於新北市淡水區中正路1段22巷內。"}},{"type":"Feature","geometry":{"type":"Point","coordinates":[121.4497527,25.0320291]},"properties":{"area":"新莊區","name":"碧江公園","address":"新北市新泰路瓊林路口"}},{"type":"Feature","geometry":{"type":"Point","coordinates":[121.4875969,25.083629]},"properties":{"area":"三重區","name":"碧華公園","address":"新北市三重區溪尾街(東區圖書館對面)"}},{"type":"Feature","geometry":{"type":"Point","coordinates":[95.490385,29.5462]},"properties":{"area":"新店區","name":"福民公園 (公六1一)","address":"新北市褔園街8-6號旁"}},{"type":"Feature","geometry":{"type":"Point","coordinates":[121.4796404,25.067924]},"properties":{"area":"三重區","name":"福田公園(公二七)","address":"新北市三重區三民街261號對面"}},{"type":"Feature","geometry":{"type":"Point","coordinates":[121.4607013,25.0563451]},"properties":{"area":"新莊區","name":"福美公園","address":"新北市新莊區福美街、福德一街口"}},{"type":"Feature","geometry":{"type":"Point","coordinates":[121.4334869,25.0571144]},"properties":{"area":"泰山區","name":"福泰公園","address":"新北市全興路25巷口"}},{"type":"Feature","geometry":{"type":"Point","coordinates":[121.4607013,25.0563451]},"properties":{"area":"新莊區","name":"福基公園","address":"新北市新莊區福美街、福德三街口"}},{"type":"Feature","geometry":{"type":"Point","coordinates":[121.457949,25.0523608]},"properties":{"area":"新莊區","name":"福壽公園","address":"新北市福壽街昌明街路口"}},{"type":"Feature","geometry":{"type":"Point","coordinates":[121.4645346,25.1347314]},"properties":{"area":"淡水區","name":"福德公園","address":"位於新北市淡水區自強路18巷底。"}},{"type":"Feature","geometry":{"type":"Point","coordinates":[null,null]},"properties":{"area":"泰山區","name":"福興公園","address":"新北市福興三街、泰林路口"}},{"type":"Feature","geometry":{"type":"Point","coordinates":[null,null]},"properties":{"area":"新莊區","name":"福營公園","address":"新北市福營路29號旁"}},{"type":"Feature","geometry":{"type":"Point","coordinates":[121.4673933,25.072826]},"properties":{"area":"新莊區","name":"福營休閒廣場","address":"新北市四維路福營行政中心旁"}},{"type":"Feature","geometry":{"type":"Point","coordinates":[121.4908577,24.9942356]},"properties":{"area":"新莊區","name":"福營綠廊","address":"新北市中正路輔仁大學對面"}},{"type":"Feature","geometry":{"type":"Point","coordinates":[121.4403655,25.0877043]},"properties":{"area":"五股區","name":"綠六公園","address":"新北市成泰路二段195巷口.五洲橋旁"}},{"type":"Feature","geometry":{"type":"Point","coordinates":[121.3772472,24.9472994]},"properties":{"area":"三峽區","name":"遠雄海洋公園","address":"新北市學勤路、大義路口"}},{"type":"Feature","geometry":{"type":"Point","coordinates":[121.3344466,24.966529]},"properties":{"area":"鶯歌區","name":"鳳鳴公園","address":"新北市鳳鳴街(鳳鳴國小旁)"}},{"type":"Feature","geometry":{"type":"Point","coordinates":[121.4596543,25.007303]},"properties":{"area":"中和區","name":"廟美綠林小徑","address":"新北市中山路2段181巷旁"}},{"type":"Feature","geometry":{"type":"Point","coordinates":[121.4627514,24.9916404]},"properties":{"area":"板橋區","name":"廣福公園","address":"新北市廣權路五權公園旁(干誠路底)"}},{"type":"Feature","geometry":{"type":"Point","coordinates":[null,null]},"properties":{"area":"五股區","name":"德音兒童休憩公園","address":"新北市蓬萊路6巷.成泰路2段235巷交叉處"}},{"type":"Feature","geometry":{"type":"Point","coordinates":[121.4637283,25.0191593]},"properties":{"area":"林口區","name":"樂活公園","address":"新北市文化一路一段20號(崇林國中)旁"}},{"type":"Feature","geometry":{"type":"Point","coordinates":[121.4189495,24.9966434]},"properties":{"area":"樹林區","name":"潭底公園","address":"新北市保安街一段285號（樹林戶政事務所旁）"}},{"type":"Feature","geometry":{"type":"Point","coordinates":[null,null]},"properties":{"area":"淡水區","name":"衛教公園","address":"新北市協元里衛生所旁"}},{"type":"Feature","geometry":{"type":"Point","coordinates":[null,null]},"properties":{"area":"淡水區","name":"賢孝社區公園","address":"位於新北市淡水區淡金路5段20號對面"}},{"type":"Feature","geometry":{"type":"Point","coordinates":[121.6878007,25.2041036]},"properties":{"area":"萬里區","name":"鄰里公園","address":"新北市野柳里港東路8鄰164號"}},{"type":"Feature","geometry":{"type":"Point","coordinates":[121.4627868,25.0169826]},"properties":{"area":"泰山區","name":"黎明公園","address":"新北市泰林路黎明路口"}},{"type":"Feature","geometry":{"type":"Point","coordinates":[121.4234474,25.0637592]},"properties":{"area":"泰山區","name":"黎明步道花園（綠地）","address":"新北市泰林路2段542巷進入大窠溪旁"}},{"type":"Feature","geometry":{"type":"Point","coordinates":[121.4627868,25.0169826]},"properties":{"area":"土城區","name":"學成社區公園","address":"新北市學成路91巷旁"}},{"type":"Feature","geometry":{"type":"Point","coordinates":[121.4238167,24.9911412]},"properties":{"area":"樹林區","name":"樹林後站廣場","address":"新北市後站街"}},{"type":"Feature","geometry":{"type":"Point","coordinates":[121.6297654,25.231519]},"properties":{"area":"土城區","name":"橋頭公園","address":"新北市清水路石門溝旁"}},{"type":"Feature","geometry":{"type":"Point","coordinates":[null,null]},"properties":{"area":"貢寮區","name":"澳底公園","address":"新北市仁愛路43號旁"}},{"type":"Feature","geometry":{"type":"Point","coordinates":[121.3734015,25.0827073]},"properties":{"area":"林口區","name":"翰林公園(公鄰10)","address":"新北市民權路101號(頭湖國小)旁"}},{"type":"Feature","geometry":{"type":"Point","coordinates":[121.4627868,25.0169826]},"properties":{"area":"新莊區","name":"興化公園","address":"新北市五工二路底"}},{"type":"Feature","geometry":{"type":"Point","coordinates":[null,null]},"properties":{"area":"林口區","name":"興林公園","address":"新北市興林一街109巷(高地仰哲社區對面)"}},{"type":"Feature","geometry":{"type":"Point","coordinates":[121.483396,25.060222]},"properties":{"area":"三重區","name":"興華公園(公三二)","address":"新北市三重區中華路5號"}},{"type":"Feature","geometry":{"type":"Point","coordinates":[121.4514729,25.0330614]},"properties":{"area":"新莊區","name":"興漢公園","address":"新北市碧江街76號前"}},{"type":"Feature","geometry":{"type":"Point","coordinates":[121.4940657,25.0884343]},"properties":{"area":"三重區","name":"親水公園","address":"新北市三重區環河北路(溪美抽水站斜對面)"}},{"type":"Feature","geometry":{"type":"Point","coordinates":[121.4443187,24.999562]},"properties":{"area":"板橋區","name":"親民公園","address":"新北市大觀路2段力行一巷"}},{"type":"Feature","geometry":{"type":"Point","coordinates":[null,null]},"properties":{"area":"三峽區","name":"醒心公園","address":"新北市白雞路醒心橋旁"}},{"type":"Feature","geometry":{"type":"Point","coordinates":[121.4644509,25.0523774]},"properties":{"area":"新莊區","name":"頭前運動公園","address":"新北市新莊區頭前路、頭成街口"}},{"type":"Feature","geometry":{"type":"Point","coordinates":[121.4971543,25.0746967]},"properties":{"area":"三重區","name":"龍門公園(公二)","address":"新北市三重區仁福街40號前"}},{"type":"Feature","geometry":{"type":"Point","coordinates":[121.4506989,25.1305402]},"properties":{"area":"八里區","name":"龍源公園","address":"新北市八里區龍形一街與龍形二街交叉處"}},{"type":"Feature","geometry":{"type":"Point","coordinates":[120.2419764,23.0370313]},"properties":{"area":"新莊區","name":"龍福公園","address":"新北市中正路929巷23號對面"}},{"type":"Feature","geometry":{"type":"Point","coordinates":[121.4208568,25.0197138]},"properties":{"area":"新莊區","name":"龍鳳公園","address":"新北市龍安路丹鳳國中對面"}},{"type":"Feature","geometry":{"type":"Point","coordinates":[121.5023704,25.0729808]},"properties":{"area":"三重區","name":"龍濱公園(公三)","address":"新北市三重區秀江街28號"}},{"type":"Feature","geometry":{"type":"Point","coordinates":[121.4516521,25.0172894]},"properties":{"area":"板橋區","name":"環河公園","address":"新北市南雅西路二段301巷41弄(國光國小後面)"}},{"type":"Feature","geometry":{"type":"Point","coordinates":[121.4424349,25.0255256]},"properties":{"area":"新莊區","name":"環河路三角綠地公園","address":"新北市瓊林路與環河路口"}},{"type":"Feature","geometry":{"type":"Point","coordinates":[121.9074394,25.0203389]},"properties":{"area":"貢寮區","name":"環保公園","address":"新北市長泰路18-2號(貢寮大橋貢寮社區活動中心)旁"}},{"type":"Feature","geometry":{"type":"Point","coordinates":[121.4715241,25.0868908]},"properties":{"area":"蘆洲區","name":"環堤公園","address":"新北市蘆洲區長榮路口以北至環堤大道"}},{"type":"Feature","geometry":{"type":"Point","coordinates":[121.3741209,24.9325112]},"properties":{"area":"三峽區","name":"礁溪人行廣場","address":"新北市礁溪里中華路、光明路間"}},{"type":"Feature","geometry":{"type":"Point","coordinates":[121.483702,25.0640299]},"properties":{"area":"三重區","name":"聯邦公園 (公二九)","address":"新北市三重區中華路125號"}},{"type":"Feature","geometry":{"type":"Point","coordinates":[121.4102079,24.98184]},"properties":{"area":"八里區","name":"舊城公園","address":"新北市八里區中山路二段303巷底"}},{"type":"Feature","geometry":{"type":"Point","coordinates":[null,null]},"properties":{"area":"三峽區","name":"藍染公園","address":"新北市仁愛街47號旁"}},{"type":"Feature","geometry":{"type":"Point","coordinates":[121.6471813,25.2232394]},"properties":{"area":"金山區","name":"豐漁里公園","address":"新北市金山區豐漁里民生路172-1號"}},{"type":"Feature","geometry":{"type":"Point","coordinates":[null,null]},"properties":{"area":"樹林區","name":"鎮前公園","address":"新北市鎮前街東陽街口(東陽街1號旁)"}},{"type":"Feature","geometry":{"type":"Point","coordinates":[121.4705625,25.0277291]},"properties":{"area":"板橋區","name":"雙十人行廣場","address":"新北市文化路2段182巷"}},{"type":"Feature","geometry":{"type":"Point","coordinates":[null,null]},"properties":{"area":"永和區","name":"雙合里社區公園","address":"新北市雙和街37巷與中和路305巷交叉口"}},{"type":"Feature","geometry":{"type":"Point","coordinates":[121.416773,24.9830659]},"properties":{"area":"雙溪區","name":"雙溪公兒公園","address":"新北市東榮街54號(雙溪國小對面)"}},{"type":"Feature","geometry":{"type":"Point","coordinates":[121.8643048,25.0347447]},"properties":{"area":"雙溪區","name":"雙溪公園","address":"新北市雙溪里泰昌街13號"}},{"type":"Feature","geometry":{"type":"Point","coordinates":[121.4294144,25.0273118]},"properties":{"area":"新莊區","name":"雙福公園","address":"新北市後港一路(後港抽水站旁)"}},{"type":"Feature","geometry":{"type":"Point","coordinates":[null,null]},"properties":{"area":"新莊區","name":"瓊泰公園","address":"新北市瓊泰路瓊泰橋旁"}},{"type":"Feature","geometry":{"type":"Point","coordinates":[null,null]},"properties":{"area":"新莊區","name":"瓊泰河濱公園","address":"新北市瓊泰路94巷17號旁"}},{"type":"Feature","geometry":{"type":"Point","coordinates":[null,null]},"properties":{"area":"淡水區","name":"藝術穿堂","address":"位於新北市淡水區中正路274號旁"}},{"type":"Feature","geometry":{"type":"Point","coordinates":[121.4627868,25.0169826]},"properties":{"area":"泰山區","name":"辭修公園","address":"新北市辭修路底"}},{"type":"Feature","geometry":{"type":"Point","coordinates":[121.4491491,25.0393483]},"properties":{"area":"林口區","name":"麗林福德公園(公鄰24)","address":"新北市公園路46號(麗林國小)旁"}},{"type":"Feature","geometry":{"type":"Point","coordinates":[116.24242,28.443797]},"properties":{"area":"林口區","name":"麗園公園(公鄰30)","address":"新北市麗園路60號對面"}},{"type":"Feature","geometry":{"type":"Point","coordinates":[null,null]},"properties":{"area":"林口區","name":"麗園籃球場(廣2)","address":"新北市忠孝路與忠孝路542巷口"}},{"type":"Feature","geometry":{"type":"Point","coordinates":[121.5444887,24.9769593]},"properties":{"area":"新店區","name":"寶徠花園兒童遊樂場","address":"新北市寶橋路85巷"}},{"type":"Feature","geometry":{"type":"Point","coordinates":[null,null]},"properties":{"area":"鶯歌區","name":"鶯歌區三號公園","address":"新北市建國路與育英街口"}},{"type":"Feature","geometry":{"type":"Point","coordinates":[121.4782475,25.0857519]},"properties":{"area":"蘆洲區","name":"鷺江廣場","address":"新北市蘆洲區鷺江里民族路33巷"}},{"type":"Feature","geometry":{"type":"Point","coordinates":[null,null]},"properties":{"area":"萬里區","name":"觀光公園","address":"新北市北28線1km旁"}},{"type":"Feature","geometry":{"type":"Point","coordinates":[121.0760154,24.8280569]},"properties":{"area":"淡水區","name":"觀潮公園","address":"新北市民眾服務站旁〈新生里中正路〉"}},{"type":"Feature","geometry":{"type":"Point","coordinates":[null,null]},"properties":{"area":"新店區","name":"瑠公公園","address":"新北市中華路54巷與60巷間"}}]}