{"type":"FeatureCollection","features":[{"type":"Feature","geometry":{"type":"Point","coordinates":[-122.417387,47.573457]},"properties":{"common_name":"Charles Richey Sr Viewpoint","city_feature":"Parks","address":0,"website - url":"http://www.seattle.gov/parks/park_detail.asp?ID=80"}},{"type":"Feature","geometry":{"type":"Point","coordinates":[-122.349245,47.627746]},"properties":{"common_name":"Ward Springs Park","city_feature":"Parks","address":"925 4TH AVE N","website - url":"http://www.seattle.gov/parks/park_detail.asp?ID=763"}},{"type":"Feature","geometry":{"type":"Point","coordinates":[-122.319694,47.531156]},"properties":{"common_name":"Duwamish Waterway Park","city_feature":"Parks","address":0,"website - url":"http://www.seattle.gov/parks/park_detail.asp?ID=705"}},{"type":"Feature","geometry":{"type":"Point","coordinates":[-122.319072,47.659309]},"properties":{"common_name":"Christie Park","city_feature":"Parks","address":0,"website - url":"http://www.seattle.gov/parks/park_detail.asp?ID=595"}},{"type":"Feature","geometry":{"type":"Point","coordinates":[-122.314377,47.594089]},"properties":{"common_name":"Sturgus Park","city_feature":"Parks","address":0,"website - url":"http://www.seattle.gov/parks/park_detail.asp?ID=592"}},{"type":"Feature","geometry":{"type":"Point","coordinates":[-122.295537,47.570461]},"properties":{"common_name":"York Park","city_feature":"Parks","address":"3650 RENTON AVE SOUTH","website - url":"http://www.seattle.gov/parks/park_detail.asp?ID=580"}},{"type":"Feature","geometry":{"type":"Point","coordinates":[-122.387164,47.566844]},"properties":{"common_name":"Dakota Place Park","city_feature":"Parks","address":"4304 SW DAKOTA ST","website - url":"http://www.seattle.gov/parks/park_detail.asp?ID=575"}},{"type":"Feature","geometry":{"type":"Point","coordinates":[-122.299308,47.685266]},"properties":{"common_name":"Dahl (Waldo J.) Playfield","city_feature":"Parks","address":0,"website - url":"http://www.seattle.gov/parks/park_detail.asp?ID=499"}},{"type":"Feature","geometry":{"type":"Point","coordinates":[-122.391549848962,47.6727858650181]},"properties":{"common_name":"Ballard Playground","city_feature":"Parks","address":"2644 NW 60th St","website - url":"http://www.seattle.gov/parks/park_detail.asp?ID=497"}},{"type":"Feature","geometry":{"type":"Point","coordinates":[-122.282623001591,47.6666338602899]},"properties":{"common_name":"Burke-Gilman Playground","city_feature":"Parks","address":"5201 Sand Point Way NE","website - url":"http://www.seattle.gov/parks/park_detail.asp?ID=496"}},{"type":"Feature","geometry":{"type":"Point","coordinates":[-122.34338,47.641586]},"properties":{"common_name":"Westlake Greenbelt","city_feature":"Parks","address":0,"website - url":"http://www.seattle.gov/parks/park_detail.asp?ID=494"}},{"type":"Feature","geometry":{"type":"Point","coordinates":[-122.301472,47.578767]},"properties":{"common_name":"Cheasty Greenspace","city_feature":"Parks","address":0,"website - url":"http://www.seattle.gov/parks/park_detail.asp?ID=489"}},{"type":"Feature","geometry":{"type":"Point","coordinates":[-122.30493,47.67688]},"properties":{"common_name":"Ravenna-Eckstein Park","city_feature":"Parks","address":0,"website - url":"http://www.seattle.gov/parks/park_detail.asp?ID=488"}},{"type":"Feature","geometry":{"type":"Point","coordinates":[-122.295875,47.71911]},"properties":{"common_name":"Lake City Park","city_feature":"Parks","address":"12359 LAKE CITY WAY NE","website - url":"http://www.seattle.gov/parks/park_detail.asp?ID=487"}},{"type":"Feature","geometry":{"type":"Point","coordinates":[-122.387822,47.505679]},"properties":{"common_name":"Arroyos Natural Area","city_feature":"Parks","address":0,"website - url":"http://www.seattle.gov/parks/park_detail.asp?ID=485"}},{"type":"Feature","geometry":{"type":"Point","coordinates":[-122.313074,47.672596]},"properties":{"common_name":"Cowen Park","city_feature":"Parks","address":0,"website - url":"http://www.seattle.gov/parks/park_detail.asp?ID=483"}},{"type":"Feature","geometry":{"type":"Point","coordinates":[-122.283644144168,47.6752992033738]},"properties":{"common_name":"Bryant Neighborhood Playground","city_feature":"Parks","address":"4102 NE 65th St","website - url":"http://www.seattle.gov/parks/park_detail.asp?ID=482"}},{"type":"Feature","geometry":{"type":"Point","coordinates":[-122.283215,47.655124]},"properties":{"common_name":"Belvoir Place","city_feature":"Parks","address":"3659  42ND AV NE","website - url":"http://www.seattle.gov/parks/park_detail.asp?ID=475"}},{"type":"Feature","geometry":{"type":"Point","coordinates":[-122.404005,47.563166]},"properties":{"common_name":"Me-Kwa-Mooks Park","city_feature":"Parks","address":0,"website - url":"http://www.seattle.gov/parks/park_detail.asp?ID=473"}},{"type":"Feature","geometry":{"type":"Point","coordinates":[-122.374348206809,47.5628255450167]},"properties":{"common_name":"West Seattle Stadium","city_feature":"Parks","address":"4432 35th Ave SW","website - url":"http://www.seattle.gov/parks/park_detail.asp?ID=472"}},{"type":"Feature","geometry":{"type":"Point","coordinates":[-122.33989,47.524762]},"properties":{"common_name":"Westcrest Park","city_feature":"Parks","address":0,"website - url":"http://www.seattle.gov/parks/park_detail.asp?ID=468"}},{"type":"Feature","geometry":{"type":"Point","coordinates":[-122.324158773464,47.5280159781691]},"properties":{"common_name":"South Park Playfield","city_feature":"Parks","address":"738 S Sullivan St","website - url":"http://www.seattle.gov/parks/park_detail.asp?ID=467"}},{"type":"Feature","geometry":{"type":"Point","coordinates":[-122.374332,47.500389]},"properties":{"common_name":"Seola Park","city_feature":"Parks","address":0,"website - url":"http://www.seattle.gov/parks/park_detail.asp?ID=466"}},{"type":"Feature","geometry":{"type":"Point","coordinates":[-122.400425,47.574375]},"properties":{"common_name":"Schmitz Preserve Park","city_feature":"Parks","address":0,"website - url":"http://www.seattle.gov/parks/park_detail.asp?ID=465"}},{"type":"Feature","geometry":{"type":"Point","coordinates":[-122.368882,47.519496]},"properties":{"common_name":"Roxhill Park","city_feature":"Parks","address":0,"website - url":"http://www.seattle.gov/parks/park_detail.asp?ID=464"}},{"type":"Feature","geometry":{"type":"Point","coordinates":[-122.348855,47.539329]},"properties":{"common_name":"Riverview Playfield","city_feature":"Parks","address":0,"website - url":"http://www.seattle.gov/parks/park_detail.asp?ID=463"}},{"type":"Feature","geometry":{"type":"Point","coordinates":[-122.356922,47.558473]},"properties":{"common_name":"Puget Park","city_feature":"Parks","address":"4800 16TH AVE SW","website - url":"http://www.seattle.gov/parks/park_detail.asp?ID=462"}},{"type":"Feature","geometry":{"type":"Point","coordinates":[-122.396012,47.531177]},"properties":{"common_name":"Lincoln Park","city_feature":"Parks","address":0,"website - url":"http://www.seattle.gov/parks/park_detail.asp?ID=460"}},{"type":"Feature","geometry":{"type":"Point","coordinates":[-122.388277,47.52133]},"properties":{"common_name":"Kilbourne Park","city_feature":"Parks","address":"9131 CALIFORNIA AVE SW","website - url":"http://www.seattle.gov/parks/park_detail.asp?ID=459"}},{"type":"Feature","geometry":{"type":"Point","coordinates":[-122.369545228851,47.5328049082455]},"properties":{"common_name":"E.C. Hughes Playground","city_feature":"Parks","address":"2805 SW Holden St","website - url":"http://www.seattle.gov/parks/park_detail.asp?ID=458"}},{"type":"Feature","geometry":{"type":"Point","coordinates":[-122.349034022359,47.527379719227]},"properties":{"common_name":"Highland Park Playground","city_feature":"Parks","address":"1100 SW Cloverdale St","website - url":"http://www.seattle.gov/parks/park_detail.asp?ID=457"}},{"type":"Feature","geometry":{"type":"Point","coordinates":[-122.384964699838,47.5782724270145]},"properties":{"common_name":"Hiawatha Playfield","city_feature":"Parks","address":"2700 California Ave SW","website - url":"http://www.seattle.gov/parks/park_detail.asp?ID=456"}},{"type":"Feature","geometry":{"type":"Point","coordinates":[-122.378676,47.588951]},"properties":{"common_name":"Seacrest Park","city_feature":"Parks","address":0,"website - url":"http://www.seattle.gov/parks/park_detail.asp?ID=455"}},{"type":"Feature","geometry":{"type":"Point","coordinates":[-122.389069703111,47.5907475150499]},"properties":{"common_name":"Hamilton Viewpoint","city_feature":"Parks","address":"1531 California Wy SW","website - url":"http://www.seattle.gov/parks/park_detail.asp?ID=454"}},{"type":"Feature","geometry":{"type":"Point","coordinates":[-122.383222,47.5192]},"properties":{"common_name":"Fauntleroy Park","city_feature":"Parks","address":0,"website - url":"http://www.seattle.gov/parks/park_detail.asp?ID=453"}},{"type":"Feature","geometry":{"type":"Point","coordinates":[-122.3805488504,47.5540408122029]},"properties":{"common_name":"Fairmount Playground","city_feature":"Parks","address":"5400 Fauntleroy Way SW","website - url":"http://www.seattle.gov/parks/park_detail.asp?ID=452"}},{"type":"Feature","geometry":{"type":"Point","coordinates":[-122.378909,47.584928]},"properties":{"common_name":"Duwamish Head Greenbelt","city_feature":"Parks","address":0,"website - url":"http://www.seattle.gov/parks/park_detail.asp?ID=451"}},{"type":"Feature","geometry":{"type":"Point","coordinates":[-122.364370690361,47.5628424487087]},"properties":{"common_name":"Delridge Playfield","city_feature":"Parks","address":"4458 Delridge Way SW","website - url":"http://www.seattle.gov/parks/park_detail.asp?ID=450"}},{"type":"Feature","geometry":{"type":"Point","coordinates":[-122.33744372477,47.6585444344469]},"properties":{"common_name":"Wallingford Playfield","city_feature":"Parks","address":"4219 Wallingford Ave N","website - url":"http://www.seattle.gov/parks/park_detail.asp?ID=449"}},{"type":"Feature","geometry":{"type":"Point","coordinates":[-122.386696,47.585641]},"properties":{"common_name":"California Place","city_feature":"Parks","address":"CALIFORNIA AVE SW / SW HILL ST","website - url":"http://www.seattle.gov/parks/park_detail.asp?ID=448"}},{"type":"Feature","geometry":{"type":"Point","coordinates":[-122.376895,47.580672]},"properties":{"common_name":"Belvedere Park","city_feature":"Parks","address":0,"website - url":"http://www.seattle.gov/parks/park_detail.asp?ID=447"}},{"type":"Feature","geometry":{"type":"Point","coordinates":[-122.375859155464,47.5602220495052]},"properties":{"common_name":"Rotary Viewpoint","city_feature":"Parks","address":"35th Ave SW and SW Alaska St","website - url":"http://www.seattle.gov/parks/park_detail.asp?ID=4465"}},{"type":"Feature","geometry":{"type":"Point","coordinates":[-122.40731233767,47.5784972617799]},"properties":{"common_name":"Alki Playground","city_feature":"Parks","address":"5817 SW Lander St","website - url":"http://www.seattle.gov/parks/park_detail.asp?ID=446"}},{"type":"Feature","geometry":{"type":"Point","coordinates":[-122.390347,47.536413]},"properties":{"common_name":"Solstice Park","city_feature":"Parks","address":0,"website - url":"http://www.seattle.gov/parks/park_detail.asp?ID=4453"}},{"type":"Feature","geometry":{"type":"Point","coordinates":[-122.320826,47.654365]},"properties":{"common_name":"Northlake Park","city_feature":"Parks","address":0,"website - url":"http://www.seattle.gov/parks/park_detail.asp?ID=4452"}},{"type":"Feature","geometry":{"type":"Point","coordinates":[-122.390232055055,47.6320488302181]},"properties":{"common_name":"Ursula Judkins Viewpoint","city_feature":"Parks","address":"W Galer St west of the Magnolia Bridge","website - url":"http://www.seattle.gov/parks/park_detail.asp?ID=4451"}},{"type":"Feature","geometry":{"type":"Point","coordinates":[-122.348583,47.731181]},"properties":{"common_name":"Bitter Lake Open Space Park","city_feature":"Parks","address":0,"website - url":"http://www.seattle.gov/parks/park_detail.asp?ID=4450"}},{"type":"Feature","geometry":{"type":"Point","coordinates":[-122.400127,47.58671]},"properties":{"common_name":"Alki Beach Park","city_feature":"Parks","address":0,"website - url":"http://www.seattle.gov/parks/park_detail.asp?ID=445"}},{"type":"Feature","geometry":{"type":"Point","coordinates":[-122.406373,47.661011]},"properties":{"common_name":"Cesar Chavez Park","city_feature":"Parks","address":0,"website - url":"http://www.seattle.gov/parks/park_detail.asp?ID=4448"}},{"type":"Feature","geometry":{"type":"Point","coordinates":[-122.323409,47.634898]},"properties":{"common_name":"I-5 Colonnade","city_feature":"Parks","address":0,"website - url":"http://www.seattle.gov/parks/park_detail.asp?ID=4446"}},{"type":"Feature","geometry":{"type":"Point","coordinates":[-122.322424,47.705194]},"properties":{"common_name":"Northgate Park","city_feature":"Parks","address":"10548 5TH AVE NE","website - url":"http://www.seattle.gov/parks/park_detail.asp?ID=4445"}},{"type":"Feature","geometry":{"type":"Point","coordinates":[-122.308222,47.714186]},"properties":{"common_name":"Pinehurst Pocket Park","city_feature":"Parks","address":"11700 19TH AVE NE","website - url":"http://www.seattle.gov/parks/park_detail.asp?ID=4444"}},{"type":"Feature","geometry":{"type":"Point","coordinates":[-122.315554,47.709155]},"properties":{"common_name":"Victory Creek Park","city_feature":"Parks","address":"1059 NORTHGATE WAY","website - url":"http://www.seattle.gov/parks/park_detail.asp?ID=4443"}},{"type":"Feature","geometry":{"type":"Point","coordinates":[-122.276119,47.639083]},"properties":{"common_name":"Madison Park North Beach","city_feature":"Parks","address":0,"website - url":"http://www.seattle.gov/parks/park_detail.asp?ID=4441"}},{"type":"Feature","geometry":{"type":"Point","coordinates":[-122.281073,47.680361]},"properties":{"common_name":"View Ridge Playfield","city_feature":"Parks","address":0,"website - url":"http://www.seattle.gov/parks/park_detail.asp?ID=444"}},{"type":"Feature","geometry":{"type":"Point","coordinates":[-122.292012,47.569133]},"properties":{"common_name":"Lake People Park (Xacuabs)","city_feature":"Parks","address":0,"website - url":"http://www.seattle.gov/parks/park_detail.asp?ID=4439"}},{"type":"Feature","geometry":{"type":"Point","coordinates":[-122.356323,47.625683]},"properties":{"common_name":"Counterbalance Park","city_feature":"Parks","address":"700 QUEEN ANNE AVE N","website - url":"http://www.seattle.gov/parks/park_detail.asp?ID=4438"}},{"type":"Feature","geometry":{"type":"Point","coordinates":[-122.387681,47.632602]},"properties":{"common_name":"Smith Cove Park","city_feature":"Parks","address":"23RD AVE W / W MARINA PL","website - url":"http://www.seattle.gov/parks/park_detail.asp?ID=4433"}},{"type":"Feature","geometry":{"type":"Point","coordinates":[-122.287122,47.657838]},"properties":{"common_name":"Union Bay Boglands #1","city_feature":"Parks","address":0,"website - url":"http://www.seattle.gov/parks/park_detail.asp?ID=4431"}},{"type":"Feature","geometry":{"type":"Point","coordinates":[-122.403236804742,47.6602505167596]},"properties":{"common_name":"Kiwanis Ravine Overlook","city_feature":"Parks","address":"34th Ave W and W McCord Pl","website - url":"http://www.seattle.gov/parks/park_detail.asp?ID=4429"}},{"type":"Feature","geometry":{"type":"Point","coordinates":[-122.379116,47.674186]},"properties":{"common_name":"Ballard Corners Park","city_feature":"Parks","address":"17th Ave NW & NW 63rd St","website - url":"http://www.seattle.gov/parks/park_detail.asp?ID=4428"}},{"type":"Feature","geometry":{"type":"Point","coordinates":[-122.292616071577,47.589983069111]},"properties":{"common_name":"Mt Baker Ridge Viewpoint","city_feature":"Parks","address":"1403 31st Ave S","website - url":"http://www.seattle.gov/parks/park_detail.asp?ID=4427"}},{"type":"Feature","geometry":{"type":"Point","coordinates":[-122.300994,47.617309]},"properties":{"common_name":"Homer Harris Park","city_feature":"Parks","address":"2401 E HOWELL ST","website - url":"http://www.seattle.gov/parks/park_detail.asp?ID=4426"}},{"type":"Feature","geometry":{"type":"Point","coordinates":[-122.356671,47.661108]},"properties":{"common_name":"Fremont Peak Park","city_feature":"Parks","address":"4351 PALATINE AVE N","website - url":"http://www.seattle.gov/parks/park_detail.asp?ID=4424"}},{"type":"Feature","geometry":{"type":"Point","coordinates":[-122.345276,47.636192]},"properties":{"common_name":"Maclean Park","city_feature":"Parks","address":"1920 TAYLOR AVE N","website - url":"http://www.seattle.gov/parks/park_detail.asp?ID=4422"}},{"type":"Feature","geometry":{"type":"Point","coordinates":[-122.347039,47.635143]},"properties":{"common_name":"Trolley Hill Park","city_feature":"Parks","address":"5TH AVE N / BLAINE ST","website - url":"http://www.seattle.gov/parks/park_detail.asp?ID=4421"}},{"type":"Feature","geometry":{"type":"Point","coordinates":[-122.347727,47.678016]},"properties":{"common_name":"Linden Orchard Park","city_feature":"Parks","address":"N 67th St / Linden Ave N","website - url":"http://www.seattle.gov/parks/park_detail.asp?ID=4419"}},{"type":"Feature","geometry":{"type":"Point","coordinates":[-122.321583,47.54499]},"properties":{"common_name":"Oxbow Park","city_feature":"Parks","address":"6430 Corson Ave S","website - url":"http://www.seattle.gov/parks/park_detail.asp?ID=4416"}},{"type":"Feature","geometry":{"type":"Point","coordinates":[-122.350776,47.613889]},"properties":{"common_name":"Belltown Cottage Park","city_feature":"Parks","address":"2156 Elliott Ave","website - url":"http://www.seattle.gov/parks/park_detail.asp?ID=4415"}},{"type":"Feature","geometry":{"type":"Point","coordinates":[-122.28455,47.554207]},"properties":{"common_name":"Hitts Hill Park","city_feature":"Parks","address":0,"website - url":"http://www.seattle.gov/parks/park_detail.asp?ID=4413"}},{"type":"Feature","geometry":{"type":"Point","coordinates":[-122.349545,47.561514]},"properties":{"common_name":"Herrings House Park (Tulaltx)","city_feature":"Parks","address":"4540 West Marginal Way","website - url":"http://www.seattle.gov/parks/park_detail.asp?ID=4412"}},{"type":"Feature","geometry":{"type":"Point","coordinates":[-122.303161,47.662559]},"properties":{"common_name":"Ravenna Woods","city_feature":"Parks","address":0,"website - url":"http://www.seattle.gov/parks/park_detail.asp?ID=4411"}},{"type":"Feature","geometry":{"type":"Point","coordinates":[-122.382219,47.580238]},"properties":{"common_name":"Fairmount Park","city_feature":"Parks","address":0,"website - url":"http://www.seattle.gov/parks/park_detail.asp?ID=4410"}},{"type":"Feature","geometry":{"type":"Point","coordinates":[-122.350647,47.693048]},"properties":{"common_name":"Greenwood Park","city_feature":"Parks","address":"8905 FREMONT AVE N","website - url":"http://www.seattle.gov/parks/park_detail.asp?ID=4408"}},{"type":"Feature","geometry":{"type":"Point","coordinates":[-122.395214,47.670709]},"properties":{"common_name":"Thyme Patch Park","city_feature":"Parks","address":"2853 NW 58TH ST","website - url":"http://www.seattle.gov/parks/park_detail.asp?ID=4405"}},{"type":"Feature","geometry":{"type":"Point","coordinates":[-122.348825,47.650088]},"properties":{"common_name":"A. B. Ernst Park","city_feature":"Parks","address":"723 N 35TH ST","website - url":"http://www.seattle.gov/parks/park_detail.asp?ID=4404"}},{"type":"Feature","geometry":{"type":"Point","coordinates":[-122.294573,47.608732]},"properties":{"common_name":"Noras Woods","city_feature":"Parks","address":"720 29TH AVE","website - url":"http://www.seattle.gov/parks/park_detail.asp?ID=4403"}},{"type":"Feature","geometry":{"type":"Point","coordinates":[-122.312163,47.591919]},"properties":{"common_name":"Taejon Park","city_feature":"Parks","address":"1144 STURGUS AVE S","website - url":"http://www.seattle.gov/parks/park_detail.asp?ID=4400"}},{"type":"Feature","geometry":{"type":"Point","coordinates":[-122.263223,47.524193]},"properties":{"common_name":"Beer Sheva Park","city_feature":"Parks","address":0,"website - url":"http://www.seattle.gov/parks/park_detail.asp?ID=440"}},{"type":"Feature","geometry":{"type":"Point","coordinates":[-122.26006214919,47.5143120790222]},"properties":{"common_name":"Hutchinson Playground","city_feature":"Parks","address":"S Norfolk St and 59th Ave S","website - url":"http://www.seattle.gov/parks/park_detail.asp?ID=439"}},{"type":"Feature","geometry":{"type":"Point","coordinates":[-122.307833800029,47.7056715231328]},"properties":{"common_name":"Victory Heights Playground","city_feature":"Parks","address":"1737 NE 106th St","website - url":"http://www.seattle.gov/parks/park_detail.asp?ID=438"}},{"type":"Feature","geometry":{"type":"Point","coordinates":[-122.284294216374,47.5189982440007]},"properties":{"common_name":"Benefit Playground","city_feature":"Parks","address":"9320 38th Ave S","website - url":"http://www.seattle.gov/parks/park_detail.asp?ID=436"}},{"type":"Feature","geometry":{"type":"Point","coordinates":[-122.319312327795,47.6644474051006]},"properties":{"common_name":"University Playground","city_feature":"Parks","address":"9th Ave NE and NE 50th St.","website - url":"http://www.seattle.gov/parks/park_detail.asp?ID=435"}},{"type":"Feature","geometry":{"type":"Point","coordinates":[-122.318451,47.592681]},"properties":{"common_name":"Dr. Jose Rizal Park","city_feature":"Parks","address":0,"website - url":"http://www.seattle.gov/parks/park_detail.asp?ID=433"}},{"type":"Feature","geometry":{"type":"Point","coordinates":[-122.260054,47.542398]},"properties":{"common_name":"Martha Washington Park","city_feature":"Parks","address":0,"website - url":"http://www.seattle.gov/parks/park_detail.asp?ID=432"}},{"type":"Feature","geometry":{"type":"Point","coordinates":[-122.294067595442,47.5394460989017]},"properties":{"common_name":"Van Asselt Playground","city_feature":"Parks","address":"7200 Beacon Ave S","website - url":"http://www.seattle.gov/parks/park_detail.asp?ID=431"}},{"type":"Feature","geometry":{"type":"Point","coordinates":[-122.318981,47.603132]},"properties":{"common_name":"Horiuchi Park","city_feature":"Parks","address":"156 BOREN AVE","website - url":"http://www.seattle.gov/parks/park_detail.asp?ID=43"}},{"type":"Feature","geometry":{"type":"Point","coordinates":[-122.286687,47.539047]},"properties":{"common_name":"John C. Little, Sr. Park","city_feature":"Parks","address":"6961 37th Avenue S","website - url":"http://www.seattle.gov/parks/park_detail.asp?ID=429"}},{"type":"Feature","geometry":{"type":"Point","coordinates":[-122.252449,47.5543]},"properties":{"common_name":"Seward Park","city_feature":"Parks","address":0,"website - url":"http://www.seattle.gov/parks/park_detail.asp?ID=428"}},{"type":"Feature","geometry":{"type":"Point","coordinates":[-122.385487,47.670549]},"properties":{"common_name":"Ballard Commons Park","city_feature":"Parks","address":"5701 22ND AVENUE NW","website - url":"http://www.seattle.gov/parks/park_detail.asp?ID=4278"}},{"type":"Feature","geometry":{"type":"Point","coordinates":[-122.320082556586,47.601261682324]},"properties":{"common_name":"Yesler Playfield","city_feature":"Parks","address":"917 E Yesler Way","website - url":"http://www.seattle.gov/parks/park_detail.asp?ID=4263"}},{"type":"Feature","geometry":{"type":"Point","coordinates":[-122.303028784202,47.589840775465]},"properties":{"common_name":"Benvenuto Viewpoint","city_feature":"Parks","address":"1401 23rd Ave S","website - url":"http://www.seattle.gov/parks/park_detail.asp?ID=4245"}},{"type":"Feature","geometry":{"type":"Point","coordinates":[-122.306962470517,47.5916324990486]},"properties":{"common_name":"Judge Charles M. Stokes Overlook","city_feature":"Parks","address":"S Judkins St and 20th Ave S","website - url":"http://www.seattle.gov/parks/park_detail.asp?ID=4244"}},{"type":"Feature","geometry":{"type":"Point","coordinates":[-122.30566,47.589165]},"properties":{"common_name":"Atlantic Street Park","city_feature":"Parks","address":"S ATLANTIC ST\\21ST AVE S","website - url":"http://www.seattle.gov/parks/park_detail.asp?ID=4243"}},{"type":"Feature","geometry":{"type":"Point","coordinates":[-122.297816,47.589982]},"properties":{"common_name":"Sam Smith Park","city_feature":"Parks","address":0,"website - url":"http://www.seattle.gov/parks/park_detail.asp?ID=4242"}},{"type":"Feature","geometry":{"type":"Point","coordinates":[-122.287892664034,47.5902217990605]},"properties":{"common_name":"East Portal Viewpoint","city_feature":"Parks","address":"1400 Lake Washington Blvd S","website - url":"http://www.seattle.gov/parks/park_detail.asp?ID=4241"}},{"type":"Feature","geometry":{"type":"Point","coordinates":[-122.286200070963,47.5618173265164]},"properties":{"common_name":"Rainier Playfield","city_feature":"Parks","address":"3700 S Alaska St.","website - url":"http://www.seattle.gov/parks/park_detail.asp?ID=423"}},{"type":"Feature","geometry":{"type":"Point","coordinates":[-122.273135760829,47.5250409543704]},"properties":{"common_name":"Rainer Beach Playfield","city_feature":"Parks","address":"8802 Rainier Ave S","website - url":"http://www.seattle.gov/parks/park_detail.asp?ID=422"}},{"type":"Feature","geometry":{"type":"Point","coordinates":[-122.258376,47.520135]},"properties":{"common_name":"Chinook Beach Park","city_feature":"Parks","address":"RAINIER AVE S / S ITHACA ST","website - url":"http://www.seattle.gov/parks/park_detail.asp?ID=421"}},{"type":"Feature","geometry":{"type":"Point","coordinates":[-122.359946978632,47.5473683327228]},"properties":{"common_name":"Puget Ridge Playground","city_feature":"Parks","address":"21st Ave SW and Croft Pl SW","website - url":"http://www.seattle.gov/parks/park_detail.asp?ID=4201"}},{"type":"Feature","geometry":{"type":"Point","coordinates":[-122.339143311923,47.61913845141]},"properties":{"common_name":"Denny Playfield","city_feature":"Parks","address":0,"website - url":"http://www.seattle.gov/parks/park_detail.asp?ID=4200"}},{"type":"Feature","geometry":{"type":"Point","coordinates":[-122.262831,47.52895]},"properties":{"common_name":"Pritchard Island Beach","city_feature":"Parks","address":0,"website - url":"http://www.seattle.gov/parks/park_detail.asp?ID=420"}},{"type":"Feature","geometry":{"type":"Point","coordinates":[-122.288481,47.580957]},"properties":{"common_name":"Mount Baker Park","city_feature":"Parks","address":0,"website - url":"http://www.seattle.gov/parks/park_detail.asp?ID=419"}},{"type":"Feature","geometry":{"type":"Point","coordinates":[-122.31884514896,47.5600408806488]},"properties":{"common_name":"Maple Wood Playfield","city_feature":"Parks","address":"4801 Corson Ave S","website - url":"http://www.seattle.gov/parks/park_detail.asp?ID=418"}},{"type":"Feature","geometry":{"type":"Point","coordinates":[-122.288042,47.725808]},"properties":{"common_name":"Cedar Park","city_feature":"Parks","address":"3707 NE 135TH STREET","website - url":"http://www.seattle.gov/parks/park_detail.asp?ID=4167"}},{"type":"Feature","geometry":{"type":"Point","coordinates":[-122.277487,47.652696]},"properties":{"common_name":"Laurelhurst Triangle","city_feature":"Parks","address":"46TH AV NE/E LAURELHURST DR NE","website - url":"http://www.seattle.gov/parks/park_detail.asp?ID=4162"}},{"type":"Feature","geometry":{"type":"Point","coordinates":[-122.406561,47.672185]},"properties":{"common_name":"Northwest 60th Viewpoint","city_feature":"Parks","address":0,"website - url":"http://www.seattle.gov/parks/park_detail.asp?ID=4161"}},{"type":"Feature","geometry":{"type":"Point","coordinates":[-122.307629,47.707034]},"properties":{"common_name":"Thornton Creek Park #1","city_feature":"Parks","address":"1302 10TH AVE NE","website - url":"http://www.seattle.gov/parks/park_detail.asp?ID=416"}},{"type":"Feature","geometry":{"type":"Point","coordinates":[-122.317764,47.577955]},"properties":{"common_name":"Twelfth Avenue South Viewpoint","city_feature":"Parks","address":0,"website - url":"http://www.seattle.gov/parks/park_detail.asp?ID=4159"}},{"type":"Feature","geometry":{"type":"Point","coordinates":[-122.366001,47.55437]},"properties":{"common_name":"Greg Davis Park","city_feature":"Parks","address":0,"website - url":"http://www.seattle.gov/parks/park_detail.asp?ID=4157"}},{"type":"Feature","geometry":{"type":"Point","coordinates":[-122.373161,47.556242]},"properties":{"common_name":"Camp Long","city_feature":"Parks","address":"5200 35TH AVE SW","website - url":"http://www.seattle.gov/parks/park_detail.asp?ID=4154"}},{"type":"Feature","geometry":{"type":"Point","coordinates":[-122.270059558155,47.5588308046035]},"properties":{"common_name":"Lakewood Plaground","city_feature":"Parks","address":"5013 S Angeline St","website - url":"http://www.seattle.gov/parks/park_detail.asp?ID=414"}},{"type":"Feature","geometry":{"type":"Point","coordinates":[-122.247429,47.506033]},"properties":{"common_name":"Lakeridge Park","city_feature":"Parks","address":0,"website - url":"http://www.seattle.gov/parks/park_detail.asp?ID=411"}},{"type":"Feature","geometry":{"type":"Point","coordinates":[-122.321395622454,47.5516197319685]},"properties":{"common_name":"Georgetown Playfield","city_feature":"Parks","address":"750 S Homer St","website - url":"http://www.seattle.gov/parks/park_detail.asp?ID=410"}},{"type":"Feature","geometry":{"type":"Point","coordinates":[-122.278746,47.564857]},"properties":{"common_name":"Genesee Park And Playfield","city_feature":"Parks","address":0,"website - url":"http://www.seattle.gov/parks/park_detail.asp?ID=409"}},{"type":"Feature","geometry":{"type":"Point","coordinates":[-122.332567,47.646349]},"properties":{"common_name":"Waterway 19","city_feature":"Parks","address":0,"website - url":"http://www.seattle.gov/parks/park_detail.asp?ID=4083"}},{"type":"Feature","geometry":{"type":"Point","coordinates":[-122.285724,47.590365]},"properties":{"common_name":"South Day Street Park","city_feature":"Parks","address":"1400 LAKESIDE AVE S","website - url":"http://www.seattle.gov/parks/park_detail.asp?ID=4082"}},{"type":"Feature","geometry":{"type":"Point","coordinates":[-122.30367,47.668089]},"properties":{"common_name":"Ravenna Park Triangle","city_feature":"Parks","address":0,"website - url":"http://www.seattle.gov/parks/park_detail.asp?ID=4080"}},{"type":"Feature","geometry":{"type":"Point","coordinates":[-122.296225,47.553389]},"properties":{"common_name":"Dearborn Park","city_feature":"Parks","address":0,"website - url":"http://www.seattle.gov/parks/park_detail.asp?ID=408"}},{"type":"Feature","geometry":{"type":"Point","coordinates":[-122.314435,47.592857]},"properties":{"common_name":"Lewis Park","city_feature":"Parks","address":0,"website - url":"http://www.seattle.gov/parks/park_detail.asp?ID=4076"}},{"type":"Feature","geometry":{"type":"Point","coordinates":[-122.32975,47.639849]},"properties":{"common_name":"Lynn Street Mini Park","city_feature":"Parks","address":0,"website - url":"http://www.seattle.gov/parks/park_detail.asp?ID=4075"}},{"type":"Feature","geometry":{"type":"Point","coordinates":[-122.32343,47.685762]},"properties":{"common_name":"Banner Way Triangles","city_feature":"Parks","address":0,"website - url":"http://www.seattle.gov/parks/park_detail.asp?ID=4073"}},{"type":"Feature","geometry":{"type":"Point","coordinates":[-122.381394,47.693703]},"properties":{"common_name":"Crown Hill Glen","city_feature":"Parks","address":"8735 19TH AVE NW","website - url":"http://www.seattle.gov/parks/park_detail.asp?ID=4070"}},{"type":"Feature","geometry":{"type":"Point","coordinates":[-122.301957035525,47.587625380775]},"properties":{"common_name":"Colman Playground","city_feature":"Parks","address":"1740 23rd Ave S","website - url":"http://www.seattle.gov/parks/park_detail.asp?ID=406"}},{"type":"Feature","geometry":{"type":"Point","coordinates":[-122.288611,47.585469]},"properties":{"common_name":"Colman Park","city_feature":"Parks","address":0,"website - url":"http://www.seattle.gov/parks/park_detail.asp?ID=405"}},{"type":"Feature","geometry":{"type":"Point","coordinates":[-122.415934,47.650028]},"properties":{"common_name":"Carleton Highlands","city_feature":"Parks","address":"3298 Perkins Lane W.","website - url":"http://www.seattle.gov/parks/park_detail.asp?ID=4049"}},{"type":"Feature","geometry":{"type":"Point","coordinates":[-122.323649,47.520795]},"properties":{"common_name":"South Park Meadow","city_feature":"Parks","address":0,"website - url":"http://www.seattle.gov/parks/park_detail.asp?ID=4048"}},{"type":"Feature","geometry":{"type":"Point","coordinates":[-122.320476,47.682713]},"properties":{"common_name":"Rainbow Point","city_feature":"Parks","address":"625 NE BANNER PLACE","website - url":"http://www.seattle.gov/parks/park_detail.asp?ID=4045"}},{"type":"Feature","geometry":{"type":"Point","coordinates":[-122.315542025326,47.5520115483017]},"properties":{"common_name":"Cleveland Playfield","city_feature":"Parks","address":"S Lucile St and 13th Ave S","website - url":"http://www.seattle.gov/parks/park_detail.asp?ID=404"}},{"type":"Feature","geometry":{"type":"Point","coordinates":[-122.287395,47.559792]},"properties":{"common_name":"Columbia Park","city_feature":"Parks","address":0,"website - url":"http://www.seattle.gov/parks/park_detail.asp?ID=4034"}},{"type":"Feature","geometry":{"type":"Point","coordinates":[-122.278104890608,47.5362144800422]},"properties":{"common_name":"Othello Playground","city_feature":"Parks","address":"4351 S Othello St","website - url":"http://www.seattle.gov/parks/park_detail.asp?ID=403"}},{"type":"Feature","geometry":{"type":"Point","coordinates":[-122.312027,47.671888]},"properties":{"common_name":"Beck Place","city_feature":"Parks","address":0,"website - url":"http://www.seattle.gov/parks/park_detail.asp?ID=4028"}},{"type":"Feature","geometry":{"type":"Point","coordinates":[-122.28372,47.576058]},"properties":{"common_name":"Lakewood Triangle","city_feature":"Parks","address":0,"website - url":"http://www.seattle.gov/parks/park_detail.asp?ID=4024"}},{"type":"Feature","geometry":{"type":"Point","coordinates":[-122.292028169283,47.7077147290923]},"properties":{"common_name":"Nathan Hale Playfield","city_feature":"Parks","address":"10750 30th Ave NE","website - url":"http://www.seattle.gov/parks/park_detail.asp?ID=4023"}},{"type":"Feature","geometry":{"type":"Point","coordinates":[-122.327658,47.626904]},"properties":{"common_name":"Bellevue Place","city_feature":"Parks","address":0,"website - url":"http://www.seattle.gov/parks/park_detail.asp?ID=4022"}},{"type":"Feature","geometry":{"type":"Point","coordinates":[-122.282099579571,47.548387353425]},"properties":{"common_name":"Brighton Playfield","city_feature":"Parks","address":"6000 39th Ave S","website - url":"http://www.seattle.gov/parks/park_detail.asp?ID=402"}},{"type":"Feature","geometry":{"type":"Point","coordinates":[-122.28642,47.580737]},"properties":{"common_name":"Mount Claire Park","city_feature":"Parks","address":0,"website - url":"http://www.seattle.gov/parks/park_detail.asp?ID=4019"}},{"type":"Feature","geometry":{"type":"Point","coordinates":[-122.333029,47.684317]},"properties":{"common_name":"Crescent Place","city_feature":"Parks","address":0,"website - url":"http://www.seattle.gov/parks/park_detail.asp?ID=4018"}},{"type":"Feature","geometry":{"type":"Point","coordinates":[-122.330874,47.665198]},"properties":{"common_name":"Corliss Place","city_feature":"Parks","address":"N 50TH ST / KEYSTONE PL N","website - url":"http://www.seattle.gov/parks/park_detail.asp?ID=4017"}},{"type":"Feature","geometry":{"type":"Point","coordinates":[-122.313094,47.619809]},"properties":{"common_name":"Williams Place","city_feature":"Parks","address":0,"website - url":"http://www.seattle.gov/parks/park_detail.asp?ID=4016"}},{"type":"Feature","geometry":{"type":"Point","coordinates":[-122.305711,47.620311]},"properties":{"common_name":"Miller Triangle","city_feature":"Parks","address":0,"website - url":"http://www.seattle.gov/parks/park_detail.asp?ID=4015"}},{"type":"Feature","geometry":{"type":"Point","coordinates":[-122.250038,47.510613]},"properties":{"common_name":"Thayer Place","city_feature":"Parks","address":0,"website - url":"http://www.seattle.gov/parks/park_detail.asp?ID=4014"}},{"type":"Feature","geometry":{"type":"Point","coordinates":[-122.405566,47.63769]},"properties":{"common_name":"Eastmont Place","city_feature":"Parks","address":0,"website - url":"http://www.seattle.gov/parks/park_detail.asp?ID=4012"}},{"type":"Feature","geometry":{"type":"Point","coordinates":[-122.357864,47.651802]},"properties":{"common_name":"Fremont Canal Park","city_feature":"Parks","address":0,"website - url":"http://www.seattle.gov/parks/park_detail.asp?ID=4011"}},{"type":"Feature","geometry":{"type":"Point","coordinates":[-122.295426,47.587419]},"properties":{"common_name":"Bradner Gardens Park","city_feature":"Parks","address":0,"website - url":"http://www.seattle.gov/parks/park_detail.asp?ID=401"}},{"type":"Feature","geometry":{"type":"Point","coordinates":[-122.410083,47.640142]},"properties":{"common_name":"Parkmont Place","city_feature":"Parks","address":"MAGNOLIA BLVD W/W PARKMONT PL","website - url":"http://www.seattle.gov/parks/park_detail.asp?ID=4009"}},{"type":"Feature","geometry":{"type":"Point","coordinates":[-122.313032,47.614233]},"properties":{"common_name":"Mcgilvra Place","city_feature":"Parks","address":0,"website - url":"http://www.seattle.gov/parks/park_detail.asp?ID=4008"}},{"type":"Feature","geometry":{"type":"Point","coordinates":[-122.330086,47.599362]},"properties":{"common_name":"Union Station Square","city_feature":"Parks","address":0,"website - url":"http://www.seattle.gov/parks/park_detail.asp?ID=4007"}},{"type":"Feature","geometry":{"type":"Point","coordinates":[-122.318346887431,47.6430148390685]},"properties":{"common_name":"Bagley Viewpoint","city_feature":"Parks","address":"2548 Delmar Dr E","website - url":"http://www.seattle.gov/parks/park_detail.asp?ID=4006"}},{"type":"Feature","geometry":{"type":"Point","coordinates":[-122.284261,47.615231]},"properties":{"common_name":"Madrona Briar Patch","city_feature":"Parks","address":0,"website - url":"http://www.seattle.gov/parks/park_detail.asp?ID=4005"}},{"type":"Feature","geometry":{"type":"Point","coordinates":[-122.299373591493,47.7179550153166]},"properties":{"common_name":"Lake City Playground","city_feature":"Parks","address":"2750 NE 125th St","website - url":"http://www.seattle.gov/parks/park_detail.asp?ID=4002"}},{"type":"Feature","geometry":{"type":"Point","coordinates":[-122.280809,47.691145]},"properties":{"common_name":"Inverness Ravine Park","city_feature":"Parks","address":0,"website - url":"http://www.seattle.gov/parks/park_detail.asp?ID=4001"}},{"type":"Feature","geometry":{"type":"Point","coordinates":[-122.329092,47.614124]},"properties":{"common_name":"Plymouth Pillars Park","city_feature":"Parks","address":0,"website - url":"http://www.seattle.gov/parks/park_detail.asp?ID=4000"}},{"type":"Feature","geometry":{"type":"Point","coordinates":[-122.315324628371,47.5862263145601]},"properties":{"common_name":"Beacon Hill Playground","city_feature":"Parks","address":"1902 13th Ave S","website - url":"http://www.seattle.gov/parks/park_detail.asp?ID=400"}},{"type":"Feature","geometry":{"type":"Point","coordinates":[-122.359434,47.667567]},"properties":{"common_name":"Rainier Place","city_feature":"Parks","address":"298 NW 53RD ST","website - url":"http://www.seattle.gov/parks/park_detail.asp?ID=3999"}},{"type":"Feature","geometry":{"type":"Point","coordinates":[-122.28006,47.718937]},"properties":{"common_name":"University Lake Shore Place","city_feature":"Parks","address":"4275 NE 125TH ST","website - url":"http://www.seattle.gov/parks/park_detail.asp?ID=3998"}},{"type":"Feature","geometry":{"type":"Point","coordinates":[-122.355836,47.717936]},"properties":{"common_name":"Broadview Park","city_feature":"Parks","address":0,"website - url":"http://www.seattle.gov/parks/park_detail.asp?ID=3997"}},{"type":"Feature","geometry":{"type":"Point","coordinates":[-122.358556,47.55187]},"properties":{"common_name":"Puget Creek Greenspace","city_feature":"Parks","address":"SW BRANDON ST/19TH AVE SW","website - url":"http://www.seattle.gov/parks/park_detail.asp?ID=3993"}},{"type":"Feature","geometry":{"type":"Point","coordinates":[-122.315568,47.630378]},"properties":{"common_name":"Volunteer Park","city_feature":"Parks","address":0,"website - url":"http://www.seattle.gov/parks/park_detail.asp?ID=399"}},{"type":"Feature","geometry":{"type":"Point","coordinates":[-122.37141,47.640849]},"properties":{"common_name":"Soundview Terrace","city_feature":"Parks","address":0,"website - url":"http://www.seattle.gov/parks/park_detail.asp?ID=3987"}},{"type":"Feature","geometry":{"type":"Point","coordinates":[-122.365952,47.640108]},"properties":{"common_name":"Coe Play Park","city_feature":"Parks","address":0,"website - url":"http://www.seattle.gov/parks/park_detail.asp?ID=3985"}},{"type":"Feature","geometry":{"type":"Point","coordinates":[-122.359710617651,47.6455992268977]},"properties":{"common_name":"Queen Anne Bowl Playfield","city_feature":"Parks","address":"2806 3rd Ave W","website - url":"http://www.seattle.gov/parks/park_detail.asp?ID=3984"}},{"type":"Feature","geometry":{"type":"Point","coordinates":[-122.280548,47.62011]},"properties":{"common_name":"Denny Blaine Park","city_feature":"Parks","address":0,"website - url":"http://www.seattle.gov/parks/park_detail.asp?ID=3982"}},{"type":"Feature","geometry":{"type":"Point","coordinates":[-122.283592,47.619443]},"properties":{"common_name":"Stevens Triangle","city_feature":"Parks","address":0,"website - url":"http://www.seattle.gov/parks/park_detail.asp?ID=3981"}},{"type":"Feature","geometry":{"type":"Point","coordinates":[-122.284838,47.61833]},"properties":{"common_name":"Denny Blaine Lake Park","city_feature":"Parks","address":0,"website - url":"http://www.seattle.gov/parks/park_detail.asp?ID=3980"}},{"type":"Feature","geometry":{"type":"Point","coordinates":[-122.255086,47.680304]},"properties":{"common_name":"Warren G. Magnuson Park","city_feature":"Parks","address":"6550 Sand Point Wy NE","website - url":"http://www.seattle.gov/parks/park_detail.asp?ID=398"}},{"type":"Feature","geometry":{"type":"Point","coordinates":[-122.355466,47.629656]},"properties":{"common_name":"Highland Place","city_feature":"Parks","address":"HIGHLAND DR / 1ST AVE N","website - url":"http://www.seattle.gov/parks/park_detail.asp?ID=3979"}},{"type":"Feature","geometry":{"type":"Point","coordinates":[-122.328918,47.62841]},"properties":{"common_name":"Eastlake Triangle","city_feature":"Parks","address":0,"website - url":"http://www.seattle.gov/parks/park_detail.asp?ID=3977"}},{"type":"Feature","geometry":{"type":"Point","coordinates":[-122.322634,47.671728]},"properties":{"common_name":"Ne 60th Street Park","city_feature":"Parks","address":"5TH AVE NE/NE 60TH ST","website - url":"http://www.seattle.gov/parks/park_detail.asp?ID=3975"}},{"type":"Feature","geometry":{"type":"Point","coordinates":[-122.342196,47.606778]},"properties":{"common_name":"Waterfront Park","city_feature":"Parks","address":0,"website - url":"http://www.seattle.gov/parks/park_detail.asp?ID=3973"}},{"type":"Feature","geometry":{"type":"Point","coordinates":[-122.246841,47.510321]},"properties":{"common_name":"Lakeridge Playground","city_feature":"Parks","address":0,"website - url":"http://www.seattle.gov/parks/park_detail.asp?ID=3972"}},{"type":"Feature","geometry":{"type":"Point","coordinates":[-122.303953,47.592425]},"properties":{"common_name":"Judkins Park And Playfield","city_feature":"Parks","address":0,"website - url":"http://www.seattle.gov/parks/park_detail.asp?ID=397"}},{"type":"Feature","geometry":{"type":"Point","coordinates":[-122.304179,47.600278]},"properties":{"common_name":"Dr. Blanche Lavizzo Park","city_feature":"Parks","address":0,"website - url":"http://www.seattle.gov/parks/park_detail.asp?ID=395"}},{"type":"Feature","geometry":{"type":"Point","coordinates":[-122.261484,47.519093]},"properties":{"common_name":"Fletcher Place","city_feature":"Parks","address":0,"website - url":"http://www.seattle.gov/parks/park_detail.asp?ID=3948"}},{"type":"Feature","geometry":{"type":"Point","coordinates":[-122.38779,47.520876]},"properties":{"common_name":"Katharine Colman Triangle","city_feature":"Parks","address":0,"website - url":"http://www.seattle.gov/parks/park_detail.asp?ID=3942"}},{"type":"Feature","geometry":{"type":"Point","coordinates":[-122.373414932477,47.5401697408767]},"properties":{"common_name":"High Point Playfield","city_feature":"Parks","address":"6920 34th Ave SW","website - url":"http://www.seattle.gov/parks/park_detail.asp?ID=3941"}},{"type":"Feature","geometry":{"type":"Point","coordinates":[-122.308131595437,47.6971318737822]},"properties":{"common_name":"Sacajawea Playground","city_feature":"Parks","address":"1726 NE 94th St","website - url":"http://www.seattle.gov/parks/park_detail.asp?ID=394"}},{"type":"Feature","geometry":{"type":"Point","coordinates":[-122.294833,47.636478]},"properties":{"common_name":"Foster Island (Wash. Park)","city_feature":"Parks","address":0,"website - url":"http://www.seattle.gov/parks/park_detail.asp?ID=393"}},{"type":"Feature","geometry":{"type":"Point","coordinates":[-122.282492,47.573282]},"properties":{"common_name":"Sierra Place","city_feature":"Parks","address":0,"website - url":"http://www.seattle.gov/parks/park_detail.asp?ID=3928"}},{"type":"Feature","geometry":{"type":"Point","coordinates":[-122.29071342709,47.5726945845554]},"properties":{"common_name":"York Playground","city_feature":"Parks","address":"3327 34th Ave S","website - url":"http://www.seattle.gov/parks/park_detail.asp?ID=3926"}},{"type":"Feature","geometry":{"type":"Point","coordinates":[-122.297163,47.582757]},"properties":{"common_name":"Martin Luther King Jr Memorial","city_feature":"Parks","address":0,"website - url":"http://www.seattle.gov/parks/park_detail.asp?ID=3923"}},{"type":"Feature","geometry":{"type":"Point","coordinates":[-122.294616,47.582697]},"properties":{"common_name":"College Street Park","city_feature":"Parks","address":"2915 S COLLEGE ST","website - url":"http://www.seattle.gov/parks/park_detail.asp?ID=3922"}},{"type":"Feature","geometry":{"type":"Point","coordinates":[-122.379834,47.562715]},"properties":{"common_name":"Fauntleroy Place","city_feature":"Parks","address":0,"website - url":"http://www.seattle.gov/parks/park_detail.asp?ID=3921"}},{"type":"Feature","geometry":{"type":"Point","coordinates":[-122.40712042032,47.5628975696743]},"properties":{"common_name":"Emma Schmitz Memorial Overlook","city_feature":"Parks","address":"4503 Beach Dr. SW","website - url":"http://www.seattle.gov/parks/park_detail.asp?ID=3920"}},{"type":"Feature","geometry":{"type":"Point","coordinates":[-122.290256,47.599506]},"properties":{"common_name":"Leschi Park","city_feature":"Parks","address":"100 LAKESIDE AV S","website - url":"http://www.seattle.gov/parks/park_detail.asp?ID=392"}},{"type":"Feature","geometry":{"type":"Point","coordinates":[-122.310563,47.577122]},"properties":{"common_name":"Stevens Place","city_feature":"Parks","address":0,"website - url":"http://www.seattle.gov/parks/park_detail.asp?ID=3919"}},{"type":"Feature","geometry":{"type":"Point","coordinates":[-122.311952,47.578768]},"properties":{"common_name":"Mcclellan Place","city_feature":"Parks","address":0,"website - url":"http://www.seattle.gov/parks/park_detail.asp?ID=3918"}},{"type":"Feature","geometry":{"type":"Point","coordinates":[-122.397063,47.579565]},"properties":{"common_name":"Nantes Park","city_feature":"Parks","address":"5062 SW ADMIRAL WAY","website - url":"http://www.seattle.gov/parks/park_detail.asp?ID=3916"}},{"type":"Feature","geometry":{"type":"Point","coordinates":[-122.324494,47.60042]},"properties":{"common_name":"Kobe Terrace","city_feature":"Parks","address":0,"website - url":"http://www.seattle.gov/parks/park_detail.asp?ID=3915"}},{"type":"Feature","geometry":{"type":"Point","coordinates":[-122.288745,47.614318]},"properties":{"common_name":"Alvin Larkins Park","city_feature":"Parks","address":0,"website - url":"http://www.seattle.gov/parks/park_detail.asp?ID=3914"}},{"type":"Feature","geometry":{"type":"Point","coordinates":[-122.310543098826,47.6131107170061]},"properties":{"common_name":"T.T. Minor Playground","city_feature":"Parks","address":"17th Ave E and E Union St","website - url":"http://www.seattle.gov/parks/park_detail.asp?ID=3913"}},{"type":"Feature","geometry":{"type":"Point","coordinates":[-122.325512,47.611906]},"properties":{"common_name":"First Hill Park","city_feature":"Parks","address":0,"website - url":"http://www.seattle.gov/parks/park_detail.asp?ID=3910"}},{"type":"Feature","geometry":{"type":"Point","coordinates":[-122.305705,47.671402]},"properties":{"common_name":"Ravenna Park","city_feature":"Parks","address":0,"website - url":"http://www.seattle.gov/parks/park_detail.asp?ID=391"}},{"type":"Feature","geometry":{"type":"Point","coordinates":[-122.347411,47.618382]},"properties":{"common_name":"Tilikum Place","city_feature":"Parks","address":"5TH AVE & DENNY WAY","website - url":"http://www.seattle.gov/parks/park_detail.asp?ID=3909"}},{"type":"Feature","geometry":{"type":"Point","coordinates":[-122.364152,47.626809]},"properties":{"common_name":"Blaine Place","city_feature":"Parks","address":0,"website - url":"http://www.seattle.gov/parks/park_detail.asp?ID=3907"}},{"type":"Feature","geometry":{"type":"Point","coordinates":[-122.282887,47.632304]},"properties":{"common_name":"Hyde Place","city_feature":"Parks","address":0,"website - url":"http://www.seattle.gov/parks/park_detail.asp?ID=3905"}},{"type":"Feature","geometry":{"type":"Point","coordinates":[-122.358092,47.666216]},"properties":{"common_name":"Cascade Place","city_feature":"Parks","address":"5199 PALMER CT NW","website - url":"http://www.seattle.gov/parks/park_detail.asp?ID=3902"}},{"type":"Feature","geometry":{"type":"Point","coordinates":[-122.357602,47.666686]},"properties":{"common_name":"Sunset Place","city_feature":"Parks","address":"1ST AVE NW /  NW 52ND ST","website - url":"http://www.seattle.gov/parks/park_detail.asp?ID=3901"}},{"type":"Feature","geometry":{"type":"Point","coordinates":[-122.307463,47.600705]},"properties":{"common_name":"Pratt Park","city_feature":"Parks","address":0,"website - url":"http://www.seattle.gov/parks/park_detail.asp?ID=390"}},{"type":"Feature","geometry":{"type":"Point","coordinates":[-122.294772,47.688151]},"properties":{"common_name":"Wedgwood Square","city_feature":"Parks","address":0,"website - url":"http://www.seattle.gov/parks/park_detail.asp?ID=3899"}},{"type":"Feature","geometry":{"type":"Point","coordinates":[-122.329689,47.636741]},"properties":{"common_name":"Terry Pettus Park","city_feature":"Parks","address":0,"website - url":"http://www.seattle.gov/parks/park_detail.asp?ID=3889"}},{"type":"Feature","geometry":{"type":"Point","coordinates":[-122.379191275215,47.6472393920114]},"properties":{"common_name":"Interbay Athletic Complex","city_feature":"Parks","address":"3027 17th Ave W","website - url":"http://www.seattle.gov/parks/park_detail.asp?ID=3887"}},{"type":"Feature","geometry":{"type":"Point","coordinates":[-122.315612904851,47.6890145029702]},"properties":{"common_name":"Maple Leaf Playground","city_feature":"Parks","address":"1020 NE 82nd St","website - url":"http://www.seattle.gov/parks/park_detail.asp?ID=3881"}},{"type":"Feature","geometry":{"type":"Point","coordinates":[-122.333769,47.670304]},"properties":{"common_name":"Keystone Place","city_feature":"Parks","address":0,"website - url":"http://www.seattle.gov/parks/park_detail.asp?ID=3880"}},{"type":"Feature","geometry":{"type":"Point","coordinates":[-122.299142,47.617053]},"properties":{"common_name":"Plum Tree Park","city_feature":"Parks","address":0,"website - url":"http://www.seattle.gov/parks/park_detail.asp?ID=387"}},{"type":"Feature","geometry":{"type":"Point","coordinates":[-122.326216,47.621036]},"properties":{"common_name":"Thomas Street Mini Park","city_feature":"Parks","address":0,"website - url":"http://www.seattle.gov/parks/park_detail.asp?ID=386"}},{"type":"Feature","geometry":{"type":"Point","coordinates":[-122.29294,47.618021]},"properties":{"common_name":"William Grose Park","city_feature":"Parks","address":"1814 30TH AVE E","website - url":"http://www.seattle.gov/parks/park_detail.asp?ID=385"}},{"type":"Feature","geometry":{"type":"Point","coordinates":[-122.323444,47.62379]},"properties":{"common_name":"Tashkent Park","city_feature":"Parks","address":0,"website - url":"http://www.seattle.gov/parks/park_detail.asp?ID=384"}},{"type":"Feature","geometry":{"type":"Point","coordinates":[-122.325708,47.627081]},"properties":{"common_name":"Summit Place","city_feature":"Parks","address":0,"website - url":"http://www.seattle.gov/parks/park_detail.asp?ID=383"}},{"type":"Feature","geometry":{"type":"Point","coordinates":[-122.314628211158,47.7164362240396]},"properties":{"common_name":"Pinehurst Playground","city_feature":"Parks","address":"12029 14th Ave. NE","website - url":"http://www.seattle.gov/parks/park_detail.asp?ID=382"}},{"type":"Feature","geometry":{"type":"Point","coordinates":[-122.3124,47.611801]},"properties":{"common_name":"Spring Street Mini Park","city_feature":"Parks","address":0,"website - url":"http://www.seattle.gov/parks/park_detail.asp?ID=381"}},{"type":"Feature","geometry":{"type":"Point","coordinates":[-122.325256868431,47.6426009492446]},"properties":{"common_name":"Rogers Playground","city_feature":"Parks","address":"Eastlake Ave E and E Roanoke St","website - url":"http://www.seattle.gov/parks/park_detail.asp?ID=380"}},{"type":"Feature","geometry":{"type":"Point","coordinates":[-122.320185,47.643723]},"properties":{"common_name":"Roanoke Park","city_feature":"Parks","address":0,"website - url":"http://www.seattle.gov/parks/park_detail.asp?ID=379"}},{"type":"Feature","geometry":{"type":"Point","coordinates":[-122.29060161753,47.6027234663951]},"properties":{"common_name":"Peppi'S Playground","city_feature":"Parks","address":"3233 E Spruce St","website - url":"http://www.seattle.gov/parks/park_detail.asp?ID=378"}},{"type":"Feature","geometry":{"type":"Point","coordinates":[-122.322489,47.652204]},"properties":{"common_name":"South Passage Point Park","city_feature":"Parks","address":0,"website - url":"http://www.seattle.gov/parks/park_detail.asp?ID=377"}},{"type":"Feature","geometry":{"type":"Point","coordinates":[-122.310081020631,47.6424066868121]},"properties":{"common_name":"Montlake Playfield","city_feature":"Parks","address":"1618 E Calhoun St","website - url":"http://www.seattle.gov/parks/park_detail.asp?ID=376"}},{"type":"Feature","geometry":{"type":"Point","coordinates":[-122.296568,47.607709]},"properties":{"common_name":"Gerber Park","city_feature":"Parks","address":0,"website - url":"http://www.seattle.gov/parks/park_detail.asp?ID=3759"}},{"type":"Feature","geometry":{"type":"Point","coordinates":[-122.286524,47.656318]},"properties":{"common_name":"Union Bay Boglands #2","city_feature":"Parks","address":0,"website - url":"http://www.seattle.gov/parks/park_detail.asp?ID=3751"}},{"type":"Feature","geometry":{"type":"Point","coordinates":[-122.30982,47.646219]},"properties":{"common_name":"West Montlake Park","city_feature":"Parks","address":0,"website - url":"http://www.seattle.gov/parks/park_detail.asp?ID=375"}},{"type":"Feature","geometry":{"type":"Point","coordinates":[-122.301265,47.646019]},"properties":{"common_name":"East Montlake Park","city_feature":"Parks","address":0,"website - url":"http://www.seattle.gov/parks/park_detail.asp?ID=374"}},{"type":"Feature","geometry":{"type":"Point","coordinates":[-122.306261412155,47.6214333231101]},"properties":{"common_name":"Miller Playfield","city_feature":"Parks","address":"400 19th Ave E","website - url":"http://www.seattle.gov/parks/park_detail.asp?ID=373"}},{"type":"Feature","geometry":{"type":"Point","coordinates":[-122.300955,47.644951]},"properties":{"common_name":"Mccurdy (Horace) Park","city_feature":"Parks","address":"E HAMLIN ST / E PARK DR E","website - url":"http://www.seattle.gov/parks/park_detail.asp?ID=372"}},{"type":"Feature","geometry":{"type":"Point","coordinates":[-122.289885186905,47.6110216491653]},"properties":{"common_name":"Madrona Playground","city_feature":"Parks","address":"3211 E Spring St","website - url":"http://www.seattle.gov/parks/park_detail.asp?ID=371"}},{"type":"Feature","geometry":{"type":"Point","coordinates":[-122.416054352165,47.5751951223366]},"properties":{"common_name":"Bar-S Playground","city_feature":"Parks","address":"6425 SW Admiral Way","website - url":"http://www.seattle.gov/parks/park_detail.asp?ID=3703"}},{"type":"Feature","geometry":{"type":"Point","coordinates":[-122.28268,47.609298]},"properties":{"common_name":"Madrona Park","city_feature":"Parks","address":0,"website - url":"http://www.seattle.gov/parks/park_detail.asp?ID=370"}},{"type":"Feature","geometry":{"type":"Point","coordinates":[-122.321643,47.641091]},"properties":{"common_name":"Harvard-Miller/Roanoke Annex","city_feature":"Parks","address":0,"website - url":"http://www.seattle.gov/parks/park_detail.asp?ID=3695"}},{"type":"Feature","geometry":{"type":"Point","coordinates":[-122.360602,47.65205]},"properties":{"common_name":"West Ewing Mini Park","city_feature":"Parks","address":0,"website - url":"http://www.seattle.gov/parks/park_detail.asp?ID=3694"}},{"type":"Feature","geometry":{"type":"Point","coordinates":[-122.276692,47.63561]},"properties":{"common_name":"Madison Park","city_feature":"Parks","address":0,"website - url":"http://www.seattle.gov/parks/park_detail.asp?ID=369"}},{"type":"Feature","geometry":{"type":"Point","coordinates":[-122.28655,47.60093]},"properties":{"common_name":"Leschi Park","city_feature":"Parks","address":"100 LAKESIDE AV S","website - url":"http://www.seattle.gov/parks/park_detail.asp?ID=367"}},{"type":"Feature","geometry":{"type":"Point","coordinates":[-122.325705,47.62939]},"properties":{"common_name":"Lakeview Place","city_feature":"Parks","address":0,"website - url":"http://www.seattle.gov/parks/park_detail.asp?ID=366"}},{"type":"Feature","geometry":{"type":"Point","coordinates":[-122.284731,47.62205]},"properties":{"common_name":"Lakeview Park","city_feature":"Parks","address":0,"website - url":"http://www.seattle.gov/parks/park_detail.asp?ID=365"}},{"type":"Feature","geometry":{"type":"Point","coordinates":[-122.323412,47.596897]},"properties":{"common_name":"International Childrens Park","city_feature":"Parks","address":0,"website - url":"http://www.seattle.gov/parks/park_detail.asp?ID=364"}},{"type":"Feature","geometry":{"type":"Point","coordinates":[-122.295868,47.599557]},"properties":{"common_name":"Flo Ware Park","city_feature":"Parks","address":"2800 S JACKSON ST","website - url":"http://www.seattle.gov/parks/park_detail.asp?ID=363"}},{"type":"Feature","geometry":{"type":"Point","coordinates":[-122.326993,47.721559]},"properties":{"common_name":"Northacres Park","city_feature":"Parks","address":0,"website - url":"http://www.seattle.gov/parks/park_detail.asp?ID=361"}},{"type":"Feature","geometry":{"type":"Point","coordinates":[-122.280314,47.617519]},"properties":{"common_name":"Howell Park","city_feature":"Parks","address":0,"website - url":"http://www.seattle.gov/parks/park_detail.asp?ID=359"}},{"type":"Feature","geometry":{"type":"Point","coordinates":[-122.325435,47.598609]},"properties":{"common_name":"Hing Hay Park","city_feature":"Parks","address":0,"website - url":"http://www.seattle.gov/parks/park_detail.asp?ID=358"}},{"type":"Feature","geometry":{"type":"Point","coordinates":[-122.301614,47.622895]},"properties":{"common_name":"Prentis I. Frazier Park","city_feature":"Parks","address":0,"website - url":"http://www.seattle.gov/parks/park_detail.asp?ID=357"}},{"type":"Feature","geometry":{"type":"Point","coordinates":[-122.290339,47.619711]},"properties":{"common_name":"Harrison Ridge Greenbelt","city_feature":"Parks","address":0,"website - url":"http://www.seattle.gov/parks/park_detail.asp?ID=356"}},{"type":"Feature","geometry":{"type":"Point","coordinates":[-122.316261,47.636461]},"properties":{"common_name":"Grand Army Cemetery","city_feature":"Parks","address":0,"website - url":"http://www.seattle.gov/parks/park_detail.asp?ID=354"}},{"type":"Feature","geometry":{"type":"Point","coordinates":[-122.301411867027,47.6070978006384]},"properties":{"common_name":"Garfield Playfield","city_feature":"Parks","address":"23rd Ave and E Cherry St","website - url":"http://www.seattle.gov/parks/park_detail.asp?ID=353"}},{"type":"Feature","geometry":{"type":"Point","coordinates":[-122.293492857914,47.7057711129745]},"properties":{"common_name":"Meadowbrook Playfield","city_feature":"Parks","address":"10533 35th Ave NE","website - url":"http://www.seattle.gov/parks/park_detail.asp?ID=352"}},{"type":"Feature","geometry":{"type":"Point","coordinates":[-122.308558,47.608448]},"properties":{"common_name":"Firehouse Mini Park","city_feature":"Parks","address":0,"website - url":"http://www.seattle.gov/parks/park_detail.asp?ID=351"}},{"type":"Feature","geometry":{"type":"Point","coordinates":[-122.332354809849,47.6214052249468]},"properties":{"common_name":"Cascade Playground","city_feature":"Parks","address":"333 Pontius Ave N","website - url":"http://www.seattle.gov/parks/park_detail.asp?ID=350"}},{"type":"Feature","geometry":{"type":"Point","coordinates":[-122.32094,47.609976]},"properties":{"common_name":"Boylston Place","city_feature":"Parks","address":0,"website - url":"http://www.seattle.gov/parks/park_detail.asp?ID=349"}},{"type":"Feature","geometry":{"type":"Point","coordinates":[-122.320952,47.604999]},"properties":{"common_name":"Boren Place","city_feature":"Parks","address":0,"website - url":"http://www.seattle.gov/parks/park_detail.asp?ID=348"}},{"type":"Feature","geometry":{"type":"Point","coordinates":[-122.324408,47.625727]},"properties":{"common_name":"Belmont Place","city_feature":"Parks","address":0,"website - url":"http://www.seattle.gov/parks/park_detail.asp?ID=346"}},{"type":"Feature","geometry":{"type":"Point","coordinates":[-122.295998,47.605196]},"properties":{"common_name":"Powell Barnett Park","city_feature":"Parks","address":0,"website - url":"http://www.seattle.gov/parks/park_detail.asp?ID=345"}},{"type":"Feature","geometry":{"type":"Point","coordinates":[-122.337477,47.627142]},"properties":{"common_name":"Lake Union Park","city_feature":"Parks","address":0,"website - url":"http://www.seattle.gov/parks/park_detail.asp?ID=344"}},{"type":"Feature","geometry":{"type":"Point","coordinates":[-122.390161,47.635099]},"properties":{"common_name":"Thorndyke Park","city_feature":"Parks","address":0,"website - url":"http://www.seattle.gov/parks/park_detail.asp?ID=343"}},{"type":"Feature","geometry":{"type":"Point","coordinates":[-122.359873,47.629024]},"properties":{"common_name":"Kerry Park And Viewpoint","city_feature":"Parks","address":0,"website - url":"http://www.seattle.gov/parks/park_detail.asp?ID=342"}},{"type":"Feature","geometry":{"type":"Point","coordinates":[-122.278019181289,47.6598895174452]},"properties":{"common_name":"Laurelhurst Playfield","city_feature":"Parks","address":"4544 NE 41st St","website - url":"http://www.seattle.gov/parks/park_detail.asp?ID=340"}},{"type":"Feature","geometry":{"type":"Point","coordinates":[-122.337587,47.61299]},"properties":{"common_name":"Mcgraw Square","city_feature":"Parks","address":0,"website - url":"http://www.seattle.gov/parks/park_detail.asp?ID=339"}},{"type":"Feature","geometry":{"type":"Point","coordinates":[-122.343871,47.610153]},"properties":{"common_name":"Victor Steinbrueck Park","city_feature":"Parks","address":0,"website - url":"http://www.seattle.gov/parks/park_detail.asp?ID=338"}},{"type":"Feature","geometry":{"type":"Point","coordinates":[-122.344775,47.614331]},"properties":{"common_name":"Regrade Park","city_feature":"Parks","address":0,"website - url":"http://www.seattle.gov/parks/park_detail.asp?ID=336"}},{"type":"Feature","geometry":{"type":"Point","coordinates":[-122.337285,47.613627]},"properties":{"common_name":"Westlake Square","city_feature":"Parks","address":0,"website - url":"http://www.seattle.gov/parks/park_detail.asp?ID=334"}},{"type":"Feature","geometry":{"type":"Point","coordinates":[-122.295266,47.718819]},"properties":{"common_name":"Lake City Memorial Triangle","city_feature":"Parks","address":0,"website - url":"http://www.seattle.gov/parks/park_detail.asp?ID=333"}},{"type":"Feature","geometry":{"type":"Point","coordinates":[-122.33724,47.611099]},"properties":{"common_name":"Westlake Park","city_feature":"Parks","address":0,"website - url":"http://www.seattle.gov/parks/park_detail.asp?ID=332"}},{"type":"Feature","geometry":{"type":"Point","coordinates":[-122.359485,47.644135]},"properties":{"common_name":"David Rodgers Park","city_feature":"Parks","address":0,"website - url":"http://www.seattle.gov/parks/park_detail.asp?ID=331"}},{"type":"Feature","geometry":{"type":"Point","coordinates":[-122.359503883522,47.6355140819519]},"properties":{"common_name":"West Queen Anne Playfield","city_feature":"Parks","address":"150 W Blaine St","website - url":"http://www.seattle.gov/parks/park_detail.asp?ID=330"}},{"type":"Feature","geometry":{"type":"Point","coordinates":[-122.353785822709,47.6361389994322]},"properties":{"common_name":"East Queen Anne Playground","city_feature":"Parks","address":"1912 Warren Ave N","website - url":"http://www.seattle.gov/parks/park_detail.asp?ID=329"}},{"type":"Feature","geometry":{"type":"Point","coordinates":[-122.330883,47.601844]},"properties":{"common_name":"Prefontaine Place","city_feature":"Parks","address":0,"website - url":"http://www.seattle.gov/parks/park_detail.asp?ID=326"}},{"type":"Feature","geometry":{"type":"Point","coordinates":[-122.333886,47.602076]},"properties":{"common_name":"Pioneer Square","city_feature":"Parks","address":0,"website - url":"http://www.seattle.gov/parks/park_detail.asp?ID=325"}},{"type":"Feature","geometry":{"type":"Point","coordinates":[-122.333272,47.600463]},"properties":{"common_name":"Occidental Square","city_feature":"Parks","address":0,"website - url":"http://www.seattle.gov/parks/park_detail.asp?ID=323"}},{"type":"Feature","geometry":{"type":"Point","coordinates":[-122.355134,47.631342]},"properties":{"common_name":"Observatory Courts","city_feature":"Parks","address":0,"website - url":"http://www.seattle.gov/parks/park_detail.asp?ID=322"}},{"type":"Feature","geometry":{"type":"Point","coordinates":[-122.353356,47.643241]},"properties":{"common_name":"Mayfair Park","city_feature":"Parks","address":0,"website - url":"http://www.seattle.gov/parks/park_detail.asp?ID=321"}},{"type":"Feature","geometry":{"type":"Point","coordinates":[-122.366805,47.629436]},"properties":{"common_name":"Marshall Park","city_feature":"Parks","address":0,"website - url":"http://www.seattle.gov/parks/park_detail.asp?ID=320"}},{"type":"Feature","geometry":{"type":"Point","coordinates":[-122.399472233563,47.6437458208129]},"properties":{"common_name":"Magnolia Playfield","city_feature":"Parks","address":"2518 34th Ave W","website - url":"http://www.seattle.gov/parks/park_detail.asp?ID=319"}},{"type":"Feature","geometry":{"type":"Point","coordinates":[-122.391059670129,47.6405844763879]},"properties":{"common_name":"East Magnolia Playfield","city_feature":"Parks","address":0,"website - url":"http://www.seattle.gov/parks/park_detail.asp?ID=318"}},{"type":"Feature","geometry":{"type":"Point","coordinates":[-122.397348,47.633427]},"properties":{"common_name":"Magnolia Park","city_feature":"Parks","address":0,"website - url":"http://www.seattle.gov/parks/park_detail.asp?ID=317"}},{"type":"Feature","geometry":{"type":"Point","coordinates":[-122.391157,47.655064]},"properties":{"common_name":"Lawton Park","city_feature":"Parks","address":0,"website - url":"http://www.seattle.gov/parks/park_detail.asp?ID=316"}},{"type":"Feature","geometry":{"type":"Point","coordinates":[-122.356978,47.626151]},"properties":{"common_name":"Kinnear Place","city_feature":"Parks","address":0,"website - url":"http://www.seattle.gov/parks/park_detail.asp?ID=315"}},{"type":"Feature","geometry":{"type":"Point","coordinates":[-122.367205,47.627316]},"properties":{"common_name":"Kinnear Park","city_feature":"Parks","address":0,"website - url":"http://www.seattle.gov/parks/park_detail.asp?ID=314"}},{"type":"Feature","geometry":{"type":"Point","coordinates":[-122.300842,47.588907]},"properties":{"common_name":"Jimi Hendrix Park","city_feature":"Parks","address":0,"website - url":"http://www.seattle.gov/parks/park_detail.asp?ID=3121"}},{"type":"Feature","geometry":{"type":"Point","coordinates":[-122.330904,47.609472]},"properties":{"common_name":"Freeway Park","city_feature":"Parks","address":0,"website - url":"http://www.seattle.gov/parks/park_detail.asp?ID=312"}},{"type":"Feature","geometry":{"type":"Point","coordinates":[-122.304648,47.603091]},"properties":{"common_name":"Spruce Street Mini Park","city_feature":"Parks","address":0,"website - url":"http://www.seattle.gov/parks/park_detail.asp?ID=3117"}},{"type":"Feature","geometry":{"type":"Point","coordinates":[-122.36087,47.618767]},"properties":{"common_name":"Myrtle Edwards Park","city_feature":"Parks","address":0,"website - url":"http://www.seattle.gov/parks/park_detail.asp?ID=311"}},{"type":"Feature","geometry":{"type":"Point","coordinates":[-122.319134,47.617013]},"properties":{"common_name":"Cal Anderson Park","city_feature":"Parks","address":0,"website - url":"http://www.seattle.gov/parks/park_detail.asp?ID=3102"}},{"type":"Feature","geometry":{"type":"Point","coordinates":[-122.416228,47.660498]},"properties":{"common_name":"Discovery Park","city_feature":"Parks","address":0,"website - url":"http://www.seattle.gov/parks/park_detail.asp?ID=310"}},{"type":"Feature","geometry":{"type":"Point","coordinates":[-122.282003,47.61875]},"properties":{"common_name":"Viretta Park","city_feature":"Parks","address":0,"website - url":"http://www.seattle.gov/parks/park_detail.asp?ID=3098"}},{"type":"Feature","geometry":{"type":"Point","coordinates":[-122.283837,47.632017]},"properties":{"common_name":"Lambert Place","city_feature":"Parks","address":"38TH AVE E / E MADISON ST","website - url":"http://www.seattle.gov/parks/park_detail.asp?ID=3096"}},{"type":"Feature","geometry":{"type":"Point","coordinates":[-122.341049,47.61913]},"properties":{"common_name":"Denny Park","city_feature":"Parks","address":0,"website - url":"http://www.seattle.gov/parks/park_detail.asp?ID=309"}},{"type":"Feature","geometry":{"type":"Point","coordinates":[-122.40014,47.66538]},"properties":{"common_name":"Commodore Park","city_feature":"Parks","address":"3330 W COMMODORE WAY","website - url":"http://www.seattle.gov/parks/park_detail.asp?ID=308"}},{"type":"Feature","geometry":{"type":"Point","coordinates":[-122.331029,47.681711]},"properties":{"common_name":"Green Lake Park","city_feature":"Parks","address":0,"website - url":"http://www.seattle.gov/parks/park_detail.asp?ID=307"}},{"type":"Feature","geometry":{"type":"Point","coordinates":[-122.329875,47.602022]},"properties":{"common_name":"City Hall Park","city_feature":"Parks","address":0,"website - url":"http://www.seattle.gov/parks/park_detail.asp?ID=306"}},{"type":"Feature","geometry":{"type":"Point","coordinates":[-122.406385,47.639414]},"properties":{"common_name":"Carleton Center","city_feature":"Parks","address":0,"website - url":"http://www.seattle.gov/parks/park_detail.asp?ID=305"}},{"type":"Feature","geometry":{"type":"Point","coordinates":[-122.348402,47.630425]},"properties":{"common_name":"Bhy Kracke Park","city_feature":"Parks","address":0,"website - url":"http://www.seattle.gov/parks/park_detail.asp?ID=304"}},{"type":"Feature","geometry":{"type":"Point","coordinates":[-122.38678612823,47.6438017035719]},"properties":{"common_name":"Bayview Playground","city_feature":"Parks","address":"2614 24th Ave W","website - url":"http://www.seattle.gov/parks/park_detail.asp?ID=303"}},{"type":"Feature","geometry":{"type":"Point","coordinates":[-122.308316,47.636257]},"properties":{"common_name":"Interlaken Park","city_feature":"Parks","address":0,"website - url":"http://www.seattle.gov/parks/park_detail.asp?ID=3023"}},{"type":"Feature","geometry":{"type":"Point","coordinates":[-122.364545,47.733024]},"properties":{"common_name":"Llandover Woods Greenspace","city_feature":"Parks","address":0,"website - url":"http://www.seattle.gov/parks/park_detail.asp?ID=301"}},{"type":"Feature","geometry":{"type":"Point","coordinates":[-122.386693,47.629555]},"properties":{"common_name":"Open Water Park","city_feature":"Parks","address":"ELLIOTT BAY MARINA TO PIER 91","website - url":"http://www.seattle.gov/parks/park_detail.asp?ID=3005"}},{"type":"Feature","geometry":{"type":"Point","coordinates":[-122.380151,47.538315]},"properties":{"common_name":"Orchard Street Ravine","city_feature":"Parks","address":"39TH SW / SW ORCHARD ST","website - url":"http://www.seattle.gov/parks/park_detail.asp?ID=300"}},{"type":"Feature","geometry":{"type":"Point","coordinates":[-122.384972,47.667976]},"properties":{"common_name":"Marvins Garden","city_feature":"Parks","address":0,"website - url":"http://www.seattle.gov/parks/park_detail.asp?ID=298"}},{"type":"Feature","geometry":{"type":"Point","coordinates":[-122.324917,47.647741]},"properties":{"common_name":"Fairview Park","city_feature":"Parks","address":0,"website - url":"http://www.seattle.gov/parks/park_detail.asp?ID=2975"}},{"type":"Feature","geometry":{"type":"Point","coordinates":[-122.294567,47.731387]},"properties":{"common_name":"Little Brook Park","city_feature":"Parks","address":0,"website - url":"http://www.seattle.gov/parks/park_detail.asp?ID=297"}},{"type":"Feature","geometry":{"type":"Point","coordinates":[-122.293173,47.625169]},"properties":{"common_name":"3001 E Madison","city_feature":"Parks","address":0,"website - url":"http://www.seattle.gov/parks/park_detail.asp?ID=296"}},{"type":"Feature","geometry":{"type":"Point","coordinates":[-122.32243,47.653962]},"properties":{"common_name":"North Passage Point Park","city_feature":"Parks","address":0,"website - url":"http://www.seattle.gov/parks/park_detail.asp?ID=2956"}},{"type":"Feature","geometry":{"type":"Point","coordinates":[-122.412089,47.570984]},"properties":{"common_name":"Cormorant Cove","city_feature":"Parks","address":0,"website - url":"http://www.seattle.gov/parks/park_detail.asp?ID=295"}},{"type":"Feature","geometry":{"type":"Point","coordinates":[-122.334908,47.645638]},"properties":{"common_name":"Gas Works Park","city_feature":"Parks","address":0,"website - url":"http://www.seattle.gov/parks/park_detail.asp?ID=293"}},{"type":"Feature","geometry":{"type":"Point","coordinates":[-122.409993,47.568517]},"properties":{"common_name":"Andover Place","city_feature":"Parks","address":0,"website - url":"http://www.seattle.gov/parks/park_detail.asp?ID=2927"}},{"type":"Feature","geometry":{"type":"Point","coordinates":[-122.344218,47.668907]},"properties":{"common_name":"Woodland Park","city_feature":"Parks","address":0,"website - url":"http://www.seattle.gov/parks/park_detail.asp?ID=292"}},{"type":"Feature","geometry":{"type":"Point","coordinates":[-122.336528,47.705755]},"properties":{"common_name":"Mineral Springs Park","city_feature":"Parks","address":"1500 N 105TH STREET","website - url":"http://www.seattle.gov/parks/park_detail.asp?ID=291"}},{"type":"Feature","geometry":{"type":"Point","coordinates":[-122.268561,47.51783]},"properties":{"common_name":"Sturtevant Ravine","city_feature":"Parks","address":0,"website - url":"http://www.seattle.gov/parks/park_detail.asp?ID=290"}},{"type":"Feature","geometry":{"type":"Point","coordinates":[-122.38324017016,47.6841059362952]},"properties":{"common_name":"Loyal Heights Playfield","city_feature":"Parks","address":"2101 NW 77th St","website - url":"http://www.seattle.gov/parks/park_detail.asp?ID=289"}},{"type":"Feature","geometry":{"type":"Point","coordinates":[-122.349314334665,47.724209093647]},"properties":{"common_name":"Bitter Lake Playfield","city_feature":"Parks","address":"13035 Linden Ave N","website - url":"http://www.seattle.gov/parks/park_detail.asp?ID=288"}},{"type":"Feature","geometry":{"type":"Point","coordinates":[-122.313978443867,47.6805383223391]},"properties":{"common_name":"Froula Playground","city_feature":"Parks","address":"7200 12th Ave NE","website - url":"http://www.seattle.gov/parks/park_detail.asp?ID=287"}},{"type":"Feature","geometry":{"type":"Point","coordinates":[-122.338736,47.698541]},"properties":{"common_name":"Licton Springs Park","city_feature":"Parks","address":0,"website - url":"http://www.seattle.gov/parks/park_detail.asp?ID=286"}},{"type":"Feature","geometry":{"type":"Point","coordinates":[-122.322174,47.63115]},"properties":{"common_name":"St Marks Greenbelt","city_feature":"Parks","address":0,"website - url":"http://www.seattle.gov/parks/park_detail.asp?ID=2848"}},{"type":"Feature","geometry":{"type":"Point","coordinates":[-122.374794,47.690119]},"properties":{"common_name":"Baker Park On Crown Hill","city_feature":"Parks","address":0,"website - url":"http://www.seattle.gov/parks/park_detail.asp?ID=2840"}},{"type":"Feature","geometry":{"type":"Point","coordinates":[-122.318448,47.586761]},"properties":{"common_name":"East Duwamish Greenbelt","city_feature":"Parks","address":"1827 11TH AVE SOUTH","website - url":"http://www.seattle.gov/parks/park_detail.asp?ID=283"}},{"type":"Feature","geometry":{"type":"Point","coordinates":[-122.356966,47.563271]},"properties":{"common_name":"West Duwamish Greenbelt","city_feature":"Parks","address":0,"website - url":"http://www.seattle.gov/parks/park_detail.asp?ID=282"}},{"type":"Feature","geometry":{"type":"Point","coordinates":[-122.373243,47.636418]},"properties":{"common_name":"Twelfth West And W Howe Park","city_feature":"Parks","address":"12th Ave W / W Howe St","website - url":"http://www.seattle.gov/parks/park_detail.asp?ID=281"}},{"type":"Feature","geometry":{"type":"Point","coordinates":[-122.345011,47.635866]},"properties":{"common_name":"Northeast Queen Anne Greenbelt","city_feature":"Parks","address":0,"website - url":"http://www.seattle.gov/parks/park_detail.asp?ID=279"}},{"type":"Feature","geometry":{"type":"Point","coordinates":[-122.352314,47.639775]},"properties":{"common_name":"Wolf Creek Ravine Natural Area","city_feature":"Parks","address":0,"website - url":"http://www.seattle.gov/parks/park_detail.asp?ID=278"}},{"type":"Feature","geometry":{"type":"Point","coordinates":[-122.28962,47.699037]},"properties":{"common_name":"Mock Creek Ravine","city_feature":"Parks","address":0,"website - url":"http://www.seattle.gov/parks/park_detail.asp?ID=277"}},{"type":"Feature","geometry":{"type":"Point","coordinates":[-122.364699,47.714678]},"properties":{"common_name":"Pipers Creek Natural Area","city_feature":"Parks","address":"600 NW 117TH ST","website - url":"http://www.seattle.gov/parks/park_detail.asp?ID=275"}},{"type":"Feature","geometry":{"type":"Point","coordinates":[-122.345238,47.608657]},"properties":{"common_name":"Piers 62 And 63","city_feature":"Parks","address":0,"website - url":"http://www.seattle.gov/parks/park_detail.asp?ID=274"}},{"type":"Feature","geometry":{"type":"Point","coordinates":[-122.403424,47.563782]},"properties":{"common_name":"Me-Kwa-Mooks Natural Area","city_feature":"Parks","address":0,"website - url":"http://www.seattle.gov/parks/park_detail.asp?ID=268"}},{"type":"Feature","geometry":{"type":"Point","coordinates":[-122.363435,47.530167]},"properties":{"common_name":"Longfellow Creek Greenspace","city_feature":"Parks","address":0,"website - url":"http://www.seattle.gov/parks/park_detail.asp?ID=267"}},{"type":"Feature","geometry":{"type":"Point","coordinates":[-122.287835,47.604695]},"properties":{"common_name":"Leschi-Lake Dell Natural Area","city_feature":"Parks","address":"3525 E TERRACE ST","website - url":"http://www.seattle.gov/parks/park_detail.asp?ID=263"}},{"type":"Feature","geometry":{"type":"Point","coordinates":[-122.267366,47.511157]},"properties":{"common_name":"Kubota Gardens Natural Area","city_feature":"Parks","address":0,"website - url":"http://www.seattle.gov/parks/park_detail.asp?ID=262"}},{"type":"Feature","geometry":{"type":"Point","coordinates":[-122.395546,47.583406]},"properties":{"common_name":"Duwamish Head Greenbelt","city_feature":"Parks","address":0,"website - url":"http://www.seattle.gov/parks/park_detail.asp?ID=260"}},{"type":"Feature","geometry":{"type":"Point","coordinates":[-122.384495,47.66833]},"properties":{"common_name":"Bergen Place","city_feature":"Parks","address":0,"website - url":"http://www.seattle.gov/parks/park_detail.asp?ID=253"}},{"type":"Feature","geometry":{"type":"Point","coordinates":[-122.400938,47.684034]},"properties":{"common_name":"Sunset Hill Park","city_feature":"Parks","address":0,"website - url":"http://www.seattle.gov/parks/park_detail.asp?ID=252"}},{"type":"Feature","geometry":{"type":"Point","coordinates":[-122.378878432525,47.6954157512333]},"properties":{"common_name":"Soundview Playfield","city_feature":"Parks","address":"1590 NW 90th St","website - url":"http://www.seattle.gov/parks/park_detail.asp?ID=251"}},{"type":"Feature","geometry":{"type":"Point","coordinates":[-122.358700739135,47.6951336977073]},"properties":{"common_name":"Sandel Playground","city_feature":"Parks","address":"9053 1st Ave NW","website - url":"http://www.seattle.gov/parks/park_detail.asp?ID=250"}},{"type":"Feature","geometry":{"type":"Point","coordinates":[-122.382145,47.679517]},"properties":{"common_name":"Salmon Bay Park","city_feature":"Parks","address":0,"website - url":"http://www.seattle.gov/parks/park_detail.asp?ID=249"}},{"type":"Feature","geometry":{"type":"Point","coordinates":[-122.361346842948,47.6597179137182]},"properties":{"common_name":"Ross Playground","city_feature":"Parks","address":"4320 4th Ave NW","website - url":"http://www.seattle.gov/parks/park_detail.asp?ID=248"}},{"type":"Feature","geometry":{"type":"Point","coordinates":[-122.390258,47.69471]},"properties":{"common_name":"North Beach Park","city_feature":"Parks","address":"24TH AVE NW/NW 90TH ST","website - url":"http://www.seattle.gov/parks/park_detail.asp?ID=247"}},{"type":"Feature","geometry":{"type":"Point","coordinates":[-122.401004,47.66197]},"properties":{"common_name":"Kiwanis Memorial Preserve Park","city_feature":"Parks","address":0,"website - url":"http://www.seattle.gov/parks/park_detail.asp?ID=246"}},{"type":"Feature","geometry":{"type":"Point","coordinates":[-122.361032,47.668902]},"properties":{"common_name":"Greenwood Triangle","city_feature":"Parks","address":0,"website - url":"http://www.seattle.gov/parks/park_detail.asp?ID=245"}},{"type":"Feature","geometry":{"type":"Point","coordinates":[-122.298462,47.72021]},"properties":{"common_name":"Albert Davis Park","city_feature":"Parks","address":0,"website - url":"http://www.seattle.gov/parks/park_detail.asp?ID=244"}},{"type":"Feature","geometry":{"type":"Point","coordinates":[-122.403269,47.692105]},"properties":{"common_name":"Golden Gardens Park","city_feature":"Parks","address":0,"website - url":"http://www.seattle.gov/parks/park_detail.asp?ID=243"}},{"type":"Feature","geometry":{"type":"Point","coordinates":[-122.369684036369,47.66729167168]},"properties":{"common_name":"Gilman Playground","city_feature":"Parks","address":"923 NW 54th St","website - url":"http://www.seattle.gov/parks/park_detail.asp?ID=242"}},{"type":"Feature","geometry":{"type":"Point","coordinates":[-122.349221502422,47.6560301481679]},"properties":{"common_name":"B.F. Day Playground","city_feature":"Parks","address":"4020 Fremont Ave N","website - url":"http://www.seattle.gov/parks/park_detail.asp?ID=241"}},{"type":"Feature","geometry":{"type":"Point","coordinates":[-122.37241,47.710823]},"properties":{"common_name":"Carkeek Park","city_feature":"Parks","address":0,"website - url":"http://www.seattle.gov/parks/park_detail.asp?ID=240"}},{"type":"Feature","geometry":{"type":"Point","coordinates":[-122.381198,47.703194]},"properties":{"common_name":"Blue Ridge Places","city_feature":"Parks","address":0,"website - url":"http://www.seattle.gov/parks/park_detail.asp?ID=239"}},{"type":"Feature","geometry":{"type":"Point","coordinates":[-122.39309,47.541492]},"properties":{"common_name":"Pelly Place Natural Area","city_feature":"Parks","address":0,"website - url":"http://www.seattle.gov/parks/park_detail.asp?ID=237"}},{"type":"Feature","geometry":{"type":"Point","coordinates":[-122.373209,47.633353]},"properties":{"common_name":"Sw Queen Anne Greenbelt","city_feature":"Parks","address":0,"website - url":"http://www.seattle.gov/parks/park_detail.asp?ID=234"}},{"type":"Feature","geometry":{"type":"Point","coordinates":[-122.39438,47.514542]},"properties":{"common_name":"Endolyne Park","city_feature":"Parks","address":0,"website - url":"http://www.seattle.gov/parks/park_detail.asp?ID=1653"}},{"type":"Feature","geometry":{"type":"Point","coordinates":[-122.308342,47.551071]},"properties":{"common_name":"Maple School Ravine","city_feature":"Parks","address":0,"website - url":"http://www.seattle.gov/parks/park_detail.asp?ID=1630"}},{"type":"Feature","geometry":{"type":"Point","coordinates":[-122.409139,47.65129]},"properties":{"common_name":"Arapahoe Triangle","city_feature":"Parks","address":"3431 ARAPAHOE PLACE W","website - url":"http://www.seattle.gov/parks/park_detail.asp?ID=1556"}},{"type":"Feature","geometry":{"type":"Point","coordinates":[-122.311441,47.568067]},"properties":{"common_name":"Jefferson Park","city_feature":"Parks","address":0,"website - url":"http://www.seattle.gov/parks/park_detail.asp?ID=114"}},{"type":"Feature","geometry":{"type":"Point","coordinates":[-122.332556754953,47.6641586884286]},"properties":{"common_name":"Meridian Playground","city_feature":"Parks","address":"4649 Sunnyside Ave N","website - url":"http://www.seattle.gov/parks/park_detail.asp?ID=1104"}}]}