{"type":"FeatureCollection","features":[{"type":"Feature","geometry":{},"properties":{"lon":121.48239284981504,"name":"富安國小","address":"臺北市士林區延平北路8段135號","capacity":50}},{"type":"Feature","geometry":{},"properties":{"lon":121.59074009601858,"name":"潭美國小","address":"臺北市內湖區新明路22號","capacity":100}},{"type":"Feature","geometry":{},"properties":{"lon":121.56224976856213,"name":"民權國小","address":"臺北市松山區民權東路4段200號","capacity":30}},{"type":"Feature","geometry":{},"properties":{"lon":121.54280299967067,"name":"大直高中","address":"臺北市中山區北安路420號","capacity":30}},{"type":"Feature","geometry":{},"properties":{"lon":121.50526076763948,"name":"立農國小","address":"臺北市北投區立農街1段250號","capacity":40}},{"type":"Feature","geometry":{},"properties":{"lon":121.50289535049001,"name":"社子國小","address":"臺北市士林區延平北路6段308號","capacity":100}},{"type":"Feature","geometry":{},"properties":{"lon":121.61052473375082,"name":"明湖國小","address":"臺北市內湖區康寧路3段105號","capacity":50}},{"type":"Feature","geometry":{},"properties":{"lon":121.50904682366698,"name":"南門國小","address":"臺北市中正區廣州街6號","capacity":30}},{"type":"Feature","geometry":{},"properties":{"lon":121.51139939240859,"name":"太平國小","address":"臺北市大同區延平北路二段239號","capacity":40}},{"type":"Feature","geometry":{},"properties":{"lon":121.5852801299797,"name":"王留公國中","address":"臺北市信義區福德街221巷15號","capacity":35}},{"type":"Feature","geometry":{},"properties":{"lon":121.60199637574651,"name":"東新國小","address":"臺北市南港區興南街62號","capacity":50}},{"type":"Feature","geometry":{},"properties":{"lon":121.52084008933072,"name":"東門國小","address":"臺北市中正區仁愛路1段2之4號","capacity":30}},{"type":"Feature","geometry":{},"properties":{"lon":121.52771421509902,"name":"金華國小","address":"臺北市大安區愛國東路79巷11號","capacity":50}},{"type":"Feature","geometry":{},"properties":{"lon":121.47729907395481,"name":"桃源國中","address":"臺北市北投區中央北路四段48號","capacity":20}},{"type":"Feature","geometry":{},"properties":{"lon":121.56563050051574,"name":"西湖國小","address":"臺北市內湖區環山路1段25號","capacity":20}},{"type":"Feature","geometry":{},"properties":{"lon":121.5088597621308,"name":"福星國小","address":"臺北市萬華區中華路1段66號","capacity":80}},{"type":"Feature","geometry":{},"properties":{"lon":121.49865642628133,"name":"萬華國中","address":"臺北市萬華區西藏路201號","capacity":150}},{"type":"Feature","geometry":{},"properties":{"lon":121.55186211071701,"name":"民族國小","address":"臺北市松山區民生東路4段97巷7號","capacity":40}},{"type":"Feature","geometry":{},"properties":{"lon":121.49663110577202,"name":"文化國小","address":"臺北市北投區文化3路1號","capacity":25}},{"type":"Feature","geometry":{},"properties":{"lon":121.52626736958969,"name":"中山國小","address":"臺北市中山區民權東路1段69號","capacity":100}},{"type":"Feature","geometry":{},"properties":{"lon":121.56356687649608,"name":"西松國小","address":"臺北市松山區三民路5號","capacity":40}},{"type":"Feature","geometry":{},"properties":{"lon":121.51785868431884,"name":"重慶國中","address":"臺北市大同區敦煌路19號","capacity":30}},{"type":"Feature","geometry":{},"properties":{"lon":121.55862891288558,"name":"興華國小","address":"臺北市文山區興隆路3段125巷6號","capacity":30}},{"type":"Feature","geometry":{},"properties":{"lon":121.57890099903832,"name":"永春國小","address":"臺北市信義區松山路225巷48號","capacity":30}},{"type":"Feature","geometry":{},"properties":{"lon":121.50922713587077,"name":"義方國小","address":"臺北市北投區珠海路155號","capacity":50}},{"type":"Feature","geometry":{},"properties":{"lon":121.5330757132791,"name":"金華國中","address":"臺北市大安區新生南路2段32號","capacity":30}},{"type":"Feature","geometry":{},"properties":{"lon":121.58682756061268,"name":"成德國小","address":"臺北市南港區東新街65號","capacity":30}},{"type":"Feature","geometry":{},"properties":{"lon":121.55469090768979,"name":"實踐國中","address":"臺北市文山區辛亥路7段67號","capacity":50}},{"type":"Feature","geometry":{},"properties":{"lon":121.51937087287341,"name":"明倫國小","address":"臺北市大同區承德路3段285號","capacity":20}},{"type":"Feature","geometry":{},"properties":{"lon":121.54614564552864,"name":"大安國中","address":"臺北市大安區龍雲里大安路2段63號","capacity":40}},{"type":"Feature","geometry":{},"properties":{"lon":121.51296800369995,"name":"北一女中","address":"臺北市中正區重慶南路1段 165 號","capacity":90}},{"type":"Feature","geometry":{},"properties":{"lon":121.54044215508318,"name":"武功國小","address":"臺北市文山區興隆路1段68號","capacity":50}},{"type":"Feature","geometry":{},"properties":{"lon":121.5032890608581,"name":"新和國小","address":"臺北市萬華區西藏路125巷31號","capacity":50}},{"type":"Feature","geometry":{},"properties":{"lon":121.53638273011829,"name":"芝山國小","address":"臺北市士林區德行東路285號","capacity":30}},{"type":"Feature","geometry":{},"properties":{"lon":121.5577727821931,"name":"光復國小","address":"臺北市信義區光復南路271號","capacity":20}},{"type":"Feature","geometry":{},"properties":{"lon":121.61716491174742,"name":"胡適國小","address":"臺北市南港區舊莊街1段1號","capacity":30}}]}