{"type":"FeatureCollection","features":[{"type":"Feature","geometry":{"type":"Point","coordinates":[120.534312,23.871139]},"properties":{"name":"螺青國小","town":"北斗鎮","twd97x":202572.75,"county":"彰化縣","twd97y":2640828.38626,"peopleno":"120人","isIndoor":"是","isOutdoor":"否","shelterId":1,"openstatus":"撤除","shelterCode":"SN521-0003","defaultville":"全鎮","address":"彰化縣北斗鎮斗中路712號","adaptForWeaker":"是","disastertype":"水災,震災","village":"東光里"}},{"type":"Feature","geometry":{"type":"Point","coordinates":[120.523284,23.875762]},"properties":{"name":"北斗國小","town":"北斗鎮","twd97x":201451.32,"county":"彰化縣","twd97y":2641344.11155,"peopleno":"220人","isIndoor":"是","isOutdoor":"否","shelterId":2,"openstatus":"撤除","shelterCode":"SN521-0008","defaultville":"全鎮","address":"彰化縣北斗鎮新政里文苑路一段32號","adaptForWeaker":"是","disastertype":"水災,震災","village":"新政里"}},{"type":"Feature","geometry":{"type":"Point","coordinates":[119.9533,26.155]},"properties":{"name":"連江縣體育館","town":"南竿鄉","twd97x":145351.57,"county":"連江縣","twd97y":2894136.82886,"peopleno":"200人","isIndoor":"是","isOutdoor":"否","shelterId":3,"openstatus":"撤除","shelterCode":"SZ209-0001","defaultville":"介壽村","address":"374-2號","adaptForWeaker":"是","disastertype":"水災,震災,土石流,海嘯","village":"介壽村"}},{"type":"Feature","geometry":{"type":"Point","coordinates":[119.9551,26.1541]},"properties":{"name":"國立馬祖高中","town":"南竿鄉","twd97x":145530.75,"county":"連江縣","twd97y":2894035.66916,"peopleno":"200人","isIndoor":"是","isOutdoor":"否","shelterId":4,"openstatus":"撤除","shelterCode":"SZ209-0002","defaultville":"介壽村","address":"374號","adaptForWeaker":"是","disastertype":"水災,震災,土石流,海嘯","village":"介壽村"}},{"type":"Feature","geometry":{"type":"Point","coordinates":[119.9575,26.1551]},"properties":{"name":"老人活動中心","town":"南竿鄉","twd97x":145771.6,"county":"連江縣","twd97y":2894144.53265,"peopleno":"200人","isIndoor":"是","isOutdoor":"否","shelterId":5,"openstatus":"撤除","shelterCode":"SZ209-0003","defaultville":"介壽村","address":"156號","adaptForWeaker":"是","disastertype":"水災,震災,土石流","village":"介壽村"}},{"type":"Feature","geometry":{"type":"Point","coordinates":[119.9551,26.1601]},"properties":{"name":"介壽國中小學教室","town":"南竿鄉","twd97x":145536.09,"county":"連江縣","twd97y":2894700.4127,"peopleno":"500人","isIndoor":"是","isOutdoor":"否","shelterId":6,"openstatus":"撤除","shelterCode":"SZ209-0004","defaultville":"介壽村","address":"13號","adaptForWeaker":"是","disastertype":"水災,震災,土石流,海嘯","village":"介壽村"}},{"type":"Feature","geometry":{"type":"Point","coordinates":[119.9494,26.1605]},"properties":{"name":"福沃候船大樓","town":"南竿鄉","twd97x":144966.55,"county":"連江縣","twd97y":2894749.32417,"peopleno":"200人","isIndoor":"是","isOutdoor":"否","shelterId":7,"openstatus":"撤除","shelterCode":"SZ209-0005","defaultville":"福沃村","address":"港口","adaptForWeaker":"是","disastertype":"水災,震災,土石流","village":"福沃村"}},{"type":"Feature","geometry":{"type":"Point","coordinates":[119.9311,26.1409]},"properties":{"name":"仁愛國小教室","town":"南竿鄉","twd97x":143119.03,"county":"連江縣","twd97y":2892592.74227,"peopleno":"300人","isIndoor":"是","isOutdoor":"否","shelterId":8,"openstatus":"撤除","shelterCode":"SZ209-0006","defaultville":"仁愛村","address":"95號","adaptForWeaker":"是","disastertype":"水災,震災,土石流","village":"仁愛村"}},{"type":"Feature","geometry":{"type":"Point","coordinates":[119.9254,26.1591]},"properties":{"name":"中正國中小學教室","town":"南竿鄉","twd97x":142565.7,"county":"連江縣","twd97y":2894613.83902,"peopleno":"500人","isIndoor":"是","isOutdoor":"否","shelterId":9,"openstatus":"撤除","shelterCode":"SZ209-0007","defaultville":"馬祖村","address":"4號","adaptForWeaker":"是","disastertype":"水災,震災,土石流,海嘯","village":"馬祖村"}},{"type":"Feature","geometry":{"type":"Point","coordinates":[119.9428,26.1525]},"properties":{"name":"馬祖綜合福利園區","town":"北竿鄉","twd97x":144299.46,"county":"連江縣","twd97y":2893868.3494,"peopleno":"100人","isIndoor":"是","isOutdoor":"否","shelterId":10,"openstatus":"撤除","shelterCode":"SZ209-0008","defaultville":"清水村","address":"100號","adaptForWeaker":"是","disastertype":"水災,震災,土石流","village":null}},{"type":"Feature","geometry":{"type":"Point","coordinates":[119.9691413685746,26.20571717133416]},"properties":{"name":"港務大樓","town":"北竿鄉","twd97x":146980.1,"county":"連江縣","twd97y":2899743.15669,"peopleno":100,"isIndoor":"否","isOutdoor":"否","shelterId":11,"openstatus":"撤除","shelterCode":"SZ209-0009","defaultville":"白沙村","address":"72號","adaptForWeaker":"否","disastertype":null,"village":"白沙村"}},{"type":"Feature","geometry":{"type":"Point","coordinates":[119.9743692208135,26.21534160527848]},"properties":{"name":"坂里國小","town":"北竿鄉","twd97x":147511.01,"county":"連江縣","twd97y":2900805.31594,"peopleno":"100人","isIndoor":"否","isOutdoor":"否","shelterId":12,"openstatus":"撤除","shelterCode":"SZ209-0010","defaultville":"坂里村","address":"59號","adaptForWeaker":"否","disastertype":null,"village":null}},{"type":"Feature","geometry":{"type":"Point","coordinates":[119.9970228870454,26.223544963513977]},"properties":{"name":"塘岐國小","town":"北竿鄉","twd97x":149781.92,"county":"連江縣","twd97y":2901696.46532,"peopleno":"150人","isIndoor":"否","isOutdoor":"否","shelterId":13,"openstatus":"撤除","shelterCode":"SZ209-0011","defaultville":"塘岐村","address":"55號","adaptForWeaker":"否","disastertype":null,"village":"塘岐村"}},{"type":"Feature","geometry":{"type":"Point","coordinates":[119.9974127067995,26.225534490920158]},"properties":{"name":"老人活動中心","town":"北竿鄉","twd97x":149822.57,"county":"連江縣","twd97y":2901916.58517,"peopleno":"50人","isIndoor":"否","isOutdoor":"否","shelterId":14,"openstatus":"撤除","shelterCode":"SZ209-0012","defaultville":"塘岐村","address":"260-1號","adaptForWeaker":"否","disastertype":null,"village":"塘岐村"}},{"type":"Feature","geometry":{"type":"Point","coordinates":[120.0070012601415,26.22371226274296]},"properties":{"name":"楊公八使廟","town":"北竿鄉","twd97x":150779.17,"county":"連江縣","twd97y":2901707.32532,"peopleno":"50人","isIndoor":"否","isOutdoor":"否","shelterId":15,"openstatus":"撤除","shelterCode":"SZ209-0013","defaultville":"后沃村","address":"22號","adaptForWeaker":"否","disastertype":null,"village":"后沃村"}},{"type":"Feature","geometry":{"type":"Point","coordinates":[119.9804866177261,26.224022633407657]},"properties":{"name":"中山國中","town":"北竿鄉","twd97x":148129.91,"county":"連江縣","twd97y":2901762.27527,"peopleno":"100人","isIndoor":"否","isOutdoor":"否","shelterId":16,"openstatus":"撤除","shelterCode":"SZ209-0014","defaultville":"芹壁村","address":"84號","adaptForWeaker":"否","disastertype":null,"village":"芹壁村"}},{"type":"Feature","geometry":{"type":"Point","coordinates":[119.9933814725613,26.234606789705428]},"properties":{"name":"三合殿","town":"北竿鄉","twd97x":149427.56,"county":"連江縣","twd97y":2902924.83445,"peopleno":"100人","isIndoor":"否","isOutdoor":"否","shelterId":17,"openstatus":"撤除","shelterCode":"SZ209-0015","defaultville":"橋仔村","address":"100號","adaptForWeaker":"否","disastertype":null,"village":"橋仔村"}},{"type":"Feature","geometry":{"type":"Point","coordinates":[119.9966271693118,26.227095926487443]},"properties":{"name":"塘歧羽球館","town":"北竿鄉","twd97x":149745.42,"county":"連江縣","twd97y":2902090.18504,"peopleno":"100人","isIndoor":"否","isOutdoor":"否","shelterId":18,"openstatus":"撤除","shelterCode":"SZ209-0016","defaultville":"塘岐村","address":"北竿鄉塘岐村","adaptForWeaker":"否","disastertype":null,"village":"塘岐村"}},{"type":"Feature","geometry":{"type":"Point","coordinates":[118.75456221939,0]},"properties":{"name":"東莒國小綜合教室","town":"莒光鄉","twd97x":-0.4,"county":"連江縣","twd97y":0,"peopleno":200,"isIndoor":"否","isOutdoor":"否","shelterId":19,"openstatus":"撤除","shelterCode":"SZ209-0017","defaultville":"大坪村","address":"4號","adaptForWeaker":"否","disastertype":null,"village":"大坪村"}},{"type":"Feature","geometry":{"type":"Point","coordinates":[118.75456221939,0]},"properties":{"name":"田沃老人活動中心","town":"莒光鄉","twd97x":-0.4,"county":"連江縣","twd97y":0,"peopleno":"150人","isIndoor":"否","isOutdoor":"否","shelterId":20,"openstatus":"撤除","shelterCode":"SZ209-0018","defaultville":"田沃村","address":"52號","adaptForWeaker":"否","disastertype":null,"village":"田沃村"}},{"type":"Feature","geometry":{"type":"Point","coordinates":[118.75456221939,0]},"properties":{"name":"莒光指揮部國軍文康中心","town":"莒光鄉","twd97x":-0.4,"county":"連江縣","twd97y":0,"peopleno":"100人","isIndoor":"否","isOutdoor":"否","shelterId":21,"openstatus":"撤除","shelterCode":"SZ209-0019","defaultville":"西坵村","address":"莒光指揮部國軍文康中心","adaptForWeaker":"否","disastertype":null,"village":"西坵村"}},{"type":"Feature","geometry":{"type":"Point","coordinates":[118.75456221939,0]},"properties":{"name":"敬恆國中小禮堂","town":"莒光鄉","twd97x":-0.4,"county":"連江縣","twd97y":0,"peopleno":200,"isIndoor":"否","isOutdoor":"否","shelterId":22,"openstatus":"撤除","shelterCode":"SZ209-0020","defaultville":"青帆村","address":"18號","adaptForWeaker":"否","disastertype":null,"village":"青帆村"}},{"type":"Feature","geometry":{"type":"Point","coordinates":[118.75456221939,0]},"properties":{"name":"福正風景管理處","town":"莒光鄉","twd97x":-0.4,"county":"連江縣","twd97y":0,"peopleno":"100人","isIndoor":"否","isOutdoor":"否","shelterId":23,"openstatus":"撤除","shelterCode":"SZ209-0021","defaultville":"福正村","address":"1號","adaptForWeaker":"否","disastertype":null,"village":"福正村"}},{"type":"Feature","geometry":{"type":"Point","coordinates":[118.75456221939,0]},"properties":{"name":"東莒老人活動中心","town":"莒光鄉","twd97x":-0.4,"county":"連江縣","twd97y":0,"peopleno":"100人","isIndoor":"否","isOutdoor":"否","shelterId":24,"openstatus":"撤除","shelterCode":"SZ209-0022","defaultville":"大坪村","address":"57-1號","adaptForWeaker":"否","disastertype":null,"village":"大坪村"}},{"type":"Feature","geometry":{"type":"Point","coordinates":[118.75456221939,0]},"properties":{"name":"青帆老人活動中心","town":"莒光鄉","twd97x":-0.4,"county":"連江縣","twd97y":0,"peopleno":150,"isIndoor":"否","isOutdoor":"否","shelterId":25,"openstatus":"撤除","shelterCode":"SZ209-0023","defaultville":"青帆村","address":"1號","adaptForWeaker":"否","disastertype":null,"village":"青帆村"}},{"type":"Feature","geometry":{"type":"Point","coordinates":[120.4878942117515,26.368364388264414]},"properties":{"name":"體育館","town":"東引鄉","twd97x":198894.79,"county":"連江縣","twd97y":2917453.57422,"peopleno":"300人","isIndoor":"否","isOutdoor":"否","shelterId":26,"openstatus":"撤除","shelterCode":"SZ209-0024","defaultville":"中柳村","address":"95號","adaptForWeaker":"否","disastertype":null,"village":"中柳村"}},{"type":"Feature","geometry":{"type":"Point","coordinates":[120.4884514344753,26.36791935289852]},"properties":{"name":"東引國中小教室","town":"東引鄉","twd97x":198950.21,"county":"連江縣","twd97y":2917404.05025,"peopleno":"200人","isIndoor":"否","isOutdoor":"否","shelterId":27,"openstatus":"撤除","shelterCode":"SZ209-0025","defaultville":"中柳村","address":"94號","adaptForWeaker":"否","disastertype":null,"village":"中柳村"}},{"type":"Feature","geometry":{"type":"Point","coordinates":[120.4879554182255,26.36691315967799]},"properties":{"name":"東引鄉活動中心","town":"東引鄉","twd97x":198900.26,"county":"連江縣","twd97y":2917292.77533,"peopleno":"200人","isIndoor":"否","isOutdoor":"否","shelterId":28,"openstatus":"撤除","shelterCode":"SZ209-0026","defaultville":"樂華村","address":"72-1號","adaptForWeaker":"否","disastertype":null,"village":"樂華村"}},{"type":"Feature","geometry":{"type":"Point","coordinates":[118.75456221939,0]},"properties":{"name":"幹訓班營區","town":"南竿鄉","twd97x":-0.4,"county":"連江縣","twd97y":0,"peopleno":200,"isIndoor":"否","isOutdoor":"否","shelterId":29,"openstatus":"撤除","shelterCode":"SZ209-0027","defaultville":"清水村福澳村馬港村","address":"SZ209-0027","adaptForWeaker":"否","disastertype":null,"village":"清水村"}},{"type":"Feature","geometry":{"type":"Point","coordinates":[118.4132,24.4889]},"properties":{"name":"金沙鎮公所","town":"金沙鎮","twd97x":-12240.22,"county":"金門縣","twd97y":2711622.21158,"peopleno":110,"isIndoor":"是","isOutdoor":"否","shelterId":30,"openstatus":"撤除","shelterCode":"SW890-0001","defaultville":"汶沙里、西園里、光前里、大洋里、浦山里、何斗里、官嶼里、三山里。","address":"環島東路一段112號","adaptForWeaker":"是","disastertype":"水災,震災,土石流,海嘯","village":"汶沙里"}},{"type":"Feature","geometry":{"type":"Point","coordinates":[118.245,24.291]},"properties":{"name":"金沙鎮汶沙里辦公處","town":"金沙鎮","twd97x":-29736.01,"county":"金門縣","twd97y":2690017.32079,"peopleno":30,"isIndoor":"是","isOutdoor":"否","shelterId":31,"openstatus":"撤除","shelterCode":"SW890-0002","defaultville":"金門縣金沙鎮汶沙里","address":"汶沙里國中路1-1號","adaptForWeaker":"否","disastertype":"水災,震災","village":"汶沙里"}},{"type":"Feature","geometry":{"type":"Point","coordinates":[118.242,24.303]},"properties":{"name":"金沙鎮西園里辦公處","town":"金沙鎮","twd97x":-30014.42,"county":"金門縣","twd97y":2691353.39951,"peopleno":30,"isIndoor":"否","isOutdoor":"否","shelterId":32,"openstatus":"撤除","shelterCode":"SW890-0003","defaultville":"金門縣金沙鎮西園里","address":"西園里西園1-3號","adaptForWeaker":"否","disastertype":null,"village":"西園里"}},{"type":"Feature","geometry":{"type":"Point","coordinates":[118.232,24.284]},"properties":{"name":"金沙鎮浦山里辦公處","town":"金沙鎮","twd97x":-31072.11,"county":"金門縣","twd97y":2689267.66463,"peopleno":30,"isIndoor":"是","isOutdoor":"否","shelterId":33,"openstatus":"撤除","shelterCode":"SW890-0004","defaultville":"金門縣金沙鎮浦山里","address":"浦山里浦邊4-3號","adaptForWeaker":"否","disastertype":"水災,震災","village":"浦山里"}},{"type":"Feature","geometry":{"type":"Point","coordinates":[118.24,24.282]},"properties":{"name":"金沙鎮何斗里辦公處","town":"金沙鎮","twd97x":-30263.74,"county":"金門縣","twd97y":2689029.85339,"peopleno":80,"isIndoor":"是","isOutdoor":"否","shelterId":34,"openstatus":"撤除","shelterCode":"SW890-0005","defaultville":"金門縣金沙鎮何斗里","address":"何斗里斗門55-3號","adaptForWeaker":"否","disastertype":"水災,震災","village":"何斗里"}},{"type":"Feature","geometry":{"type":"Point","coordinates":[118.245,24.282]},"properties":{"name":"金沙鎮三山里辦公處","town":"金沙鎮","twd97x":-29755.75,"county":"金門縣","twd97y":2689019.79181,"peopleno":30,"isIndoor":"是","isOutdoor":"否","shelterId":35,"openstatus":"撤除","shelterCode":"SW890-0006","defaultville":"金門縣金沙鎮三山里","address":"三山里碧山58-1號","adaptForWeaker":"否","disastertype":"水災,震災","village":"三山里"}},{"type":"Feature","geometry":{"type":"Point","coordinates":[118.245,24.311]},"properties":{"name":"金沙鎮官嶼里辦公處","town":"金沙鎮","twd97x":-29692.11,"county":"金門縣","twd97y":2692234.05512,"peopleno":30,"isIndoor":"是","isOutdoor":"否","shelterId":36,"openstatus":"撤除","shelterCode":"SW890-0007","defaultville":"金門縣金沙鎮官嶼里","address":"官嶼里官澳82-2號","adaptForWeaker":"否","disastertype":"水災,震災","village":"官嶼里"}},{"type":"Feature","geometry":{"type":"Point","coordinates":[118.253,24.284]},"properties":{"name":"金沙鎮光前里辦公處","town":"金沙鎮","twd97x":-28938.61,"county":"金門縣","twd97y":2689225.40339,"peopleno":80,"isIndoor":"是","isOutdoor":"否","shelterId":37,"openstatus":"撤除","shelterCode":"SW890-0008","defaultville":"金門縣金沙鎮光前里","address":"光前里陽翟96-5號","adaptForWeaker":"否","disastertype":"水災,震災","village":"光前里"}},{"type":"Feature","geometry":{"type":"Point","coordinates":[118.271,24.274]},"properties":{"name":"金沙鎮大洋里辦公處","town":"金沙鎮","twd97x":-27131.63,"county":"金門縣","twd97y":2688081.08775,"peopleno":30,"isIndoor":"是","isOutdoor":"否","shelterId":38,"openstatus":"撤除","shelterCode":"SW890-0009","defaultville":"金門縣金沙鎮大洋里","address":"大洋里東山22號","adaptForWeaker":"否","disastertype":"水災,震災","village":"大洋里"}},{"type":"Feature","geometry":{"type":"Point","coordinates":[118.416879,24.441523]},"properties":{"name":"金湖鎮公所","town":"金湖鎮","twd97x":-11965.19,"county":"金門縣","twd97y":2706364.51555,"peopleno":120,"isIndoor":"是","isOutdoor":"否","shelterId":39,"openstatus":"撤除","shelterCode":"SW891-0001","defaultville":"金湖鎮各里機動式收容","address":"林森路二號","adaptForWeaker":"是","disastertype":"水災,震災,土石流,海嘯","village":"新市里"}},{"type":"Feature","geometry":{"type":"Point","coordinates":[118.416754,24.441569]},"properties":{"name":"金湖鎮新市里辦公處","town":"金湖鎮","twd97x":-11977.78,"county":"金門縣","twd97y":2706369.85039,"peopleno":40,"isIndoor":"是","isOutdoor":"否","shelterId":40,"openstatus":"撤除","shelterCode":"SW891-0002","defaultville":"新市里","address":"林森路6號","adaptForWeaker":"否","disastertype":"水災","village":"新市里"}},{"type":"Feature","geometry":{"type":"Point","coordinates":[118.414691,24.443575]},"properties":{"name":"金湖鎮山外里辦公處","town":"金湖鎮","twd97x":-12182.94,"county":"金門縣","twd97y":2706596.08068,"peopleno":30,"isIndoor":"是","isOutdoor":"否","shelterId":41,"openstatus":"撤除","shelterCode":"SW891-0003","defaultville":"山外里","address":"山外1-1號","adaptForWeaker":"是","disastertype":"水災,震災,土石流,海嘯","village":"山外里"}},{"type":"Feature","geometry":{"type":"Point","coordinates":[118.414545,24.435813]},"properties":{"name":"金湖鎮新湖里辦公處","town":"金湖鎮","twd97x":-12213.82,"county":"金門縣","twd97y":2705736.10933,"peopleno":30,"isIndoor":"是","isOutdoor":"否","shelterId":42,"openstatus":"撤除","shelterCode":"SW891-0004","defaultville":"新湖里","address":"湖前62-1號","adaptForWeaker":"是","disastertype":"水災,震災,土石流,海嘯","village":"新湖里"}},{"type":"Feature","geometry":{"type":"Point","coordinates":[118.460286,24.442463]},"properties":{"name":"金湖鎮溪湖里辦公處","town":"金湖鎮","twd97x":-7559.27,"county":"金門縣","twd97y":2706387.1738,"peopleno":30,"isIndoor":"是","isOutdoor":"否","shelterId":43,"openstatus":"撤除","shelterCode":"SW891-0005","defaultville":"溪湖里","address":"溪邊80號","adaptForWeaker":"是","disastertype":"水災,震災,土石流,海嘯","village":"溪湖里"}},{"type":"Feature","geometry":{"type":"Point","coordinates":[118.445281,24.42601]},"properties":{"name":"金湖鎮蓮庵里辦公處","town":"金湖鎮","twd97x":-9115.29,"county":"金門縣","twd97y":2704591.77164,"peopleno":30,"isIndoor":"是","isOutdoor":"否","shelterId":44,"openstatus":"撤除","shelterCode":"SW891-0006","defaultville":"蓮庵里","address":"東村43號","adaptForWeaker":"是","disastertype":"水災,震災,土石流,海嘯","village":"蓮庵里"}},{"type":"Feature","geometry":{"type":"Point","coordinates":[118.436256,24.416677]},"properties":{"name":"金湖鎮料羅里辦公處","town":"金湖鎮","twd97x":-10050.21,"county":"金門縣","twd97y":2703574.35246,"peopleno":30,"isIndoor":"是","isOutdoor":"否","shelterId":45,"openstatus":"撤除","shelterCode":"SW891-0007","defaultville":"料羅里","address":"料羅16-4號","adaptForWeaker":"是","disastertype":"水災,震災,土石流,海嘯","village":"料羅里"}},{"type":"Feature","geometry":{"type":"Point","coordinates":[118.390023,24.439013]},"properties":{"name":"金湖鎮正義里辦公處","town":"金湖鎮","twd97x":-14695.26,"county":"金門縣","twd97y":2706137.46215,"peopleno":40,"isIndoor":"是","isOutdoor":"否","shelterId":46,"openstatus":"撤除","shelterCode":"SW891-0008","defaultville":"正義里","address":"成功65-1號","adaptForWeaker":"是","disastertype":"水災,震災,土石流,海嘯","village":"正義里"}},{"type":"Feature","geometry":{"type":"Point","coordinates":[118.372922,24.455146]},"properties":{"name":"金湖鎮瓊林里辦公處","town":"金湖鎮","twd97x":-16396.44,"county":"金門縣","twd97y":2707958.32423,"peopleno":50,"isIndoor":"是","isOutdoor":"否","shelterId":47,"openstatus":"撤除","shelterCode":"SW891-0009","defaultville":"瓊林里","address":"瓊林236-1號","adaptForWeaker":"是","disastertype":"水災,震災,土石流,海嘯","village":"瓊林里"}},{"type":"Feature","geometry":{"type":"Point","coordinates":[118.3349,24.4509]},"properties":{"name":"金寧鄉公所收容所","town":"金寧鄉","twd97x":-20262.92,"county":"金門縣","twd97y":2707561.52986,"peopleno":100,"isIndoor":"是","isOutdoor":"否","shelterId":48,"openstatus":"撤除","shelterCode":"SW892-0001","defaultville":"金寧鄉轄區各村落","address":"仁愛新村1號","adaptForWeaker":"是","disastertype":"水災,土石流,海嘯","village":"盤山村"}},{"type":"Feature","geometry":{"type":"Point","coordinates":[118.331873,24.435134]},"properties":{"name":"榜林村辦公處收容所","town":"金寧鄉","twd97x":-20603.72,"county":"金門縣","twd97y":2705820.05653,"peopleno":50,"isIndoor":"否","isOutdoor":"否","shelterId":49,"openstatus":"撤除","shelterCode":"SW892-0002","defaultville":"榜林村","address":"榜林21號","adaptForWeaker":"否","disastertype":null,"village":"榜林村"}},{"type":"Feature","geometry":{"type":"Point","coordinates":[118.305473,24.458058]},"properties":{"name":"湖埔村辦公處收容所","town":"金寧鄉","twd97x":-23233.05,"county":"金門縣","twd97y":2708412.72686,"peopleno":50,"isIndoor":"是","isOutdoor":"否","shelterId":50,"openstatus":"撤除","shelterCode":"SW892-0003","defaultville":"湖埔村","address":"湖下155號","adaptForWeaker":"是","disastertype":"水災,土石流,海嘯","village":"湖埔村"}},{"type":"Feature","geometry":{"type":"Point","coordinates":[118.340234,24.449053]},"properties":{"name":"盤山村辦公處收容所","town":"金寧鄉","twd97x":-19725.69,"county":"金門縣","twd97y":2707346.40567,"peopleno":50,"isIndoor":"是","isOutdoor":"否","shelterId":51,"openstatus":"撤除","shelterCode":"SW892-0004","defaultville":"盤山村","address":"頂堡150號","adaptForWeaker":"是","disastertype":"水災,土石流,海嘯","village":"盤山村"}},{"type":"Feature","geometry":{"type":"Point","coordinates":[118.354268,24.450889]},"properties":{"name":"后盤村辦公處收容所","town":"金寧鄉","twd97x":-18297.94,"county":"金門縣","twd97y":2707522.58851,"peopleno":50,"isIndoor":"是","isOutdoor":"否","shelterId":52,"openstatus":"撤除","shelterCode":"SW892-0005","defaultville":"后盤村","address":"后盤山33號","adaptForWeaker":"是","disastertype":"水災,土石流,海嘯","village":"后盤村"}},{"type":"Feature","geometry":{"type":"Point","coordinates":[118.32665,24.457343]},"properties":{"name":"安美村辦公處收容所","town":"金寧鄉","twd97x":-21086.13,"county":"金門縣","twd97y":2708291.78197,"peopleno":50,"isIndoor":"是","isOutdoor":"否","shelterId":53,"openstatus":"撤除","shelterCode":"SW892-0006","defaultville":"安美村","address":"安岐37-3號","adaptForWeaker":"是","disastertype":"水災,土石流,海嘯","village":"安美村"}},{"type":"Feature","geometry":{"type":"Point","coordinates":[118.31223,24.477772]},"properties":{"name":"古寧村辦公處收容所","town":"金寧鄉","twd97x":-22505.05,"county":"金門縣","twd97y":2710584.3775,"peopleno":50,"isIndoor":"是","isOutdoor":"否","shelterId":54,"openstatus":"撤除","shelterCode":"SW892-0007","defaultville":"古寧村","address":"北山10之3號","adaptForWeaker":"是","disastertype":"水災,土石流,海嘯","village":"古寧村"}},{"type":"Feature","geometry":{"type":"Point","coordinates":[118.320608,24.432741]},"properties":{"name":"金城鎮公所","town":"金城鎮","twd97x":-21751.91,"county":"金門縣","twd97y":2705576.91342,"peopleno":60,"isIndoor":"是","isOutdoor":"否","shelterId":55,"openstatus":"撤除","shelterCode":"SW893-0001","defaultville":"東門里、北門里","address":"民生路2號","adaptForWeaker":"是","disastertype":"水災,震災","village":"東門里"}},{"type":"Feature","geometry":{"type":"Point","coordinates":[118.295323,24.412637]},"properties":{"name":"前水頭社區活動中心","town":"金城鎮","twd97x":-24361.17,"county":"金門縣","twd97y":2703398.58633,"peopleno":50,"isIndoor":"是","isOutdoor":"否","shelterId":56,"openstatus":"撤除","shelterCode":"SW893-0002","defaultville":"金水里","address":"前水頭150-1號","adaptForWeaker":"否","disastertype":"水災","village":"金水里"}},{"type":"Feature","geometry":{"type":"Point","coordinates":[118.30989,24.417848]},"properties":{"name":"賢庵里辦公處","town":"金城鎮","twd97x":-22871.56,"county":"金門縣","twd97y":2703947.35484,"peopleno":30,"isIndoor":"是","isOutdoor":"否","shelterId":57,"openstatus":"撤除","shelterCode":"SW893-0003","defaultville":"賢庵里","address":"賢聚25號","adaptForWeaker":"否","disastertype":"水災","village":"賢庵里"}},{"type":"Feature","geometry":{"type":"Point","coordinates":[118.32855,24.414884]},"properties":{"name":"和平社區活動中心","town":"金城鎮","twd97x":-20984.21,"county":"金門縣","twd97y":2703582.19157,"peopleno":50,"isIndoor":"是","isOutdoor":"否","shelterId":58,"openstatus":"撤除","shelterCode":"SW893-0004","defaultville":"珠沙里","address":"和平新村130號","adaptForWeaker":"否","disastertype":"水災","village":"珠沙里"}},{"type":"Feature","geometry":{"type":"Point","coordinates":[118.305944,24.40212]},"properties":{"name":"金門城社區活動中心","town":"金城鎮","twd97x":-23305.92,"county":"金門縣","twd97y":2702211.9382,"peopleno":50,"isIndoor":"是","isOutdoor":"否","shelterId":59,"openstatus":"撤除","shelterCode":"SW893-0005","defaultville":"古城里","address":"金門城85-1號","adaptForWeaker":"否","disastertype":"水災","village":"古城里"}},{"type":"Feature","geometry":{"type":"Point","coordinates":[118.305944,24.40212]},"properties":{"name":"西南門里辦公處","town":"金城鎮","twd97x":-23305.92,"county":"金門縣","twd97y":2702211.9382,"peopleno":50,"isIndoor":"是","isOutdoor":"否","shelterId":60,"openstatus":"撤除","shelterCode":"SW893-0006","defaultville":"西門里、南門里","address":"民權路90-6號","adaptForWeaker":"否","disastertype":"水災","village":"西門里"}},{"type":"Feature","geometry":{"type":"Point","coordinates":[118.315222,24.42986]},"properties":{"name":"金門縣立體育館","town":"金城鎮","twd97x":-22304.64,"county":"金門縣","twd97y":2705268.1908,"peopleno":500,"isIndoor":"否","isOutdoor":"否","shelterId":61,"openstatus":"撤除","shelterCode":"SW893-0007","defaultville":"全縣各村里機動式收容","address":"民族路261號","adaptForWeaker":"否","disastertype":"水災","village":"南門里"}},{"type":"Feature","geometry":{"type":"Point","coordinates":[118.2429,24.429]},"properties":{"name":"金門縣烈嶼鄉體育館","town":"烈嶼鄉","twd97x":-29645.52,"county":"金門縣","twd97y":2705317.12177,"peopleno":100,"isIndoor":"是","isOutdoor":"否","shelterId":62,"openstatus":"撤除","shelterCode":"SW894-0001","defaultville":"烈嶼鄉各村機動式收容","address":"后井40號","adaptForWeaker":"是","disastertype":"水災,震災,土石流,海嘯","village":"林湖村"}},{"type":"Feature","geometry":{"type":"Point","coordinates":[118.248614,0]},"properties":{"name":"金門縣烈嶼鄉林湖村辦公處","town":"烈嶼鄉","twd97x":-56370.76,"county":"金門縣","twd97y":0,"peopleno":30,"isIndoor":"是","isOutdoor":"否","shelterId":63,"openstatus":"撤除","shelterCode":"SW894-0002","defaultville":"林湖村","address":"東林24號","adaptForWeaker":"是","disastertype":"水災,震災,土石流,海嘯","village":"林湖村"}},{"type":"Feature","geometry":{"type":"Point","coordinates":[118.2518,24.4467]},"properties":{"name":"金門縣烈嶼鄉黃埔村辦公處","town":"烈嶼鄉","twd97x":-28703.4,"county":"金門縣","twd97y":2707260.99267,"peopleno":30,"isIndoor":"是","isOutdoor":"否","shelterId":64,"openstatus":"撤除","shelterCode":"SW894-0003","defaultville":"黃埔村","address":"黃厝45號","adaptForWeaker":"是","disastertype":"水災,震災,土石流,海嘯","village":"黃埔村"}},{"type":"Feature","geometry":{"type":"Point","coordinates":[118.2383,24.4353]},"properties":{"name":"金門縣烈嶼鄉西口村辦公處","town":"烈嶼鄉","twd97x":-30098.4,"county":"金門縣","twd97y":2706024.70987,"peopleno":30,"isIndoor":"是","isOutdoor":"否","shelterId":65,"openstatus":"撤除","shelterCode":"SW894-0004","defaultville":"西口村","address":"西方18號","adaptForWeaker":"是","disastertype":"水災,震災,土石流,海嘯","village":"西口村"}},{"type":"Feature","geometry":{"type":"Point","coordinates":[118.2322,24.4279]},"properties":{"name":"金門縣烈嶼鄉上林村辦公處","town":"烈嶼鄉","twd97x":-30733.79,"county":"金門縣","twd97y":2705216.86695,"peopleno":30,"isIndoor":"是","isOutdoor":"否","shelterId":66,"openstatus":"撤除","shelterCode":"SW894-0005","defaultville":"上林村","address":"上林78號","adaptForWeaker":"是","disastertype":"水災,震災,土石流,海嘯","village":"上林村"}},{"type":"Feature","geometry":{"type":"Point","coordinates":[118.226,24.4154]},"properties":{"name":"金門縣烈嶼鄉上岐村辦公處","town":"烈嶼鄉","twd97x":-31390.73,"county":"金門縣","twd97y":2703843.96977,"peopleno":30,"isIndoor":"是","isOutdoor":"否","shelterId":67,"openstatus":"撤除","shelterCode":"SW894-0006","defaultville":"上岐村","address":"青岐90號","adaptForWeaker":"是","disastertype":"水災,震災,土石流,海嘯","village":"上岐村"}},{"type":"Feature","geometry":{"type":"Point","coordinates":[118.75456221939,0]},"properties":{"name":"金門縣烏坵鄉公所大廳","town":"烏坵鄉","twd97x":-0.4,"county":"金門縣","twd97y":0,"peopleno":30,"isIndoor":"否","isOutdoor":"否","shelterId":68,"openstatus":"撤除","shelterCode":"SW896-0001","defaultville":"烏坵鄉大坵村","address":"1號","adaptForWeaker":"否","disastertype":null,"village":"大坵村"}},{"type":"Feature","geometry":{"type":"Point","coordinates":[118.75456221939,0]},"properties":{"name":"烏坵鄉小坵村活動中心","town":"烏坵鄉","twd97x":-0.4,"county":"金門縣","twd97y":0,"peopleno":20,"isIndoor":"否","isOutdoor":"否","shelterId":69,"openstatus":"撤除","shelterCode":"SW896-0002","defaultville":"小坵村","address":"無門牌號碼","adaptForWeaker":"否","disastertype":null,"village":"小坵村"}},{"type":"Feature","geometry":{"type":"Point","coordinates":[121.75,24.7639]},"properties":{"name":"宜蘭國中活動中心","town":"宜蘭市","twd97x":325850.44,"county":"宜蘭縣","twd97y":2739833.13145,"peopleno":356,"isIndoor":"是","isOutdoor":"否","shelterId":70,"openstatus":"撤除","shelterCode":"SG260-0001","defaultville":"小東里、菜園里、孝廉里、北門里、思源里","address":"樹人路37號","adaptForWeaker":"否","disastertype":"水災,震災,海嘯","village":"小東里"}},{"type":"Feature","geometry":{"type":"Point","coordinates":[121.7669,24.7505]},"properties":{"name":"中華國中","town":"宜蘭市","twd97x":327567.99,"county":"宜蘭縣","twd97y":2738358.36367,"peopleno":420,"isIndoor":"是","isOutdoor":"否","shelterId":71,"openstatus":"撤除","shelterCode":"SG260-0002","defaultville":"東村里、新東里","address":"女中路一段100號","adaptForWeaker":"是","disastertype":"水災,震災,海嘯","village":"東村里"}},{"type":"Feature","geometry":{"type":"Point","coordinates":[121.766,24.7488]},"properties":{"name":"三聖宮","town":"宜蘭市","twd97x":327478.01,"county":"宜蘭縣","twd97y":2738169.55416,"peopleno":85,"isIndoor":"是","isOutdoor":"否","shelterId":72,"openstatus":"撤除","shelterCode":"SG260-0003","defaultville":"新東里","address":"女中路一段148號","adaptForWeaker":"是","disastertype":"水災,震災,海嘯","village":null}},{"type":"Feature","geometry":{"type":"Point","coordinates":[121.7476,24.7489]},"properties":{"name":"復興國中群育館","town":"宜蘭市","twd97x":325616.79,"county":"宜蘭縣","twd97y":2738170.33835,"peopleno":212,"isIndoor":"是","isOutdoor":"否","shelterId":73,"openstatus":"撤除","shelterCode":"SG260-0004","defaultville":"文化里、復興里","address":"復興路二段77號","adaptForWeaker":"否","disastertype":"水災,震災,海嘯","village":"文化里"}},{"type":"Feature","geometry":{"type":"Point","coordinates":[121.7481,24.7453]},"properties":{"name":"國立宜蘭大學體育館","town":"宜蘭市","twd97x":325669.54,"county":"宜蘭縣","twd97y":2737771.86377,"peopleno":375,"isIndoor":"是","isOutdoor":"否","shelterId":74,"openstatus":"撤除","shelterCode":"SG260-0005","defaultville":"思源里、文化里、復興里、七結里、擺厘里","address":"神農路一段1號","adaptForWeaker":"是","disastertype":"水災,震災,海嘯","village":"思源里"}},{"type":"Feature","geometry":{"type":"Point","coordinates":[121.747,24.7545]},"properties":{"name":"光復國小五育館","town":"宜蘭市","twd97x":325552.71,"county":"宜蘭縣","twd97y":2738790.28649,"peopleno":284,"isIndoor":"是","isOutdoor":"否","shelterId":75,"openstatus":"撤除","shelterCode":"SG260-0006","defaultville":"西門里、南門里、負郭里、民族里","address":"泰山路60號","adaptForWeaker":"否","disastertype":"水災,震災,海嘯","village":"負郭里"}},{"type":"Feature","geometry":{"type":"Point","coordinates":[121.7428,24.7511]},"properties":{"name":"國立宜蘭高中體育館","town":"宜蘭市","twd97x":325129.95,"county":"宜蘭縣","twd97y":2738411.37562,"peopleno":237,"isIndoor":"是","isOutdoor":"否","shelterId":76,"openstatus":"撤除","shelterCode":"SG260-0007","defaultville":"延平里、建軍里、泰山里","address":"復興路三段8號","adaptForWeaker":"是","disastertype":"水災,震災,海嘯","village":"建軍里"}},{"type":"Feature","geometry":{"type":"Point","coordinates":[121.7426,24.754]},"properties":{"name":"南屏國小活動中心","town":"宜蘭市","twd97x":325107.97,"county":"宜蘭縣","twd97y":2738732.48184,"peopleno":231,"isIndoor":"是","isOutdoor":"否","shelterId":77,"openstatus":"撤除","shelterCode":"SG260-0008","defaultville":"南門里、負郭里、建軍里、泰山里","address":"泰山路98號","adaptForWeaker":"是","disastertype":"水災,震災,海嘯","village":"負郭里"}},{"type":"Feature","geometry":{"type":"Point","coordinates":[121.7545,24.7707]},"properties":{"name":"新生國小體育館","town":"宜蘭市","twd97x":326301.4,"county":"宜蘭縣","twd97y":2740588.83353,"peopleno":317,"isIndoor":"是","isOutdoor":"否","shelterId":78,"openstatus":"撤除","shelterCode":"SG260-0009","defaultville":"茭白里、北津里、新生里、梅洲里","address":"大坡路一段100號","adaptForWeaker":"是","disastertype":"水災,震災,海嘯","village":"茭白里"}},{"type":"Feature","geometry":{"type":"Point","coordinates":[121.7369,24.7332]},"properties":{"name":"育才國小中興堂","town":"宜蘭市","twd97x":324543.85,"county":"宜蘭縣","twd97y":2736425.47531,"peopleno":68,"isIndoor":"是","isOutdoor":"否","shelterId":79,"openstatus":"撤除","shelterCode":"SG260-0010","defaultville":"進士里、南橋里、擺厘里","address":"進士路8號","adaptForWeaker":"是","disastertype":"水災,震災,海嘯","village":"進士里"}},{"type":"Feature","geometry":{"type":"Point","coordinates":[121.7465,24.7414]},"properties":{"name":"進士里鎮興廟","town":"宜蘭市","twd97x":325510.05,"county":"宜蘭縣","twd97y":2737339.00023,"peopleno":46,"isIndoor":"是","isOutdoor":"否","shelterId":80,"openstatus":"撤除","shelterCode":"SG260-0011","defaultville":"進士里","address":"進士路53號","adaptForWeaker":"否","disastertype":"水災,震災,海嘯","village":"進士里"}},{"type":"Feature","geometry":{"type":"Point","coordinates":[121.755,24.7638]},"properties":{"name":"力行國小英才館","town":"宜蘭市","twd97x":326356.19,"county":"宜蘭縣","twd97y":2739824.83716,"peopleno":148,"isIndoor":"是","isOutdoor":"否","shelterId":81,"openstatus":"撤除","shelterCode":"SG260-0012","defaultville":"孝廉里","address":"力行路１５２號","adaptForWeaker":"是","disastertype":"水災,震災,海嘯","village":"孝廉里"}},{"type":"Feature","geometry":{"type":"Point","coordinates":[121.7636,24.7256]},"properties":{"name":"凱旋國小展藝館","town":"宜蘭市","twd97x":327249.58,"county":"宜蘭縣","twd97y":2735598.46645,"peopleno":277,"isIndoor":"是","isOutdoor":"否","shelterId":82,"openstatus":"撤除","shelterCode":"SG260-0013","defaultville":"南津里、凱旋里","address":"凱旋路130號","adaptForWeaker":"是","disastertype":"水災,震災,海嘯","village":"南津里"}},{"type":"Feature","geometry":{"type":"Point","coordinates":[121.757,24.7256]},"properties":{"name":"凱旋國民中學樂活館","town":"宜蘭市","twd97x":326581.87,"county":"宜蘭縣","twd97y":2735594.76016,"peopleno":164,"isIndoor":"是","isOutdoor":"否","shelterId":83,"openstatus":"撤除","shelterCode":"SG260-0014","defaultville":"建業里、南津里","address":"縣政七街50巷1號","adaptForWeaker":"是","disastertype":"水災,震災,海嘯","village":"建業里"}},{"type":"Feature","geometry":{"type":"Point","coordinates":[121.7546,24.754]},"properties":{"name":"中山國小五育館","town":"宜蘭市","twd97x":326321.72,"county":"宜蘭縣","twd97y":2738739.12245,"peopleno":65,"isIndoor":"是","isOutdoor":"否","shelterId":84,"openstatus":"撤除","shelterCode":"SG260-0015","defaultville":"神農里、大新里、新民里、東門里","address":"崇聖街4號","adaptForWeaker":"是","disastertype":"水災,震災,海嘯","village":"神農里"}},{"type":"Feature","geometry":{"type":"Point","coordinates":[121.7547,24.7532]},"properties":{"name":"宜蘭國小活動中心","town":"宜蘭市","twd97x":326332.32,"county":"宜蘭縣","twd97y":2738650.56675,"peopleno":286,"isIndoor":"是","isOutdoor":"否","shelterId":85,"openstatus":"撤除","shelterCode":"SG260-0016","defaultville":"神農里、大新里、新民里","address":"崇聖街2號","adaptForWeaker":"是","disastertype":"水災,震災,海嘯","village":"神農里"}},{"type":"Feature","geometry":{"type":"Point","coordinates":[121.7643,24.7517]},"properties":{"name":"黎明國小體育館","town":"宜蘭市","twd97x":327304.26,"county":"宜蘭縣","twd97y":2738489.80972,"peopleno":108,"isIndoor":"是","isOutdoor":"否","shelterId":86,"openstatus":"撤除","shelterCode":"SG260-0017","defaultville":"新東里、東村里","address":"校舍路1號","adaptForWeaker":"是","disastertype":"水災,震災,海嘯","village":null}},{"type":"Feature","geometry":{"type":"Point","coordinates":[121.7443,24.7631]},"properties":{"name":"梅洲社區活動中心","town":"宜蘭市","twd97x":325274.44,"county":"宜蘭縣","twd97y":2739741.37088,"peopleno":86,"isIndoor":"是","isOutdoor":"否","shelterId":87,"openstatus":"撤除","shelterCode":"SG260-0018","defaultville":"梅洲里","address":"金同春路48號1樓","adaptForWeaker":"是","disastertype":"水災,震災,海嘯","village":"梅洲里"}},{"type":"Feature","geometry":{"type":"Point","coordinates":[121.7442,24.7608]},"properties":{"name":"梅洲里鎮平宮","town":"宜蘭市","twd97x":325265.71,"county":"宜蘭縣","twd97y":2739486.55794,"peopleno":35,"isIndoor":"是","isOutdoor":"否","shelterId":88,"openstatus":"撤除","shelterCode":"SG260-0019","defaultville":"梅洲里","address":"鎮平路98號","adaptForWeaker":"是","disastertype":"水災,震災,海嘯","village":"梅洲里"}},{"type":"Feature","geometry":{"type":"Point","coordinates":[121.7499,24.7675]},"properties":{"name":"北津社區活動中心","town":"宜蘭市","twd97x":325838.14,"county":"宜蘭縣","twd97y":2740231.82803,"peopleno":72,"isIndoor":"是","isOutdoor":"否","shelterId":89,"openstatus":"撤除","shelterCode":"SG260-0020","defaultville":"北津里","address":"金同春路231號","adaptForWeaker":"否","disastertype":"水災,震災,海嘯","village":"北津里"}},{"type":"Feature","geometry":{"type":"Point","coordinates":[121.7546,24.7686]},"properties":{"name":"北津里帝王廟","town":"宜蘭市","twd97x":326312.8,"county":"宜蘭縣","twd97y":2740356.2837,"peopleno":10,"isIndoor":"是","isOutdoor":"否","shelterId":90,"openstatus":"撤除","shelterCode":"SG260-0021","defaultville":"北津里","address":"北津路31-5號","adaptForWeaker":"是","disastertype":"水災,震災,海嘯","village":"北津里"}},{"type":"Feature","geometry":{"type":"Point","coordinates":[121.7524,24.7622]},"properties":{"name":"慶和社區活動中心1樓","town":"宜蘭市","twd97x":326094.2,"county":"宜蘭縣","twd97y":2739646.165,"peopleno":45,"isIndoor":"是","isOutdoor":"否","shelterId":91,"openstatus":"撤除","shelterCode":"SG260-0022","defaultville":"北門里","address":"碧霞街136號","adaptForWeaker":"是","disastertype":"水災,震災,海嘯","village":"北門里"}},{"type":"Feature","geometry":{"type":"Point","coordinates":[121.7518,24.7626]},"properties":{"name":"慶和里慶和廟","town":"宜蘭市","twd97x":326033.28,"county":"宜蘭縣","twd97y":2739690.13711,"peopleno":4,"isIndoor":"是","isOutdoor":"否","shelterId":92,"openstatus":"撤除","shelterCode":"SG260-0023","defaultville":"北門里","address":"慶和街慶和巷16號","adaptForWeaker":"是","disastertype":"水災,震災,海嘯","village":"北門里"}},{"type":"Feature","geometry":{"type":"Point","coordinates":[121.7575,24.7608]},"properties":{"name":"東園社區活動中心","town":"宜蘭市","twd97x":326610.87,"county":"宜蘭縣","twd97y":2739493.94157,"peopleno":44,"isIndoor":"是","isOutdoor":"否","shelterId":93,"openstatus":"撤除","shelterCode":"SG260-0024","defaultville":"慈安里、東門里、小東里、菜園里、中興里","address":"宜蘭市新興路111號","adaptForWeaker":"否","disastertype":"水災,震災,海嘯","village":"菜園里"}},{"type":"Feature","geometry":{"type":"Point","coordinates":[121.7838,24.7504]},"properties":{"name":"五大社區活動中心","town":"宜蘭市","twd97x":329277.47,"county":"宜蘭縣","twd97y":2738356.97263,"peopleno":38,"isIndoor":"是","isOutdoor":"否","shelterId":94,"openstatus":"撤除","shelterCode":"SG260-0025","defaultville":"延平里","address":"東港路二巷14弄21號","adaptForWeaker":"是","disastertype":"水災,震災,海嘯","village":"延平里"}},{"type":"Feature","geometry":{"type":"Point","coordinates":[121.7655,24.7549]},"properties":{"name":"國立宜蘭高商四維堂","town":"宜蘭市","twd97x":327423.65,"county":"宜蘭縣","twd97y":2738844.93471,"peopleno":283,"isIndoor":"是","isOutdoor":"否","shelterId":95,"openstatus":"撤除","shelterCode":"SG260-0026","defaultville":"成功里、慈安里、中興里、延平里","address":"延平路50號","adaptForWeaker":"是","disastertype":"水災,震災,海嘯","village":null}},{"type":"Feature","geometry":{"type":"Point","coordinates":[121.7506,24.7763]},"properties":{"name":"茭白社區活動中心","town":"宜蘭市","twd97x":325903.58,"county":"宜蘭縣","twd97y":2741206.94451,"peopleno":38,"isIndoor":"是","isOutdoor":"否","shelterId":96,"openstatus":"撤除","shelterCode":"SG260-0027","defaultville":"茭白里","address":"茭白路39-10號","adaptForWeaker":"是","disastertype":"水災,震災,海嘯","village":"茭白里"}},{"type":"Feature","geometry":{"type":"Point","coordinates":[121.776,24.744]},"properties":{"name":"黎明社區活動中心","town":"宜蘭市","twd97x":328492.52,"county":"宜蘭縣","twd97y":2737643.5826,"peopleno":35,"isIndoor":"是","isOutdoor":"否","shelterId":97,"openstatus":"撤除","shelterCode":"SG260-0028","defaultville":"黎明里","address":"黎明路326號","adaptForWeaker":"是","disastertype":"水災,震災,海嘯","village":"黎明里"}},{"type":"Feature","geometry":{"type":"Point","coordinates":[121.7712,24.7427]},"properties":{"name":"黎明里慶安廟","town":"宜蘭市","twd97x":328007.8,"county":"宜蘭縣","twd97y":2737496.84461,"peopleno":30,"isIndoor":"是","isOutdoor":"否","shelterId":98,"openstatus":"撤除","shelterCode":"SG260-0029","defaultville":"黎明里","address":"黎明路481巷11號","adaptForWeaker":"是","disastertype":"水災,震災,海嘯","village":"黎明里"}},{"type":"Feature","geometry":{"type":"Point","coordinates":[121.7374,24.7482]},"properties":{"name":"思源社區活動中心","town":"宜蘭市","twd97x":324585.48,"county":"宜蘭縣","twd97y":2738087.20589,"peopleno":35,"isIndoor":"是","isOutdoor":"否","shelterId":99,"openstatus":"撤除","shelterCode":"SG260-0030","defaultville":"思源里、七結里","address":"泰山路七結巷9之10號","adaptForWeaker":"是","disastertype":"水災,震災,海嘯","village":null}},{"type":"Feature","geometry":{"type":"Point","coordinates":[121.7642,24.7646]},"properties":{"name":"新生社區活動中心","town":"宜蘭市","twd97x":327286.16,"county":"宜蘭縣","twd97y":2739918.61636,"peopleno":35,"isIndoor":"是","isOutdoor":"否","shelterId":100,"openstatus":"撤除","shelterCode":"SG260-0031","defaultville":"新生里","address":"大福路1段243號","adaptForWeaker":"否","disastertype":"水災,震災,海嘯","village":"新生里"}},{"type":"Feature","geometry":{"type":"Point","coordinates":[121.7752,24.764]},"properties":{"name":"七張社區活動中心","town":"宜蘭市","twd97x":328399.05,"county":"宜蘭縣","twd97y":2739858.41827,"peopleno":140,"isIndoor":"是","isOutdoor":"否","shelterId":101,"openstatus":"撤除","shelterCode":"SG260-0032","defaultville":"七張里","address":"七張路62之11號","adaptForWeaker":"是","disastertype":"水災,震災,海嘯","village":"七張里"}},{"type":"Feature","geometry":{"type":"Point","coordinates":[121.7695,24.7648]},"properties":{"name":"七張里慈雲寺","town":"宜蘭市","twd97x":327822.07,"county":"宜蘭縣","twd97y":2739943.77472,"peopleno":25,"isIndoor":"否","isOutdoor":"是","shelterId":102,"openstatus":"撤除","shelterCode":"SG260-0033","defaultville":"七張里","address":"七張路539號","adaptForWeaker":"是","disastertype":"水災,震災,海嘯","village":"七張里"}},{"type":"Feature","geometry":{"type":"Point","coordinates":[121.7682,24.7276]},"properties":{"name":"凱旋社區活動中心","town":"宜蘭市","twd97x":327713.71,"county":"宜蘭縣","twd97y":2735822.59703,"peopleno":64,"isIndoor":"是","isOutdoor":"否","shelterId":103,"openstatus":"撤除","shelterCode":"SG260-0034","defaultville":"凱旋里","address":"旋流路3之5號","adaptForWeaker":"是","disastertype":"水災,震災,海嘯","village":"凱旋里"}},{"type":"Feature","geometry":{"type":"Point","coordinates":[121.7566,24.7315]},"properties":{"name":"建業社區活動中心","town":"宜蘭市","twd97x":326537.79,"county":"宜蘭縣","twd97y":2736248.04433,"peopleno":26,"isIndoor":"是","isOutdoor":"否","shelterId":104,"openstatus":"撤除","shelterCode":"SG260-0035","defaultville":"建業里","address":"建業路86巷57號、59號","adaptForWeaker":"是","disastertype":"水災,震災,海嘯","village":"建業里"}},{"type":"Feature","geometry":{"type":"Point","coordinates":[121.7412,24.7307]},"properties":{"name":"南橋社區活動中心","town":"宜蘭市","twd97x":324980.34,"county":"宜蘭縣","twd97y":2736150.91348,"peopleno":38,"isIndoor":"是","isOutdoor":"否","shelterId":105,"openstatus":"撤除","shelterCode":"SG260-0036","defaultville":"南橋里","address":"南橋路240號","adaptForWeaker":"是","disastertype":"水災,震災,海嘯","village":"南橋里"}},{"type":"Feature","geometry":{"type":"Point","coordinates":[121.7511,24.7593]},"properties":{"name":"碧霞宮","town":"宜蘭市","twd97x":325964.49,"county":"宜蘭縣","twd97y":2739324.22563,"peopleno":48,"isIndoor":"是","isOutdoor":"否","shelterId":106,"openstatus":"撤除","shelterCode":"SG260-0037","defaultville":"中山里","address":"城隍街52號","adaptForWeaker":"是","disastertype":"水災,震災,海嘯","village":"中山里"}},{"type":"Feature","geometry":{"type":"Point","coordinates":[121.7506,24.7617]},"properties":{"name":"宜蘭縣社會福利館多功能劇場","town":"宜蘭市","twd97x":325912.46,"county":"宜蘭縣","twd97y":2739589.7826,"peopleno":32,"isIndoor":"是","isOutdoor":"否","shelterId":107,"openstatus":"撤除","shelterCode":"SG260-0038","defaultville":"中山里","address":"同慶街95號","adaptForWeaker":"否","disastertype":"水災,震災,海嘯","village":"中山里"}},{"type":"Feature","geometry":{"type":"Point","coordinates":[121.7526,24.7534]},"properties":{"name":"東嶽廟","town":"宜蘭市","twd97x":326119.79,"county":"宜蘭縣","twd97y":2738671.54969,"peopleno":350,"isIndoor":"是","isOutdoor":"否","shelterId":108,"openstatus":"撤除","shelterCode":"SG260-0039","defaultville":"神農里、大新里","address":"中山路二段293號295號","adaptForWeaker":"是","disastertype":"水災,震災,海嘯","village":"神農里"}},{"type":"Feature","geometry":{"type":"Point","coordinates":[121.7539,24.7526]},"properties":{"name":"社福大樓2樓","town":"宜蘭市","twd97x":326251.77,"county":"宜蘭縣","twd97y":2738583.66208,"peopleno":56,"isIndoor":"是","isOutdoor":"否","shelterId":109,"openstatus":"撤除","shelterCode":"SG260-0040","defaultville":"神農里、大新里、民權里","address":"民權路一段65號","adaptForWeaker":"是","disastertype":"水災,震災,海嘯","village":"神農里"}},{"type":"Feature","geometry":{"type":"Point","coordinates":[121.9498,24.9799]},"properties":{"name":"石城里-石城社區活動中心","town":"頭城鎮","twd97x":345891.24,"county":"宜蘭縣","twd97y":2763884.96281,"peopleno":67,"isIndoor":"是","isOutdoor":"否","shelterId":110,"openstatus":"撤除","shelterCode":"SG261-0001","defaultville":"石城里","address":"頭城鎮石城里（路）40-8號","adaptForWeaker":"否","disastertype":"水災,震災,海嘯","village":null}},{"type":"Feature","geometry":{"type":"Point","coordinates":[121.92,24.9639]},"properties":{"name":"大里里-大里社區活動中心","town":"頭城鎮","twd97x":342894.5,"county":"宜蘭縣","twd97y":2762091.89939,"peopleno":184,"isIndoor":"是","isOutdoor":"否","shelterId":111,"openstatus":"撤除","shelterCode":"SG261-0002","defaultville":"大里、石城","address":"頭城鎮大里里濱海路六段251號","adaptForWeaker":"否","disastertype":"水災,震災","village":null}},{"type":"Feature","geometry":{"type":"Point","coordinates":[121.9002,24.9426]},"properties":{"name":"龜山里-龜山社區活動中心","town":"頭城鎮","twd97x":340910.78,"county":"宜蘭縣","twd97y":2759719.09584,"peopleno":28,"isIndoor":"是","isOutdoor":"否","shelterId":112,"openstatus":"撤除","shelterCode":"SG261-0003","defaultville":"龜山","address":"頭城鎮龜山里路221號","adaptForWeaker":"是","disastertype":"水災,震災,土石流","village":null}},{"type":"Feature","geometry":{"type":"Point","coordinates":[121.8932,24.9406]},"properties":{"name":"大溪里-大溪社區活動中心","town":"頭城鎮","twd97x":340205.27,"county":"宜蘭縣","twd97y":2759492.89036,"peopleno":62,"isIndoor":"是","isOutdoor":"否","shelterId":113,"openstatus":"撤除","shelterCode":"SG261-0004","defaultville":"大溪","address":"頭城鎮大溪里濱海路五段249號","adaptForWeaker":"否","disastertype":"水災,震災,土石流","village":null}},{"type":"Feature","geometry":{"type":"Point","coordinates":[121.8859,24.9359]},"properties":{"name":"合興里-合興社區活動中心","town":"頭城鎮","twd97x":339471.39,"county":"宜蘭縣","twd97y":2758967.44698,"peopleno":44,"isIndoor":"是","isOutdoor":"否","shelterId":114,"openstatus":"撤除","shelterCode":"SG261-0005","defaultville":"合興里","address":"頭城鎮合興里路94-1號","adaptForWeaker":"否","disastertype":"水災,震災,海嘯","village":null}},{"type":"Feature","geometry":{"type":"Point","coordinates":[121.8634,24.9022]},"properties":{"name":"更新里-更新漁民活動中心","town":"頭城鎮","twd97x":337222.6,"county":"宜蘭縣","twd97y":2755219.91499,"peopleno":34,"isIndoor":"是","isOutdoor":"否","shelterId":115,"openstatus":"撤除","shelterCode":"SG261-0006","defaultville":"更新","address":"頭城鎮濱海路三段93號","adaptForWeaker":"否","disastertype":"水災,震災","village":null}},{"type":"Feature","geometry":{"type":"Point","coordinates":[121.8458,24.8833]},"properties":{"name":"外澳里-外澳社區活動中心","town":"頭城鎮","twd97x":335457.53,"county":"宜蘭縣","twd97y":2753115.23203,"peopleno":49,"isIndoor":"是","isOutdoor":"否","shelterId":116,"openstatus":"撤除","shelterCode":"SG261-0007","defaultville":"外澳里","address":"頭城鎮外澳里濱海路二段212號","adaptForWeaker":"否","disastertype":"水災,震災","village":null}},{"type":"Feature","geometry":{"type":"Point","coordinates":[121.8403,24.8762]},"properties":{"name":"港口里-港口社區活動中心","town":"頭城鎮","twd97x":334906.65,"county":"宜蘭縣","twd97y":2752325.3405,"peopleno":67,"isIndoor":"是","isOutdoor":"否","shelterId":117,"openstatus":"撤除","shelterCode":"SG261-0009","defaultville":"港口里","address":"頭城鎮港口里（路）60-3號","adaptForWeaker":"否","disastertype":"水災,震災,土石流","village":null}},{"type":"Feature","geometry":{"type":"Point","coordinates":[121.8274,24.863]},"properties":{"name":"武營里-頭城國小","town":"頭城鎮","twd97x":333612.01,"county":"宜蘭縣","twd97y":2750855.23127,"peopleno":338,"isIndoor":"是","isOutdoor":"否","shelterId":118,"openstatus":"撤除","shelterCode":"SG261-0010","defaultville":"武營","address":"頭城鎮武營里開蘭路282號","adaptForWeaker":"否","disastertype":"水災,震災,土石流,海嘯","village":null}},{"type":"Feature","geometry":{"type":"Point","coordinates":[121.8315,24.8572]},"properties":{"name":"大坑里-協天宮","town":"頭城鎮","twd97x":334030.27,"county":"宜蘭縣","twd97y":2750215.30338,"peopleno":220,"isIndoor":"是","isOutdoor":"否","shelterId":119,"openstatus":"撤除","shelterCode":"SG261-0011","defaultville":"大坑","address":"頭城鎮大坑里協天路599號","adaptForWeaker":"否","disastertype":"震災,土石流","village":null}},{"type":"Feature","geometry":{"type":"Point","coordinates":[121.825,24.8591]},"properties":{"name":"城東里-城東社區活動中心","town":"頭城鎮","twd97x":333372.09,"county":"宜蘭縣","twd97y":2750421.76883,"peopleno":53,"isIndoor":"是","isOutdoor":"否","shelterId":120,"openstatus":"撤除","shelterCode":"SG261-0012","defaultville":"城東","address":"頭城鎮城東里開蘭舊路6號","adaptForWeaker":"否","disastertype":"水災,震災,土石流","village":null}},{"type":"Feature","geometry":{"type":"Point","coordinates":[121.8206,24.8252]},"properties":{"name":"竹安里-竹安國小五育樓","town":"頭城鎮","twd97x":332950.01,"county":"宜蘭縣","twd97y":2746664.09005,"peopleno":93,"isIndoor":"是","isOutdoor":"否","shelterId":121,"openstatus":"撤除","shelterCode":"SG261-0013","defaultville":"竹安","address":"頭城鎮竹安里頭濱路一段601號","adaptForWeaker":"否","disastertype":"震災,土石流","village":null}},{"type":"Feature","geometry":{"type":"Point","coordinates":[121.8169,24.861]},"properties":{"name":"拔雅里-拔雅社區活動中心","town":"頭城鎮","twd97x":332552.23,"county":"宜蘭縣","twd97y":2750627.29497,"peopleno":122,"isIndoor":"是","isOutdoor":"否","shelterId":122,"openstatus":"撤除","shelterCode":"SG261-0014","defaultville":"拔雅","address":"頭城鎮拔雅里復興路12巷2號","adaptForWeaker":"否","disastertype":"水災,震災,土石流,海嘯","village":null}},{"type":"Feature","geometry":{"type":"Point","coordinates":[121.8196,24.8539]},"properties":{"name":"新建里-新建社區活動中心","town":"頭城鎮","twd97x":332829.82,"county":"宜蘭縣","twd97y":2749842.48772,"peopleno":124,"isIndoor":"是","isOutdoor":"否","shelterId":123,"openstatus":"撤除","shelterCode":"SG261-0015","defaultville":"新建","address":"頭城鎮新建里新興路234-1號","adaptForWeaker":"否","disastertype":"水災,震災,土石流","village":null}},{"type":"Feature","geometry":{"type":"Point","coordinates":[121.8051,24.8618]},"properties":{"name":"福成里-福成社區活動中心","town":"頭城鎮","twd97x":331359.2,"county":"宜蘭縣","twd97y":2750708.81148,"peopleno":48,"isIndoor":"是","isOutdoor":"否","shelterId":124,"openstatus":"撤除","shelterCode":"SG261-0016","defaultville":"福成","address":"頭城鎮福成里宜三路二段378號","adaptForWeaker":"否","disastertype":"水災,震災,土石流,海嘯","village":null}},{"type":"Feature","geometry":{"type":"Point","coordinates":[121.7935,24.8549]},"properties":{"name":"金面里-協天廟","town":"頭城鎮","twd97x":330191.36,"county":"宜蘭縣","twd97y":2749937.64622,"peopleno":42,"isIndoor":"是","isOutdoor":"否","shelterId":125,"openstatus":"撤除","shelterCode":"SG261-0017","defaultville":"金面","address":"頭城鎮金面里路354號","adaptForWeaker":"是","disastertype":"水災,震災,土石流,海嘯","village":null}},{"type":"Feature","geometry":{"type":"Point","coordinates":[121.7966,24.8473]},"properties":{"name":"金盈里-金盈社區活動中心","town":"頭城鎮","twd97x":330509.58,"county":"宜蘭縣","twd97y":2749097.64832,"peopleno":37,"isIndoor":"是","isOutdoor":"否","shelterId":126,"openstatus":"撤除","shelterCode":"SG261-0018","defaultville":"金盈","address":"頭城鎮金盈里路39號","adaptForWeaker":"否","disastertype":"水災,震災,土石流,海嘯","village":null}},{"type":"Feature","geometry":{"type":"Point","coordinates":[121.8149,24.8461]},"properties":{"name":"頂埔里-順天府池府王爺廟","town":"頭城鎮","twd97x":332359.98,"county":"宜蘭縣","twd97y":2748975.65876,"peopleno":29,"isIndoor":"是","isOutdoor":"否","shelterId":127,"openstatus":"撤除","shelterCode":"SG261-0019","defaultville":"金盈","address":"頭城鎮頂埔里路一段250號","adaptForWeaker":"否","disastertype":"水災,震災,土石流","village":null}},{"type":"Feature","geometry":{"type":"Point","coordinates":[121.8078,24.837]},"properties":{"name":"下埔里-下埔社區活動中心","town":"頭城鎮","twd97x":331648.34,"county":"宜蘭縣","twd97y":2747963.41301,"peopleno":100,"isIndoor":"是","isOutdoor":"否","shelterId":128,"openstatus":"撤除","shelterCode":"SG261-0020","defaultville":"下埔","address":"頭城鎮下埔里路48-3號","adaptForWeaker":"否","disastertype":"震災,土石流","village":null}},{"type":"Feature","geometry":{"type":"Point","coordinates":[121.8027,24.8348]},"properties":{"name":"中崙里-中崙社區活動中心","town":"頭城鎮","twd97x":331134.27,"county":"宜蘭縣","twd97y":2747716.68359,"peopleno":76,"isIndoor":"是","isOutdoor":"否","shelterId":129,"openstatus":"撤除","shelterCode":"SG261-0021","defaultville":"中崙","address":"頭城鎮中崙里路31號","adaptForWeaker":"否","disastertype":"震災,土石流","village":null}},{"type":"Feature","geometry":{"type":"Point","coordinates":[121.7928,24.8388]},"properties":{"name":"二城里-二城社區活動中心","town":"頭城鎮","twd97x":330130.99,"county":"宜蘭縣","twd97y":2748153.89611,"peopleno":117,"isIndoor":"是","isOutdoor":"否","shelterId":130,"openstatus":"撤除","shelterCode":"SG261-0022","defaultville":"二城","address":"頭城鎮二城里青雲路一段143號","adaptForWeaker":"否","disastertype":"水災,震災,土石流,海嘯","village":null}},{"type":"Feature","geometry":{"type":"Point","coordinates":[121.8219,24.8557]},"properties":{"name":"城西里-城隍廟","town":"頭城鎮","twd97x":333061.07,"county":"宜蘭縣","twd97y":2750043.26795,"peopleno":46,"isIndoor":"是","isOutdoor":"否","shelterId":131,"openstatus":"撤除","shelterCode":"SG261-0024","defaultville":"城西里、城南里","address":"頭城鎮新建里吉祥路1號","adaptForWeaker":"否","disastertype":"水災,震災,土石流,海嘯","village":null}},{"type":"Feature","geometry":{"type":"Point","coordinates":[121.8236,24.8592]},"properties":{"name":"城北里-農會","town":"頭城鎮","twd97x":333230.54,"county":"宜蘭縣","twd97y":2750431.98976,"peopleno":148,"isIndoor":"是","isOutdoor":"否","shelterId":132,"openstatus":"撤除","shelterCode":"SG261-0025","defaultville":"城北里","address":"西五巷3-1號","adaptForWeaker":"否","disastertype":"水災,震災,土石流","village":"城北里"}},{"type":"Feature","geometry":{"type":"Point","coordinates":[117.8236,25.7717]},"properties":{"name":"礁溪鄉公所二樓","town":"礁溪鄉","twd97x":-68696.43,"county":"宜蘭縣","twd97y":2855098.43176,"peopleno":38,"isIndoor":"是","isOutdoor":"否","shelterId":133,"openstatus":"撤除","shelterCode":"SG262-0001","defaultville":"六結村","address":"礁溪鄉中山路二段3號","adaptForWeaker":"是","disastertype":"水災,震災,土石流,海嘯","village":"六結村"}},{"type":"Feature","geometry":{"type":"Point","coordinates":[121.7832,24.7982]},"properties":{"name":"玉田國小","town":"礁溪鄉","twd97x":329186.45,"county":"宜蘭縣","twd97y":2743651.19897,"peopleno":254,"isIndoor":"是","isOutdoor":"否","shelterId":134,"openstatus":"撤除","shelterCode":"SG262-0002","defaultville":"二龍村、時潮村、玉田村","address":"礁溪鄉玉田村茅埔路24號","adaptForWeaker":"是","disastertype":"震災","village":null}},{"type":"Feature","geometry":{"type":"Point","coordinates":[121.7677,24.8172]},"properties":{"name":"礁溪國中","town":"礁溪鄉","twd97x":327607.41,"county":"宜蘭縣","twd97y":2745746.84399,"peopleno":531,"isIndoor":"是","isOutdoor":"否","shelterId":135,"openstatus":"撤除","shelterCode":"SG262-0003","defaultville":"大忠村","address":"礁溪鄉大忠村礁溪路四段23號","adaptForWeaker":"是","disastertype":"水災,震災,土石流,海嘯","village":null}},{"type":"Feature","geometry":{"type":"Point","coordinates":[121.7685,24.8217]},"properties":{"name":"礁溪國小","town":"礁溪鄉","twd97x":327685.48,"county":"宜蘭縣","twd97y":2746245.74405,"peopleno":339,"isIndoor":"是","isOutdoor":"否","shelterId":136,"openstatus":"撤除","shelterCode":"SG262-0004","defaultville":"大義村,六結村","address":"礁溪鄉大忠村礁溪鄉四段135號","adaptForWeaker":"是","disastertype":"水災,震災,土石流,海嘯","village":null}},{"type":"Feature","geometry":{"type":"Point","coordinates":[121.7596,24.8133]},"properties":{"name":"三民國小","town":"礁溪鄉","twd97x":326790.94,"county":"宜蘭縣","twd97y":2745310.27801,"peopleno":180,"isIndoor":"是","isOutdoor":"否","shelterId":137,"openstatus":"撤除","shelterCode":"SG262-0005","defaultville":"三民村,白鵝村,林美村","address":"礁溪鄉十六結路100號","adaptForWeaker":"是","disastertype":"水災,震災,土石流,海嘯","village":"三民村"}},{"type":"Feature","geometry":{"type":"Point","coordinates":[121.7598,24.7865]},"properties":{"name":"四結國小","town":"礁溪鄉","twd97x":326827.68,"county":"宜蘭縣","twd97y":2742341.8854,"peopleno":360,"isIndoor":"是","isOutdoor":"否","shelterId":138,"openstatus":"撤除","shelterCode":"SG262-0006","defaultville":"玉光村","address":"礁溪鄉吳沙村育英路46號","adaptForWeaker":"是","disastertype":"水災,震災","village":"吳沙村"}},{"type":"Feature","geometry":{"type":"Point","coordinates":[121.7596,24.786]},"properties":{"name":"吳沙國中","town":"礁溪鄉","twd97x":326807.76,"county":"宜蘭縣","twd97y":2742286.39052,"peopleno":742,"isIndoor":"是","isOutdoor":"否","shelterId":139,"openstatus":"撤除","shelterCode":"SG262-0007","defaultville":"吳沙村","address":"礁溪鄉吳沙村育英路79號","adaptForWeaker":"是","disastertype":"水災,震災","village":"吳沙村"}},{"type":"Feature","geometry":{"type":"Point","coordinates":[121.7672,24.7829]},"properties":{"name":"鄉立幼兒園","town":"礁溪鄉","twd97x":327578.2,"county":"宜蘭縣","twd97y":2741947.31194,"peopleno":448,"isIndoor":"是","isOutdoor":"否","shelterId":140,"openstatus":"撤除","shelterCode":"SG262-0008","defaultville":"光武村","address":"礁溪鄉武暖路10之3號","adaptForWeaker":"是","disastertype":"水災,震災","village":"光武村"}},{"type":"Feature","geometry":{"type":"Point","coordinates":[121.7447,24.7802]},"properties":{"name":"龍潭國小","town":"礁溪鄉","twd97x":325304.58,"county":"宜蘭縣","twd97y":2741635.66327,"peopleno":195,"isIndoor":"是","isOutdoor":"否","shelterId":141,"openstatus":"撤除","shelterCode":"SG262-0009","defaultville":"龍潭村","address":"礁溪鄉龍潭村育龍路71號","adaptForWeaker":"是","disastertype":"水災,震災,土石流,海嘯","village":"龍潭村"}},{"type":"Feature","geometry":{"type":"Point","coordinates":[121.7294,24.7924]},"properties":{"name":"龍潭國小匏崙分校","town":"礁溪鄉","twd97x":323750.16,"county":"宜蘭縣","twd97y":2742978.64657,"peopleno":60,"isIndoor":"是","isOutdoor":"否","shelterId":142,"openstatus":"撤除","shelterCode":"SG262-0010","defaultville":"匏崙村,二結村","address":"礁溪鄉匏崙村匏杓崙路95之2號","adaptForWeaker":"是","disastertype":"水災,震災,土石流,海嘯","village":"匏崙村"}},{"type":"Feature","geometry":{"type":"Point","coordinates":[121.7651,24.8287]},"properties":{"name":"德陽宮弘道大樓","town":"礁溪鄉","twd97x":327337.42,"county":"宜蘭縣","twd97y":2747019.17191,"peopleno":116,"isIndoor":"是","isOutdoor":"否","shelterId":143,"openstatus":"撤除","shelterCode":"SG262-0011","defaultville":"德陽村,玉石村,白雲村","address":"礁溪鄉中山路二段133號","adaptForWeaker":"是","disastertype":"水災,土石流,海嘯","village":"德陽村"}},{"type":"Feature","geometry":{"type":"Point","coordinates":[121.7768,24.8298]},"properties":{"name":"玉石活動中心","town":"礁溪鄉","twd97x":328519.43,"county":"宜蘭縣","twd97y":2747147.69711,"peopleno":44,"isIndoor":"是","isOutdoor":"否","shelterId":144,"openstatus":"撤除","shelterCode":"SG262-0012","defaultville":"備用收容所","address":"礁溪鄉公園路2號","adaptForWeaker":"是","disastertype":"水災,震災","village":"玉石村"}},{"type":"Feature","geometry":{"type":"Point","coordinates":[121.7856,24.7979]},"properties":{"name":"玉田活動中心","town":"礁溪鄉","twd97x":329429.31,"county":"宜蘭縣","twd97y":2743619.3628,"peopleno":59,"isIndoor":"是","isOutdoor":"否","shelterId":145,"openstatus":"撤除","shelterCode":"SG262-0013","defaultville":"備用收容所","address":"礁溪鄉玉田村玉龍路一段479巷6號","adaptForWeaker":"是","disastertype":"水災,震災","village":"玉田村"}},{"type":"Feature","geometry":{"type":"Point","coordinates":[121.7646,24.8099]},"properties":{"name":"三民活動中心","town":"礁溪鄉","twd97x":327298.54,"county":"宜蘭縣","twd97y":2744936.49757,"peopleno":59,"isIndoor":"是","isOutdoor":"否","shelterId":146,"openstatus":"撤除","shelterCode":"SG262-0014","defaultville":"備用收容所","address":"礁溪鄉十六結路101之1號","adaptForWeaker":"是","disastertype":"水災,震災","village":"三民村"}},{"type":"Feature","geometry":{"type":"Point","coordinates":[121.7189,24.8169]},"properties":{"name":"佛光大學","town":"礁溪鄉","twd97x":322674.18,"county":"宜蘭縣","twd97y":2745686.75016,"peopleno":642,"isIndoor":"是","isOutdoor":"否","shelterId":147,"openstatus":"撤除","shelterCode":"SG262-0015","defaultville":"二龍村,時潮村,玉石村,玉光村,吳沙村,光武村,適用10公尺以上海嘯","address":"礁溪鄉林美村林尾路160號","adaptForWeaker":"是","disastertype":"水災,震災,海嘯","village":"林美村"}},{"type":"Feature","geometry":{"type":"Point","coordinates":[121.729,24.8222]},"properties":{"name":"淡江大學蘭陽校園","town":"礁溪鄉","twd97x":323692.09,"county":"宜蘭縣","twd97y":2746279.21935,"peopleno":638,"isIndoor":"是","isOutdoor":"否","shelterId":148,"openstatus":"撤除","shelterCode":"SG262-0016","defaultville":"德陽村,六結村,大義村,玉石村,白雲村,大忠村,三民村,林美村,白鵝村","address":"礁溪鄉林美村林尾路180號","adaptForWeaker":"是","disastertype":"水災,震災,海嘯","village":"林美村"}},{"type":"Feature","geometry":{"type":"Point","coordinates":[121.799791,24.764974]},"properties":{"name":"順和活動中心","town":"壯圍鄉","twd97x":330885.51,"county":"宜蘭縣","twd97y":2739980.62342,"peopleno":66,"isIndoor":"是","isOutdoor":"否","shelterId":149,"openstatus":"撤除","shelterCode":"SG263-0001","defaultville":"忠孝村","address":"壯圍鄉忠孝村順和路47-4號","adaptForWeaker":"是","disastertype":"水災,震災,海嘯","village":"忠孝村"}},{"type":"Feature","geometry":{"type":"Point","coordinates":[121.815365,24.759471]},"properties":{"name":"過嶺活動中心","town":"壯圍鄉","twd97x":332464.26,"county":"宜蘭縣","twd97y":2739380.3813,"peopleno":66,"isIndoor":"是","isOutdoor":"否","shelterId":150,"openstatus":"撤除","shelterCode":"SG263-0002","defaultville":"過嶺村","address":"壯圍鄉過村壯濱路3段295號","adaptForWeaker":"是","disastertype":"水災,震災,海嘯","village":"過嶺村"}},{"type":"Feature","geometry":{"type":"Point","coordinates":[121.783371,24.770634]},"properties":{"name":"功勞活動中心","town":"壯圍鄉","twd97x":329221.24,"county":"宜蘭縣","twd97y":2740597.94207,"peopleno":96,"isIndoor":"是","isOutdoor":"否","shelterId":151,"openstatus":"撤除","shelterCode":"SG263-0003","defaultville":"功勞","address":"壯圍鄉功勞村美功路1段80巷21號","adaptForWeaker":"是","disastertype":"水災,海嘯","village":"功勞村"}},{"type":"Feature","geometry":{"type":"Point","coordinates":[121.789598,24.744488]},"properties":{"name":"壯五活動中心","town":"壯圍鄉","twd97x":329867.71,"county":"宜蘭縣","twd97y":2737705.50225,"peopleno":163,"isIndoor":"是","isOutdoor":"否","shelterId":152,"openstatus":"撤除","shelterCode":"SG263-0004","defaultville":"吉祥","address":"壯圍鄉吉祥村壯五路63號","adaptForWeaker":"是","disastertype":"水災,震災,海嘯","village":"吉祥村"}},{"type":"Feature","geometry":{"type":"Point","coordinates":[121.8003,24.7719]},"properties":{"name":"古亭活動中心","town":"壯圍鄉","twd97x":330932.5,"county":"宜蘭縣","twd97y":2740748.08541,"peopleno":199,"isIndoor":"是","isOutdoor":"否","shelterId":153,"openstatus":"撤除","shelterCode":"SG263-0005","defaultville":"古亭","address":"壯圍鄉古亭村古亭路48-16號","adaptForWeaker":"是","disastertype":"水災,震災,海嘯","village":"古亭村"}},{"type":"Feature","geometry":{"type":"Point","coordinates":[121.791,24.7569]},"properties":{"name":"美福活動中心","town":"壯圍鄉","twd97x":330001.58,"county":"宜蘭縣","twd97y":2739081.13547,"peopleno":60,"isIndoor":"是","isOutdoor":"否","shelterId":154,"openstatus":"撤除","shelterCode":"SG263-0006","defaultville":"美福","address":"壯圍鄉美福村美福路3段92巷6號","adaptForWeaker":"是","disastertype":"水災,震災,海嘯","village":"美福村"}},{"type":"Feature","geometry":{"type":"Point","coordinates":[121.7873,24.7294]},"properties":{"name":"新南活動中心","town":"壯圍鄉","twd97x":329644.87,"county":"宜蘭縣","twd97y":2736032.94587,"peopleno":44,"isIndoor":"是","isOutdoor":"否","shelterId":155,"openstatus":"撤除","shelterCode":"SG263-0007","defaultville":"新南","address":"壯圍鄉新南村美福路一段76號","adaptForWeaker":"是","disastertype":"水災,震災,海嘯","village":"新南村"}},{"type":"Feature","geometry":{"type":"Point","coordinates":[121.8094,24.7846]},"properties":{"name":"古結活動中心","town":"壯圍鄉","twd97x":331844.47,"county":"宜蘭縣","twd97y":2742160.22646,"peopleno":88,"isIndoor":"是","isOutdoor":"否","shelterId":156,"openstatus":"撤除","shelterCode":"SG263-0009","defaultville":"古結","address":"壯圍鄉古結村古結路237號","adaptForWeaker":"是","disastertype":"震災,海嘯","village":"古結村"}},{"type":"Feature","geometry":{"type":"Point","coordinates":[121.7889,24.7774]},"properties":{"name":"新社活動中心","town":"壯圍鄉","twd97x":329776.08,"county":"宜蘭縣","twd97y":2741350.59437,"peopleno":89,"isIndoor":"是","isOutdoor":"否","shelterId":157,"openstatus":"撤除","shelterCode":"SG263-0010","defaultville":"新社","address":"壯圍鄉新社村新社路54之3號","adaptForWeaker":"是","disastertype":"水災,震災,海嘯","village":"新社村"}},{"type":"Feature","geometry":{"type":"Point","coordinates":[121.8017,24.7513]},"properties":{"name":"美城活動中心","town":"壯圍鄉","twd97x":331087.46,"county":"宜蘭縣","twd97y":2738467.15003,"peopleno":155,"isIndoor":"是","isOutdoor":"否","shelterId":158,"openstatus":"撤除","shelterCode":"SG263-0011","defaultville":"美城","address":"壯圍鄉美城村永美路2段121號","adaptForWeaker":"是","disastertype":"水災,震災,海嘯","village":"美城村"}},{"type":"Feature","geometry":{"type":"Point","coordinates":[121.8148,24.7751]},"properties":{"name":"壯六活動中心","town":"壯圍鄉","twd97x":332396.8,"county":"宜蘭縣","twd97y":2741111.19634,"peopleno":129,"isIndoor":"是","isOutdoor":"否","shelterId":159,"openstatus":"撤除","shelterCode":"SG263-0012","defaultville":"忠孝村","address":"壯圍鄉忠孝村壯六路47號","adaptForWeaker":"是","disastertype":"水災,震災,海嘯","village":"忠孝村"}},{"type":"Feature","geometry":{"type":"Point","coordinates":[121.8154,24.7366]},"properties":{"name":"永鎮活動中心","town":"壯圍鄉","twd97x":332482.9,"county":"宜蘭縣","twd97y":2736847.08855,"peopleno":118,"isIndoor":"是","isOutdoor":"否","shelterId":160,"openstatus":"撤除","shelterCode":"SG263-0013","defaultville":"永鎮村","address":"壯圍鄉永鎮村壯濱路四段375號","adaptForWeaker":"是","disastertype":"水災,震災,海嘯","village":"永鎮村"}},{"type":"Feature","geometry":{"type":"Point","coordinates":[121.8225,24.7297]},"properties":{"name":"紅葉活動中心","town":"壯圍鄉","twd97x":333205.73,"county":"宜蘭縣","twd97y":2736087.1045,"peopleno":61,"isIndoor":"是","isOutdoor":"否","shelterId":161,"openstatus":"撤除","shelterCode":"SG263-0014","defaultville":"復興村","address":"壯圍鄉復興村紅葉路69-4號","adaptForWeaker":"是","disastertype":"水災,震災,海嘯","village":"復興村"}},{"type":"Feature","geometry":{"type":"Point","coordinates":[121.8,24.7706]},"properties":{"name":"廍後活動中心","town":"壯圍鄉","twd97x":330903,"county":"宜蘭縣","twd97y":2740603.91286,"peopleno":46,"isIndoor":"是","isOutdoor":"否","shelterId":162,"openstatus":"撤除","shelterCode":"SG263-0015","defaultville":"東港村","address":"壯圍鄉東港村廍後路50-1號","adaptForWeaker":"是","disastertype":"水災,震災,海嘯","village":"東港村"}},{"type":"Feature","geometry":{"type":"Point","coordinates":[121.8162,24.8028]},"properties":{"name":"壯圍鄉立幼兒園","town":"壯圍鄉","twd97x":332520.06,"county":"宜蘭縣","twd97y":2744180.25731,"peopleno":351,"isIndoor":"是","isOutdoor":"否","shelterId":163,"openstatus":"撤除","shelterCode":"SG263-0016","defaultville":"全鄉","address":"壯圍鄉古亭村永美路1段180號","adaptForWeaker":"是","disastertype":"水災,震災,海嘯","village":"古亭村"}},{"type":"Feature","geometry":{"type":"Point","coordinates":[121.7858,24.7469]},"properties":{"name":"大福補天宮","town":"壯圍鄉","twd97x":329481.99,"county":"宜蘭縣","twd97y":2737970.45595,"peopleno":600,"isIndoor":"是","isOutdoor":"否","shelterId":164,"openstatus":"撤除","shelterCode":"SG263-0017","defaultville":"全鄉","address":"壯圍鄉大福村壯濱路6段279號","adaptForWeaker":"是","disastertype":"水災,震災,海嘯","village":"大福村"}},{"type":"Feature","geometry":{"type":"Point","coordinates":[121.785768,24.746835]},"properties":{"name":"壯圍鄉公所","town":"壯圍鄉","twd97x":329478.8,"county":"宜蘭縣","twd97y":2737963.23766,"peopleno":190,"isIndoor":"是","isOutdoor":"否","shelterId":165,"openstatus":"撤除","shelterCode":"SG263-0018","defaultville":"全鄉","address":"壯圍鄉壯志路1號","adaptForWeaker":"是","disastertype":"水災,震災,海嘯","village":"吉祥村"}},{"type":"Feature","geometry":{"type":"Point","coordinates":[121.722128,24.737618]},"properties":{"name":"尚德社區活動中心","town":"員山鄉","twd97x":323046.9,"county":"宜蘭縣","twd97y":2736906.86755,"peopleno":134,"isIndoor":"是","isOutdoor":"否","shelterId":173,"openstatus":"撤除","shelterCode":"SG264-0010","defaultville":"尚德村、惠好村","address":"三鬮路35巷13號","adaptForWeaker":"是","disastertype":"水災,震災,土石流,海嘯","village":"尚德村"}},{"type":"Feature","geometry":{"type":"Point","coordinates":[121.730742,24.731738]},"properties":{"name":"惠好社區活動中心","town":"員山鄉","twd97x":323921.75,"county":"宜蘭縣","twd97y":2736260.20046,"peopleno":125,"isIndoor":"是","isOutdoor":"否","shelterId":174,"openstatus":"撤除","shelterCode":"SG264-0011","defaultville":"尚德村、惠好村","address":"賢德路二段66巷50號","adaptForWeaker":"是","disastertype":"水災,震災,土石流","village":"惠好村"}},{"type":"Feature","geometry":{"type":"Point","coordinates":[121.735106,24.714634]},"properties":{"name":"七賢民眾活動中心","town":"員山鄉","twd97x":324373.4,"county":"宜蘭縣","twd97y":2734368.06275,"peopleno":78,"isIndoor":"是","isOutdoor":"否","shelterId":175,"openstatus":"撤除","shelterCode":"SG264-0012","defaultville":"七賢村、深溝村","address":"賢德路一段61巷25號","adaptForWeaker":"是","disastertype":"水災,震災,土石流,海嘯","village":"七賢村"}},{"type":"Feature","geometry":{"type":"Point","coordinates":[121.71978,24.715727]},"properties":{"name":"深溝村集會所","town":"員山鄉","twd97x":322822.12,"county":"宜蘭縣","twd97y":2734480.89524,"peopleno":10,"isIndoor":"是","isOutdoor":"否","shelterId":176,"openstatus":"撤除","shelterCode":"SG264-0013","defaultville":"深溝村、七賢村","address":"深洲一路37巷7號","adaptForWeaker":"是","disastertype":"水災,震災,土石流","village":"深溝村"}},{"type":"Feature","geometry":{"type":"Point","coordinates":[121.688913,24.720881]},"properties":{"name":"內城社區活動中心","town":"員山鄉","twd97x":319696.25,"county":"宜蘭縣","twd97y":2735035.71374,"peopleno":34,"isIndoor":"是","isOutdoor":"否","shelterId":177,"openstatus":"撤除","shelterCode":"SG264-0014","defaultville":"內城村.蓁巷村","address":"榮光路321號","adaptForWeaker":"是","disastertype":"水災,震災,土石流","village":"內城村"}},{"type":"Feature","geometry":{"type":"Point","coordinates":[121.695581,24.713572]},"properties":{"name":"蓁巷社區活動中心","town":"員山鄉","twd97x":320374.97,"county":"宜蘭縣","twd97y":2734229.55658,"peopleno":64,"isIndoor":"是","isOutdoor":"否","shelterId":178,"openstatus":"撤除","shelterCode":"SG264-0015","defaultville":"蓁巷村、內城村","address":"成功路45號","adaptForWeaker":"是","disastertype":"水災,震災,土石流","village":"蓁巷村"}},{"type":"Feature","geometry":{"type":"Point","coordinates":[121.646633,24.709398]},"properties":{"name":"中華集會所","town":"員山鄉","twd97x":315424.73,"county":"宜蘭縣","twd97y":2733742.98248,"peopleno":11,"isIndoor":"是","isOutdoor":"否","shelterId":179,"openstatus":"撤除","shelterCode":"SG264-0016","defaultville":"中華村、內城村","address":"粗坑路304號","adaptForWeaker":"是","disastertype":"水災,震災,土石流","village":"中華村"}},{"type":"Feature","geometry":{"type":"Point","coordinates":[121.708869,24.746017]},"properties":{"name":"湖東社區活動中心","town":"員山鄉","twd97x":321700.82,"county":"宜蘭縣","twd97y":2737830.16037,"peopleno":13,"isIndoor":"是","isOutdoor":"否","shelterId":180,"openstatus":"撤除","shelterCode":"SG264-0017","defaultville":"湖東村.湖北村","address":"茄苳路68-2號","adaptForWeaker":"是","disastertype":"水災,震災,土石流","village":"湖東村"}},{"type":"Feature","geometry":{"type":"Point","coordinates":[121.718042,24.735298]},"properties":{"name":"湖北社區活動中心","town":"員山鄉","twd97x":322634.91,"county":"宜蘭縣","twd97y":2736647.72228,"peopleno":30,"isIndoor":"是","isOutdoor":"否","shelterId":181,"openstatus":"撤除","shelterCode":"SG264-0018","defaultville":"湖北村.湖東村","address":"大湖五路之80號","adaptForWeaker":"是","disastertype":"水災,震災,土石流","village":"湖北村"}},{"type":"Feature","geometry":{"type":"Point","coordinates":[121.68547,24.748286]},"properties":{"name":"雙湖社區活動中心","town":"員山鄉","twd97x":319332.72,"county":"宜蘭縣","twd97y":2738069.42601,"peopleno":78,"isIndoor":"是","isOutdoor":"否","shelterId":182,"openstatus":"撤除","shelterCode":"SG264-0019","defaultville":"湖西村.湖北村","address":"隘界路100-8號","adaptForWeaker":"是","disastertype":"水災,震災,土石流","village":"湖西村"}},{"type":"Feature","geometry":{"type":"Point","coordinates":[121.700435,24.738714]},"properties":{"name":"逸仙社區活動中心","town":"員山鄉","twd97x":320851.85,"county":"宜蘭縣","twd97y":2737016.86367,"peopleno":34,"isIndoor":"是","isOutdoor":"否","shelterId":183,"openstatus":"撤除","shelterCode":"SG264-0020","defaultville":"逸仙村.湖東村","address":"大安路84-1號","adaptForWeaker":"是","disastertype":"水災,震災,土石流","village":"逸仙村"}},{"type":"Feature","geometry":{"type":"Point","coordinates":[121.711078,24.749471]},"properties":{"name":"永和社區活動中心","town":"員山鄉","twd97x":321922.28,"county":"宜蘭縣","twd97y":2738213.89679,"peopleno":96,"isIndoor":"是","isOutdoor":"否","shelterId":184,"openstatus":"撤除","shelterCode":"SG264-0021","defaultville":"永和村.頭分村","address":"溫泉路62-1號","adaptForWeaker":"是","disastertype":"水災,震災,土石流","village":"永和村"}},{"type":"Feature","geometry":{"type":"Point","coordinates":[121.719624,24.759721]},"properties":{"name":"結頭份社區活動中心","town":"員山鄉","twd97x":322780.72,"county":"宜蘭縣","twd97y":2739353.74428,"peopleno":52,"isIndoor":"是","isOutdoor":"否","shelterId":185,"openstatus":"撤除","shelterCode":"SG264-0022","defaultville":"頭分村.永和村","address":"永同路2段186之1號","adaptForWeaker":"是","disastertype":"水災,震災,土石流","village":"頭分村"}},{"type":"Feature","geometry":{"type":"Point","coordinates":[121.718546,24.768291]},"properties":{"name":"枕山社區活動中心","town":"員山鄉","twd97x":322666.71,"county":"宜蘭縣","twd97y":2740302.41798,"peopleno":60,"isIndoor":"是","isOutdoor":"否","shelterId":186,"openstatus":"撤除","shelterCode":"SG264-0023","defaultville":"枕山村.同樂村","address":"枕山路43-1號","adaptForWeaker":"是","disastertype":"水災,震災,土石流","village":"枕山村"}},{"type":"Feature","geometry":{"type":"Point","coordinates":[121.729673,24.762017]},"properties":{"name":"同樂社區活動中心","town":"員山鄉","twd97x":323795.73,"county":"宜蘭縣","twd97y":2739613.44247,"peopleno":94,"isIndoor":"是","isOutdoor":"否","shelterId":187,"openstatus":"撤除","shelterCode":"SG264-0024","defaultville":"同樂村.枕山村","address":"同新路182號","adaptForWeaker":"是","disastertype":"水災,震災,土石流","village":"同樂村"}},{"type":"Feature","geometry":{"type":"Point","coordinates":[121.722886,24.745244]},"properties":{"name":"老人文康中心","town":"員山鄉","twd97x":323119.11,"county":"宜蘭縣","twd97y":2737751.95589,"peopleno":28,"isIndoor":"是","isOutdoor":"否","shelterId":188,"openstatus":"撤除","shelterCode":"SG264-0025","defaultville":"員山村.尚德村","address":"文化路156號","adaptForWeaker":"是","disastertype":"水災,震災,土石流","village":"員山村"}},{"type":"Feature","geometry":{"type":"Point","coordinates":[121.7669,24.6765]},"properties":{"name":"羅東鎮展演廳","town":"羅東鎮","twd97x":327613.86,"county":"宜蘭縣","twd97y":2730161.82901,"peopleno":510,"isIndoor":"是","isOutdoor":"否","shelterId":189,"openstatus":"撤除","shelterCode":"SG265-0001","defaultville":"中山里、賢文里","address":"羅東鎮中興路1號","adaptForWeaker":"是","disastertype":"水災,震災,海嘯","village":null}},{"type":"Feature","geometry":{"type":"Point","coordinates":[121.7649,24.676]},"properties":{"name":"聖安宮","town":"羅東鎮","twd97x":327411.75,"county":"宜蘭縣","twd97y":2730105.31757,"peopleno":400,"isIndoor":"是","isOutdoor":"否","shelterId":190,"openstatus":"撤除","shelterCode":"SG265-0002","defaultville":"本鎮災害發生區域之鎮民提供災民住宿","address":"忠孝路48號","adaptForWeaker":"是","disastertype":"水災,震災,海嘯","village":null}},{"type":"Feature","geometry":{"type":"Point","coordinates":[121.7635,24.6737]},"properties":{"name":"漢民社區活動中心","town":"羅東鎮","twd97x":327271.47,"county":"宜蘭縣","twd97y":2729849.77279,"peopleno":201,"isIndoor":"是","isOutdoor":"否","shelterId":191,"openstatus":"撤除","shelterCode":"SG265-0003","defaultville":"漢民里","address":"羅東鎮漢民里純精路一段219號","adaptForWeaker":"是","disastertype":"水災,震災,海嘯","village":null}},{"type":"Feature","geometry":{"type":"Point","coordinates":[121.756,24.7014]},"properties":{"name":"仁愛社區活動中心","town":"羅東鎮","twd97x":326495.48,"county":"宜蘭縣","twd97y":2732913.71749,"peopleno":174,"isIndoor":"是","isOutdoor":"否","shelterId":192,"openstatus":"撤除","shelterCode":"SG265-0004","defaultville":"仁愛里","address":"羅東鎮仁愛里復興路三段557號","adaptForWeaker":"是","disastertype":"水災,震災,海嘯","village":null}},{"type":"Feature","geometry":{"type":"Point","coordinates":[121.7663,24.6736]},"properties":{"name":"仁德社區活動中心","town":"羅東鎮","twd97x":327554.93,"county":"宜蘭縣","twd97y":2729840.27588,"peopleno":98,"isIndoor":"是","isOutdoor":"否","shelterId":193,"openstatus":"撤除","shelterCode":"SG265-0005","defaultville":"仁德里","address":"羅東鎮忠義巷92之1號","adaptForWeaker":"是","disastertype":"水災,震災,海嘯","village":null}},{"type":"Feature","geometry":{"type":"Point","coordinates":[121.7766,24.6745]},"properties":{"name":"東安社區活動中心","town":"羅東鎮","twd97x":328596.84,"county":"宜蘭縣","twd97y":2729945.82285,"peopleno":289,"isIndoor":"是","isOutdoor":"否","shelterId":194,"openstatus":"撤除","shelterCode":"SG265-0006","defaultville":"東安里","address":"羅東鎮東安里天祥路171號","adaptForWeaker":"是","disastertype":"水災,震災,海嘯","village":null}},{"type":"Feature","geometry":{"type":"Point","coordinates":[121.7544,24.6675]},"properties":{"name":"維安社區活動中心","town":"羅東鎮","twd97x":326354.23,"county":"宜蘭縣","twd97y":2729157.94809,"peopleno":170,"isIndoor":"是","isOutdoor":"否","shelterId":195,"openstatus":"撤除","shelterCode":"SG265-0007","defaultville":"西安里 維揚里","address":"羅東鎮西安里西安街468號","adaptForWeaker":"是","disastertype":"水災,震災,海嘯","village":null}},{"type":"Feature","geometry":{"type":"Point","coordinates":[121.7922,24.6673]},"properties":{"name":"新群社區活動中心","town":"羅東鎮","twd97x":330180.32,"county":"宜蘭縣","twd97y":2729157.34772,"peopleno":114,"isIndoor":"是","isOutdoor":"否","shelterId":196,"openstatus":"撤除","shelterCode":"SG265-0009","defaultville":"新群里","address":"羅東鎮新群里月眉路300號","adaptForWeaker":"是","disastertype":"震災","village":null}},{"type":"Feature","geometry":{"type":"Point","coordinates":[121.7725,24.669]},"properties":{"name":"第三公園管理站南昌社區活動中心","town":"羅東鎮","twd97x":328185.3,"county":"宜蘭縣","twd97y":2729334.28179,"peopleno":133,"isIndoor":"是","isOutdoor":"否","shelterId":197,"openstatus":"撤除","shelterCode":"SG265-0010","defaultville":"南昌里 南豪里 成功里","address":"站前南路1號","adaptForWeaker":"是","disastertype":"水災,震災,海嘯","village":"南昌里"}},{"type":"Feature","geometry":{"type":"Point","coordinates":[121.7682,24.6733]},"properties":{"name":"第二公園管理站羅東鎮老人館","town":"羅東鎮","twd97x":327747.41,"county":"宜蘭縣","twd97y":2729808.12189,"peopleno":99,"isIndoor":"是","isOutdoor":"否","shelterId":198,"openstatus":"撤除","shelterCode":"SG265-0011","defaultville":"集祥里","address":"公園路13號","adaptForWeaker":"是","disastertype":"水災,震災,海嘯","village":"集祥里"}},{"type":"Feature","geometry":{"type":"Point","coordinates":[121.7527,24.6789]},"properties":{"name":"北成社區活動中心","town":"羅東鎮","twd97x":326175.24,"county":"宜蘭縣","twd97y":2730419.70358,"peopleno":210,"isIndoor":"是","isOutdoor":"否","shelterId":199,"openstatus":"撤除","shelterCode":"SG265-0012","defaultville":"北成里 國華里","address":"北成路二段57巷6號","adaptForWeaker":"是","disastertype":"水災,震災,海嘯","village":"北成里"}},{"type":"Feature","geometry":{"type":"Point","coordinates":[121.7797,24.6716]},"properties":{"name":"羅莊社區活動中心","town":"羅東鎮","twd97x":328912.41,"county":"宜蘭縣","twd97y":2729626.38735,"peopleno":122,"isIndoor":"是","isOutdoor":"否","shelterId":200,"openstatus":"撤除","shelterCode":"SG265-0013","defaultville":"羅莊里","address":"羅莊街357號","adaptForWeaker":"是","disastertype":"水災,震災,海嘯","village":"羅莊里"}},{"type":"Feature","geometry":{"type":"Point","coordinates":[121.7658,24.6883]},"properties":{"name":"竹林社區活動中心","town":"羅東鎮","twd97x":327495.23,"county":"宜蘭縣","twd97y":2731468.21674,"peopleno":148,"isIndoor":"是","isOutdoor":"否","shelterId":201,"openstatus":"撤除","shelterCode":"SG265-0014","defaultville":"竹林里","address":"復興路二段122號","adaptForWeaker":"是","disastertype":"水災,震災,海嘯","village":"竹林里"}},{"type":"Feature","geometry":{"type":"Point","coordinates":[121.7686,24.6835]},"properties":{"name":"第一公園管理站信義社區活動中心","town":"羅東鎮","twd97x":327781.57,"county":"宜蘭縣","twd97y":2730938.13627,"peopleno":153,"isIndoor":"是","isOutdoor":"否","shelterId":202,"openstatus":"撤除","shelterCode":"SG265-0015","defaultville":"信義里 公正里","address":"中華路189號","adaptForWeaker":"是","disastertype":"震災","village":"信義里"}},{"type":"Feature","geometry":{"type":"Point","coordinates":[121.7709,24.6725]},"properties":{"name":"仁和社區活動中心","town":"羅東鎮","twd97x":328021.18,"county":"宜蘭縣","twd97y":2729721.04338,"peopleno":28,"isIndoor":"是","isOutdoor":"否","shelterId":203,"openstatus":"撤除","shelterCode":"SG265-0016","defaultville":"仁和里","address":"清潭路146號2樓","adaptForWeaker":"是","disastertype":"水災,震災,海嘯","village":"開明里"}},{"type":"Feature","geometry":{"type":"Point","coordinates":[121.7714,24.676]},"properties":{"name":"大新社區活動中心","town":"羅東鎮","twd97x":328069.61,"county":"宜蘭縣","twd97y":2730108.99992,"peopleno":54,"isIndoor":"是","isOutdoor":"否","shelterId":204,"openstatus":"撤除","shelterCode":"SG265-0017","defaultville":"大新里","address":"中正路128號2樓","adaptForWeaker":"是","disastertype":"水災,震災,海嘯","village":"大新里"}},{"type":"Feature","geometry":{"type":"Point","coordinates":[121.7614,24.6833]},"properties":{"name":"第五公園管理站樹林社區活動中心","town":"羅東鎮","twd97x":327053.03,"county":"宜蘭縣","twd97y":2730911.92049,"peopleno":146,"isIndoor":"是","isOutdoor":"否","shelterId":205,"openstatus":"撤除","shelterCode":"SG265-0018","defaultville":"樹林里","address":"文林路130號","adaptForWeaker":"是","disastertype":"震災","village":"樹林里"}},{"type":"Feature","geometry":{"type":"Point","coordinates":[121.7709,24.6725]},"properties":{"name":"阿束社社區活動中心","town":"羅東鎮","twd97x":328021.18,"county":"宜蘭縣","twd97y":2729721.04338,"peopleno":28,"isIndoor":"是","isOutdoor":"否","shelterId":206,"openstatus":"撤除","shelterCode":"SG265-0019","defaultville":"開明里","address":"清潭路146號2樓","adaptForWeaker":"是","disastertype":"水災,震災,海嘯","village":"開明里"}},{"type":"Feature","geometry":{"type":"Point","coordinates":[121.7661,24.6887]},"properties":{"name":"竹林國小體育館","town":"羅東鎮","twd97x":327525.35,"county":"宜蘭縣","twd97y":2731512.69171,"peopleno":357,"isIndoor":"是","isOutdoor":"是","shelterId":207,"openstatus":"撤除","shelterCode":"SG265-0020","defaultville":"竹林里 仁愛里 樹林里","address":"復興路二段128號","adaptForWeaker":"是","disastertype":"震災","village":null}},{"type":"Feature","geometry":{"type":"Point","coordinates":[121.7667,24.6793]},"properties":{"name":"公正國小體育館","town":"羅東鎮","twd97x":327591.88,"county":"宜蘭縣","twd97y":2730471.8536,"peopleno":1309,"isIndoor":"是","isOutdoor":"是","shelterId":208,"openstatus":"撤除","shelterCode":"SG265-0021","defaultville":"大新里 賢文里 仁和里 中山里 開明里","address":"公正路199號","adaptForWeaker":"否","disastertype":null,"village":null}},{"type":"Feature","geometry":{"type":"Point","coordinates":[121.7687,24.6707]},"properties":{"name":"成功國小體育館","town":"羅東鎮","twd97x":327799.63,"county":"宜蘭縣","twd97y":2729520.42037,"peopleno":228,"isIndoor":"否","isOutdoor":"否","shelterId":209,"openstatus":"撤除","shelterCode":"SG265-0022","defaultville":"南昌里 成功里 南豪里 羅莊里 新群里","address":"興東南路100號","adaptForWeaker":"否","disastertype":null,"village":null}},{"type":"Feature","geometry":{"type":"Point","coordinates":[121.7586,24.6756]},"properties":{"name":"北成國小自強館","town":"羅東鎮","twd97x":326774.38,"county":"宜蘭縣","twd97y":2730057.47295,"peopleno":319,"isIndoor":"否","isOutdoor":"否","shelterId":210,"openstatus":"撤除","shelterCode":"SG265-0023","defaultville":"北成里 維揚里 西安里","address":"北成路一段125號","adaptForWeaker":"否","disastertype":null,"village":null}},{"type":"Feature","geometry":{"type":"Point","coordinates":[121.7683,24.6825]},"properties":{"name":"羅東國中自強館","town":"羅東鎮","twd97x":327751.83,"county":"宜蘭縣","twd97y":2730827.20265,"peopleno":277,"isIndoor":"否","isOutdoor":"否","shelterId":211,"openstatus":"撤除","shelterCode":"SG265-0024","defaultville":"信義里 公正里 東安里 集祥里","address":"中華路99號","adaptForWeaker":"否","disastertype":null,"village":null}},{"type":"Feature","geometry":{"type":"Point","coordinates":[121.7608,24.6767]},"properties":{"name":"國華國中自強館","town":"羅東鎮","twd97x":326996.36,"county":"宜蘭縣","twd97y":2730180.54523,"peopleno":306,"isIndoor":"否","isOutdoor":"否","shelterId":212,"openstatus":"撤除","shelterCode":"SG265-0025","defaultville":"仁德里 國華里 漢民里","address":"國華街101號","adaptForWeaker":"否","disastertype":null,"village":null}},{"type":"Feature","geometry":{"type":"Point","coordinates":[121.6538,24.6654]},"properties":{"name":"三星鄉公所臨時收容站","town":"三星鄉","twd97x":316173.11,"county":"宜蘭縣","twd97y":2728873.12383,"peopleno":148,"isIndoor":"是","isOutdoor":"否","shelterId":213,"openstatus":"撤除","shelterCode":"SG266-0001","defaultville":"集慶村、月眉村、義德村","address":"成功路67號","adaptForWeaker":"是","disastertype":"水災,土石流,海嘯","village":"集慶村"}},{"type":"Feature","geometry":{"type":"Point","coordinates":[121.6538,24.6654]},"properties":{"name":"三星國中臨時收容站","town":"三星鄉","twd97x":316173.11,"county":"宜蘭縣","twd97y":2728873.12383,"peopleno":500,"isIndoor":"是","isOutdoor":"否","shelterId":214,"openstatus":"撤除","shelterCode":"SG266-0002","defaultville":"月眉、集慶、拱照","address":"月眉街54號","adaptForWeaker":"是","disastertype":"水災,土石流,海嘯","village":"月眉村"}},{"type":"Feature","geometry":{"type":"Point","coordinates":[121.6538,24.6685]},"properties":{"name":"三星國小臨時收容站","town":"三星鄉","twd97x":316171.48,"county":"宜蘭縣","twd97y":2729216.48457,"peopleno":339,"isIndoor":"是","isOutdoor":"否","shelterId":215,"openstatus":"撤除","shelterCode":"SG266-0003","defaultville":"義德、集慶、人和","address":"三星路5段86號","adaptForWeaker":"是","disastertype":"水災,震災,土石流,海嘯","village":"義德村"}},{"type":"Feature","geometry":{"type":"Point","coordinates":[121.6507,24.6663]},"properties":{"name":"大洲多功能館臨時收容站","town":"三星鄉","twd97x":315858.87,"county":"宜蘭縣","twd97y":2728971.31846,"peopleno":78,"isIndoor":"是","isOutdoor":"否","shelterId":216,"openstatus":"撤除","shelterCode":"SG266-0004","defaultville":"大洲、尾塹、尚武","address":"五分路2段180號","adaptForWeaker":"是","disastertype":"水災,震災,土石流,海嘯","village":"大洲村"}},{"type":"Feature","geometry":{"type":"Point","coordinates":[121.6391,24.6681]},"properties":{"name":"憲明國小臨時收容站","town":"三星鄉","twd97x":314683.85,"county":"宜蘭縣","twd97y":2729165.17348,"peopleno":42,"isIndoor":"是","isOutdoor":"否","shelterId":217,"openstatus":"撤除","shelterCode":"SG266-0005","defaultville":"天山、天福、員山、人和","address":"福山街119號","adaptForWeaker":"否","disastertype":"水災,震災,土石流,海嘯","village":"天山村"}},{"type":"Feature","geometry":{"type":"Point","coordinates":[121.7274,24.6929]},"properties":{"name":"大隱社區臨時收容站","town":"三星鄉","twd97x":323606.5,"county":"宜蘭縣","twd97y":2731956.57498,"peopleno":123,"isIndoor":"是","isOutdoor":"否","shelterId":218,"openstatus":"撤除","shelterCode":"SG266-0006","defaultville":"大隱、行健、拱照","address":"三星路1段533巷48號","adaptForWeaker":"是","disastertype":"水災,震災,土石流,海嘯","village":"大隱村"}},{"type":"Feature","geometry":{"type":"Point","coordinates":[121.7282,24.6931]},"properties":{"name":"萬富社區臨時收容站","town":"三星鄉","twd97x":323687.34,"county":"宜蘭縣","twd97y":2731979.1572,"peopleno":63,"isIndoor":"是","isOutdoor":"否","shelterId":219,"openstatus":"撤除","shelterCode":"SG266-0007","defaultville":"萬富、行健、萬德、貴林","address":"7鄰萬富路59-2號","adaptForWeaker":"是","disastertype":"水災,震災,土石流,海嘯","village":"萬富村"}},{"type":"Feature","geometry":{"type":"Point","coordinates":[121.6103,24.6634]},"properties":{"name":"大義社區臨時收容站","town":"三星鄉","twd97x":311771.22,"county":"宜蘭縣","twd97y":2728631.33218,"peopleno":106,"isIndoor":"是","isOutdoor":"否","shelterId":220,"openstatus":"撤除","shelterCode":"SG266-0008","defaultville":"大義、大洲、尚武、萬富","address":"上將路3段375巷31號","adaptForWeaker":"是","disastertype":"水災,土石流,海嘯","village":"大義村"}},{"type":"Feature","geometry":{"type":"Point","coordinates":[121.6229,24.6608]},"properties":{"name":"員山社區臨時收容站","town":"三星鄉","twd97x":313047.86,"county":"宜蘭縣","twd97y":2728349.08092,"peopleno":38,"isIndoor":"是","isOutdoor":"否","shelterId":221,"openstatus":"撤除","shelterCode":"SG266-0009","defaultville":"員山、天山、天福、人和","address":"泰雅一路203巷清水66號","adaptForWeaker":"是","disastertype":"水災,震災,土石流,海嘯","village":"員山村"}},{"type":"Feature","geometry":{"type":"Point","coordinates":[121.7074,24.6601]},"properties":{"name":"三星社區二次收容","town":"三星鄉","twd97x":321601.33,"county":"宜蘭縣","twd97y":2728312.97886,"peopleno":148,"isIndoor":"是","isOutdoor":"否","shelterId":222,"openstatus":"撤除","shelterCode":"SG266-0010","defaultville":"集慶、月眉、義德","address":"成功路67-8號","adaptForWeaker":"否","disastertype":"水災,震災,土石流,海嘯","village":"集慶村"}},{"type":"Feature","geometry":{"type":"Point","coordinates":[121.7147,24.6708]},"properties":{"name":"雙義社區社區二次收容","town":"三星鄉","twd97x":322334.08,"county":"宜蘭縣","twd97y":2729501.96311,"peopleno":53,"isIndoor":"是","isOutdoor":"否","shelterId":223,"openstatus":"撤除","shelterCode":"SG266-0011","defaultville":"義德、雙賢、人和","address":"三星路6段2巷22號","adaptForWeaker":"是","disastertype":"水災,震災,土石流,海嘯","village":"雙賢村"}},{"type":"Feature","geometry":{"type":"Point","coordinates":[121.6759,24.6791]},"properties":{"name":"大洲社區二次收容","town":"三星鄉","twd97x":318402.52,"county":"宜蘭縣","twd97y":2730401.39483,"peopleno":63,"isIndoor":"是","isOutdoor":"否","shelterId":224,"openstatus":"撤除","shelterCode":"SG266-0012","defaultville":"大洲、尾塹、大義","address":"大洲原路17號","adaptForWeaker":"是","disastertype":"水災,震災,土石流,海嘯","village":"大洲村"}},{"type":"Feature","geometry":{"type":"Point","coordinates":[121.6565,24.6758]},"properties":{"name":"天送埤社區二次收容","town":"三星鄉","twd97x":316440.89,"county":"宜蘭縣","twd97y":2730026.34881,"peopleno":53,"isIndoor":"是","isOutdoor":"否","shelterId":225,"openstatus":"撤除","shelterCode":"SG266-0013","defaultville":"天山、天福、員山、人和","address":"福山街30-1號","adaptForWeaker":"是","disastertype":"水災,震災,土石流,海嘯","village":"天福村"}},{"type":"Feature","geometry":{"type":"Point","coordinates":[121.7041,24.6844]},"properties":{"name":"行健社區二次收容","town":"三星鄉","twd97x":321253.5,"county":"宜蘭縣","twd97y":2731002.78747,"peopleno":148,"isIndoor":"是","isOutdoor":"否","shelterId":226,"openstatus":"撤除","shelterCode":"SG266-0014","defaultville":"行健、大隱、拱照","address":"行健三路2段13號","adaptForWeaker":"是","disastertype":"水災,震災,土石流,海嘯","village":"行健村"}},{"type":"Feature","geometry":{"type":"Point","coordinates":[121.7282,24.6931]},"properties":{"name":"萬德社區二次收容","town":"三星鄉","twd97x":323687.34,"county":"宜蘭縣","twd97y":2731979.1572,"peopleno":48,"isIndoor":"是","isOutdoor":"否","shelterId":227,"openstatus":"撤除","shelterCode":"SG266-0015","defaultville":"萬富、行健、萬德、貴林","address":"楓林九路61號","adaptForWeaker":"是","disastertype":"水災,震災,土石流,海嘯","village":"萬德村"}},{"type":"Feature","geometry":{"type":"Point","coordinates":[121.6779,24.611]},"properties":{"name":"寒溪活動中心","town":"大同鄉","twd97x":318642.14,"county":"宜蘭縣","twd97y":2722859.5307,"peopleno":122,"isIndoor":"是","isOutdoor":"否","shelterId":228,"openstatus":"撤除","shelterCode":"SG267-0001","defaultville":"寒溪村","address":"8鄰寒溪巷5號","adaptForWeaker":"否","disastertype":"水災,震災,土石流","village":"寒溪村"}},{"type":"Feature","geometry":{"type":"Point","coordinates":[121.6007,24.6804]},"properties":{"name":"崙埤活動中心","town":"大同鄉","twd97x":310791.29,"county":"宜蘭縣","twd97y":2730509.9817,"peopleno":74,"isIndoor":"是","isOutdoor":"否","shelterId":229,"openstatus":"撤除","shelterCode":"SG267-0002","defaultville":"崙埤村","address":"大同鄉崙埤村朝陽10-8號","adaptForWeaker":"是","disastertype":"水災,震災,土石流","village":null}},{"type":"Feature","geometry":{"type":"Point","coordinates":[121.5789,24.6556]},"properties":{"name":"松羅活動中心","town":"大同鄉","twd97x":308596.65,"county":"宜蘭縣","twd97y":2727753.63739,"peopleno":86,"isIndoor":"是","isOutdoor":"否","shelterId":230,"openstatus":"撤除","shelterCode":"SG267-0003","defaultville":"松羅村","address":"大同鄉松羅村南巷81-10號","adaptForWeaker":"是","disastertype":"水災,震災,土石流","village":null}},{"type":"Feature","geometry":{"type":"Point","coordinates":[121.6064,24.6318]},"properties":{"name":"復興活動中心","town":"大同鄉","twd97x":311391.92,"county":"宜蘭縣","twd97y":2725129.54865,"peopleno":92,"isIndoor":"是","isOutdoor":"否","shelterId":231,"openstatus":"撤除","shelterCode":"SG267-0004","defaultville":"樂水村","address":"大同鄉樂水村5鄰碼崙46號","adaptForWeaker":"否","disastertype":"水災,震災,土石流","village":null}},{"type":"Feature","geometry":{"type":"Point","coordinates":[121.5301,24.599]},"properties":{"name":"樂水活動中心","town":"大同鄉","twd97x":303681.15,"county":"宜蘭縣","twd97y":2721464.71616,"peopleno":99,"isIndoor":"是","isOutdoor":"否","shelterId":232,"openstatus":"撤除","shelterCode":"SG267-0005","defaultville":"茂安村","address":"大同鄉茂安村1鄰志航15-1號","adaptForWeaker":"是","disastertype":"水災,震災,土石流","village":null}},{"type":"Feature","geometry":{"type":"Point","coordinates":[121.4516,24.5315]},"properties":{"name":"茂安活動中心","town":"大同鄉","twd97x":295756.15,"county":"宜蘭縣","twd97y":2713960.23081,"peopleno":90,"isIndoor":"是","isOutdoor":"否","shelterId":233,"openstatus":"撤除","shelterCode":"SG267-0006","defaultville":"四季村","address":"大同鄉四季村5鄰和勳巷2號","adaptForWeaker":"是","disastertype":"水災,震災,土石流","village":null}},{"type":"Feature","geometry":{"type":"Point","coordinates":[121.4182,24.4899]},"properties":{"name":"四季活動中心","town":"大同鄉","twd97x":292385.97,"county":"宜蘭縣","twd97y":2709342.09732,"peopleno":88,"isIndoor":"是","isOutdoor":"否","shelterId":234,"openstatus":"撤除","shelterCode":"SG267-0007","defaultville":"南山村","address":"大同鄉南山村4鄰埤南巷9-1號","adaptForWeaker":"否","disastertype":"水災,震災,土石流","village":null}},{"type":"Feature","geometry":{"type":"Point","coordinates":[121.371,24.4386]},"properties":{"name":"南山活動中心","town":"大同鄉","twd97x":287617.28,"county":"宜蘭縣","twd97y":2703646.68974,"peopleno":92,"isIndoor":"是","isOutdoor":"否","shelterId":235,"openstatus":"撤除","shelterCode":"SG267-0008","defaultville":"復興村","address":"泰雅一路61巷5號","adaptForWeaker":"是","disastertype":"水災,震災,土石流","village":"復興村"}},{"type":"Feature","geometry":{"type":"Point","coordinates":[121.8327,24.6447]},"properties":{"name":"成興社區老人活動中心","town":"五結鄉","twd97x":334294.78,"county":"宜蘭縣","twd97y":2726678.33528,"peopleno":121,"isIndoor":"是","isOutdoor":"否","shelterId":236,"openstatus":"撤除","shelterCode":"SG268-0001","defaultville":"成興村","address":"蘇澳鎮頂寮路20巷2號","adaptForWeaker":"是","disastertype":"水災,震災","village":"成興村"}},{"type":"Feature","geometry":{"type":"Point","coordinates":[121.8263,24.6532]},"properties":{"name":"成興村老人福利中心","town":"五結鄉","twd97x":333641.21,"county":"宜蘭縣","twd97y":2727615.91842,"peopleno":539,"isIndoor":"是","isOutdoor":"否","shelterId":237,"openstatus":"撤除","shelterCode":"SG268-0002","defaultville":"成興村、利澤村、季新村","address":"利成路一段185號","adaptForWeaker":"是","disastertype":"水災,震災","village":"成興村"}},{"type":"Feature","geometry":{"type":"Point","coordinates":[121.8002,24.6963]},"properties":{"name":"五結國中五動館","town":"五結鄉","twd97x":330971.32,"county":"宜蘭縣","twd97y":2732374.20305,"peopleno":465,"isIndoor":"是","isOutdoor":"否","shelterId":238,"openstatus":"撤除","shelterCode":"SG268-0003","defaultville":"大吉村","address":"大吉五路58號","adaptForWeaker":"是","disastertype":"水災,震災","village":"大吉村"}},{"type":"Feature","geometry":{"type":"Point","coordinates":[121.7984,24.6847]},"properties":{"name":"五結鄉公所","town":"五結鄉","twd97x":330796.65,"county":"宜蘭縣","twd97y":2731088.27666,"peopleno":153,"isIndoor":"是","isOutdoor":"否","shelterId":239,"openstatus":"撤除","shelterCode":"SG268-0004","defaultville":"五結村","address":"五結路二段343號","adaptForWeaker":"是","disastertype":"水災,震災","village":"五結村"}},{"type":"Feature","geometry":{"type":"Point","coordinates":[121.762,24.7095]},"properties":{"name":"二結社區活動中心","town":"五結鄉","twd97x":327097.63,"county":"宜蘭縣","twd97y":2733814.26528,"peopleno":170,"isIndoor":"是","isOutdoor":"否","shelterId":240,"openstatus":"撤除","shelterCode":"SG268-0005","defaultville":"二結、鎮安村","address":"學進路83號","adaptForWeaker":"是","disastertype":"水災,震災","village":"二結村"}},{"type":"Feature","geometry":{"type":"Point","coordinates":[121.7652,24.6974]},"properties":{"name":"四結福德廟","town":"五結鄉","twd97x":327428.89,"county":"宜蘭縣","twd97y":2732475.82713,"peopleno":106,"isIndoor":"是","isOutdoor":"否","shelterId":241,"openstatus":"撤除","shelterCode":"SG268-0006","defaultville":"孝威村","address":"孝威路322號","adaptForWeaker":"否","disastertype":"水災,震災","village":"孝威村"}},{"type":"Feature","geometry":{"type":"Point","coordinates":[121.8117,24.6961]},"properties":{"name":"孝威社區活動中心","town":"五結鄉","twd97x":332135.17,"county":"宜蘭縣","twd97y":2732358.88991,"peopleno":168,"isIndoor":"是","isOutdoor":"否","shelterId":242,"openstatus":"撤除","shelterCode":"SG268-0007","defaultville":"孝威村","address":"孝威路322號","adaptForWeaker":"是","disastertype":"水災,震災","village":"孝威村"}},{"type":"Feature","geometry":{"type":"Point","coordinates":[121.7739,24.7056]},"properties":{"name":"三興社區活動中心","town":"五結鄉","twd97x":328304.13,"county":"宜蘭縣","twd97y":2733389.03217,"peopleno":83,"isIndoor":"是","isOutdoor":"否","shelterId":243,"openstatus":"撤除","shelterCode":"SG268-0008","defaultville":"三興村","address":"三結路43-1號","adaptForWeaker":"否","disastertype":"水災,震災","village":"三興村"}},{"type":"Feature","geometry":{"type":"Point","coordinates":[121.7867,24.6994]},"properties":{"name":"開基灶君廟省民堂","town":"五結鄉","twd97x":329603.24,"county":"宜蘭縣","twd97y":2732709.66702,"peopleno":32,"isIndoor":"是","isOutdoor":"否","shelterId":244,"openstatus":"撤除","shelterCode":"SG268-0009","defaultville":"三興村","address":"三結東路14號","adaptForWeaker":"否","disastertype":"水災,震災","village":"三興村"}},{"type":"Feature","geometry":{"type":"Point","coordinates":[121.7979,24.6852]},"properties":{"name":"五結社區活動中心","town":"五結鄉","twd97x":330745.73,"county":"宜蘭縣","twd97y":2731143.36432,"peopleno":84,"isIndoor":"是","isOutdoor":"否","shelterId":245,"openstatus":"撤除","shelterCode":"SG268-0010","defaultville":"五結","address":"五結中路12號3樓","adaptForWeaker":"是","disastertype":"水災,震災","village":"五結村"}},{"type":"Feature","geometry":{"type":"Point","coordinates":[121.8238,24.6649]},"properties":{"name":"利澤社區活動中心","town":"五結鄉","twd97x":333380.37,"county":"宜蘭縣","twd97y":2728910.33932,"peopleno":141,"isIndoor":"是","isOutdoor":"否","shelterId":246,"openstatus":"撤除","shelterCode":"SG268-0011","defaultville":"利澤村","address":"下福路156號","adaptForWeaker":"是","disastertype":"水災,震災","village":"利澤村"}},{"type":"Feature","geometry":{"type":"Point","coordinates":[121.8317,24.6766]},"properties":{"name":"季新社區活動中心","town":"五結鄉","twd97x":334172.14,"county":"宜蘭縣","twd97y":2730211.10528,"peopleno":110,"isIndoor":"是","isOutdoor":"否","shelterId":247,"openstatus":"撤除","shelterCode":"SG268-0012","defaultville":"季新村","address":"季新村季水路北巷6-1號","adaptForWeaker":"否","disastertype":"水災,震災","village":"季新村"}},{"type":"Feature","geometry":{"type":"Point","coordinates":[121.8178,24.6797]},"properties":{"name":"新店社區活動中心","town":"五結鄉","twd97x":332763.29,"county":"宜蘭縣","twd97y":2730546.01971,"peopleno":77,"isIndoor":"是","isOutdoor":"否","shelterId":248,"openstatus":"撤除","shelterCode":"SG268-0013","defaultville":"季新村","address":"新店路99號","adaptForWeaker":"是","disastertype":"水災,震災","village":"季新村"}},{"type":"Feature","geometry":{"type":"Point","coordinates":[121.8045,24.6883]},"properties":{"name":"協和社區活動中心","town":"五結鄉","twd97x":331411.65,"county":"宜蘭縣","twd97y":2731490.63447,"peopleno":161,"isIndoor":"是","isOutdoor":"否","shelterId":249,"openstatus":"撤除","shelterCode":"SG268-0014","defaultville":"協和村","address":"五結路2段199號","adaptForWeaker":"是","disastertype":"水災,震災","village":"協和村"}},{"type":"Feature","geometry":{"type":"Point","coordinates":[121.7739,24.6873]},"properties":{"name":"四結社區活動中心","town":"五結鄉","twd97x":328315.57,"county":"宜蘭縣","twd97y":2731362.05364,"peopleno":93,"isIndoor":"是","isOutdoor":"否","shelterId":250,"openstatus":"撤除","shelterCode":"SG268-0015","defaultville":"上四、四結、中興村","address":"光榮北路198號","adaptForWeaker":"是","disastertype":"水災,震災","village":"四結村"}},{"type":"Feature","geometry":{"type":"Point","coordinates":[121.828,24.6929]},"properties":{"name":"八大庄一百甲城煌廟","town":"五結鄉","twd97x":333786.77,"county":"宜蘭縣","twd97y":2732014.30441,"peopleno":51,"isIndoor":"是","isOutdoor":"否","shelterId":251,"openstatus":"撤除","shelterCode":"SG268-0016","defaultville":"錦眾村","address":"五結路一段120號","adaptForWeaker":"是","disastertype":"水災,震災","village":"錦眾村"}},{"type":"Feature","geometry":{"type":"Point","coordinates":[121.7798,24.6865]},"properties":{"name":"正勉堂","town":"五結鄉","twd97x":328913.16,"county":"宜蘭縣","twd97y":2731276.82404,"peopleno":154,"isIndoor":"是","isOutdoor":"否","shelterId":252,"openstatus":"撤除","shelterCode":"SG268-0017","defaultville":"福興村","address":"興盛北路182巷16號","adaptForWeaker":"否","disastertype":"水災,震災","village":"福興村"}},{"type":"Feature","geometry":{"type":"Point","coordinates":[121.814,24.6435]},"properties":{"name":"三奇社區活動中心","town":"冬山鄉","twd97x":332402.47,"county":"宜蘭縣","twd97y":2726534.07407,"peopleno":40,"isIndoor":"是","isOutdoor":"否","shelterId":253,"openstatus":"撤除","shelterCode":"SG269-0001","defaultville":"三奇村","address":"成興路812號","adaptForWeaker":"是","disastertype":"震災","village":"三奇村"}},{"type":"Feature","geometry":{"type":"Point","coordinates":[121.7942,24.6434]},"properties":{"name":"珍珠社區活動中心","town":"冬山鄉","twd97x":330398.06,"county":"宜蘭縣","twd97y":2726511.26709,"peopleno":54,"isIndoor":"是","isOutdoor":"否","shelterId":254,"openstatus":"撤除","shelterCode":"SG269-0002","defaultville":"珍珠村","address":"富農路1段383巷50號","adaptForWeaker":"是","disastertype":"水災,震災","village":"珍珠村"}},{"type":"Feature","geometry":{"type":"Point","coordinates":[121.7976,24.6606]},"properties":{"name":"武淵社區活動中心","town":"冬山鄉","twd97x":330731.2,"county":"宜蘭縣","twd97y":2728418.3952,"peopleno":108,"isIndoor":"是","isOutdoor":"否","shelterId":255,"openstatus":"撤除","shelterCode":"SG269-0003","defaultville":"武淵村","address":"富農路2段325號","adaptForWeaker":"是","disastertype":"震災","village":"武淵村"}},{"type":"Feature","geometry":{"type":"Point","coordinates":[121.8023,24.6436]},"properties":{"name":"補城社區活動中心","town":"冬山鄉","twd97x":331217.95,"county":"宜蘭縣","twd97y":2726538.18376,"peopleno":41,"isIndoor":"是","isOutdoor":"否","shelterId":256,"openstatus":"撤除","shelterCode":"SG269-0004","defaultville":"補城村","address":"建進2路29號","adaptForWeaker":"否","disastertype":"震災","village":"補城村"}},{"type":"Feature","geometry":{"type":"Point","coordinates":[121.8106,24.6253]},"properties":{"name":"大興社區活動中心","town":"冬山鄉","twd97x":332070.16,"county":"宜蘭縣","twd97y":2724516.14164,"peopleno":50,"isIndoor":"是","isOutdoor":"否","shelterId":257,"openstatus":"撤除","shelterCode":"SG269-0005","defaultville":"大興村","address":"振安路5號2樓","adaptForWeaker":"是","disastertype":"水災,震災","village":"大興村"}},{"type":"Feature","geometry":{"type":"Point","coordinates":[121.8063,24.6297]},"properties":{"name":"東城社區活動中心","town":"冬山鄉","twd97x":331631.92,"county":"宜蘭縣","twd97y":2725000.94076,"peopleno":107,"isIndoor":"是","isOutdoor":"否","shelterId":258,"openstatus":"撤除","shelterCode":"SG269-0006","defaultville":"東城村","address":"東城路280號","adaptForWeaker":"是","disastertype":"水災","village":"東城村"}},{"type":"Feature","geometry":{"type":"Point","coordinates":[121.7975,24.6276]},