{"type":"FeatureCollection","features":[{"type":"Feature","geometry":{"type":"Point","coordinates":[139.6814065,35.5075371]},"properties":{"Name":"ナイス株式会社　本社ビル","Ward":"鶴見区","Type":"民間施設","Notes":"被災状況によっては提供できない場合もあります。開設状況は、「一時滞在ＮＡＶＩ」をご確認ください。","Address":"鶴見中央四丁目33番1号"}},{"type":"Feature","geometry":{"type":"Point","coordinates":[139.6807705,35.5069039]},"properties":{"Name":"株式会社松尾工務店","Ward":"鶴見区","Type":"民間施設","Notes":"被災状況によっては提供できない場合もあります。開設状況は、「一時滞在ＮＡＶＩ」をご確認ください。","Address":"鶴見中央四丁目38番35号"}},{"type":"Feature","geometry":{"type":"Point","coordinates":[139.6662433,35.53128969999999]},"properties":{"Name":"第二峯の湯","Ward":"鶴見区","Type":"民間施設","Notes":"被災状況によっては提供できない場合もあります。開設状況は、「一時滞在ＮＡＶＩ」をご確認ください。","Address":"上末吉五丁目2番19号"}},{"type":"Feature","geometry":{"type":"Point","coordinates":[139.6795391,35.5360525]},"properties":{"Name":"富士の湯","Ward":"鶴見区","Type":"民間施設","Notes":"被災状況によっては提供できない場合もあります。開設状況は、「一時滞在ＮＡＶＩ」をご確認ください。","Address":"矢向三丁目28番12号"}},{"type":"Feature","geometry":{"type":"Point","coordinates":[139.6840109,35.5370939]},"properties":{"Name":"矢向湯","Ward":"鶴見区","Type":"民間施設","Notes":"被災状況によっては提供できない場合もあります。開設状況は、「一時滞在ＮＡＶＩ」をご確認ください。","Address":"矢向五丁目3番19号"}},{"type":"Feature","geometry":{"type":"Point","coordinates":[139.6801123,35.5014991]},"properties":{"Name":"澤の湯","Ward":"鶴見区","Type":"民間施設","Notes":"被災状況によっては提供できない場合もあります。開設状況は、「一時滞在ＮＡＶＩ」をご確認ください。","Address":"下野谷町1丁目43番地"}},{"type":"Feature","geometry":{"type":"Point","coordinates":[139.6889421,35.5029822]},"properties":{"Name":"清水湯","Ward":"鶴見区","Type":"民間施設","Notes":"被災状況によっては提供できない場合もあります。開設状況は、「一時滞在ＮＡＶＩ」をご確認ください。","Address":"潮田町3丁目137番地2"}},{"type":"Feature","geometry":{"type":"Point","coordinates":[139.647704,35.5057178]},"properties":{"Name":"喜久の湯","Ward":"鶴見区","Type":"民間施設","Notes":"被災状況によっては提供できない場合もあります。開設状況は、「一時滞在ＮＡＶＩ」をご確認ください。","Address":"馬場一丁目7番23号"}},{"type":"Feature","geometry":{"type":"Point","coordinates":[139.6708799,35.4974162]},"properties":{"Name":"春日湯","Ward":"鶴見区","Type":"民間施設","Notes":"被災状況によっては提供できない場合もあります。開設状況は、「一時滞在ＮＡＶＩ」をご確認ください。","Address":"生麦四丁目7番23号"}},{"type":"Feature","geometry":{"type":"Point","coordinates":[139.6641833,35.4901918]},"properties":{"Name":"キリンビール株式会社　横浜工場","Ward":"鶴見区","Type":"民間施設","Notes":"被災状況によっては提供できない場合もあります。開設状況は、「一時滞在ＮＡＶＩ」をご確認ください。","Address":"生麦一丁目17番1号"}},{"type":"Feature","geometry":{"type":"Point","coordinates":[139.6677996,35.4931721]},"properties":{"Name":"竹の湯","Ward":"鶴見区","Type":"民間施設","Notes":"被災状況によっては提供できない場合もあります。開設状況は、「一時滞在ＮＡＶＩ」をご確認ください。","Address":"生麦三丁目14番2号"}},{"type":"Feature","geometry":{"type":"Point","coordinates":[139.5952939,35.4078845]},"properties":{"Name":"学校法人三幸学園　横浜医療秘書歯科助手専門学校","Ward":"神奈川区","Type":"民間施設","Notes":"被災状況によっては提供できない場合もあります。開設状況は、「一時滞在ＮＡＶＩ」をご確認ください。","Address":"西神奈川一丁目18番3号"}},{"type":"Feature","geometry":{"type":"Point","coordinates":[139.6308667,35.47627060000001]},"properties":{"Name":"学校法人三幸学園　横浜こども専門学校","Ward":"神奈川区","Type":"民間施設","Notes":"被災状況によっては提供できない場合もあります。開設状況は、「一時滞在ＮＡＶＩ」をご確認ください。","Address":"二ツ谷町1番地19"}},{"type":"Feature","geometry":{"type":"Point","coordinates":[139.6320861,35.47895640000001]},"properties":{"Name":"学校法人三幸学園　横浜スイーツ＆カフェ専門学校","Ward":"神奈川区","Type":"民間施設","Notes":"被災状況によっては提供できない場合もあります。開設状況は、「一時滞在ＮＡＶＩ」をご確認ください。","Address":"西神奈川一丁目7番5号"}},{"type":"Feature","geometry":{"type":"Point","coordinates":[139.5944163,35.4083455]},"properties":{"Name":"学校法人三幸学園　横浜ビューティーアート専門学校","Ward":"神奈川区","Type":"民間施設","Notes":"被災状況によっては提供できない場合もあります。開設状況は、「一時滞在ＮＡＶＩ」をご確認ください。","Address":"西神奈川一丁目19番6号"}},{"type":"Feature","geometry":{"type":"Point","coordinates":[139.6323249,35.4807368]},"properties":{"Name":"学校法人三幸学園　横浜リゾート＆スポーツ専門学校","Ward":"神奈川区","Type":"民間施設","Notes":"被災状況によっては提供できない場合もあります。開設状況は、「一時滞在ＮＡＶＩ」をご確認ください。","Address":"西神奈川一丁目19番2号"}},{"type":"Feature","geometry":{"type":"Point","coordinates":[139.6329915,35.4827255]},"properties":{"Name":"宗教法人孝道山本仏殿","Ward":"神奈川区","Type":"民間施設","Notes":"被災状況によっては提供できない場合もあります。開設状況は、「一時滞在ＮＡＶＩ」をご確認ください。","Address":"鳥越38番地"}},{"type":"Feature","geometry":{"type":"Point","coordinates":[139.6177542,35.4663523]},"properties":{"Name":"徳の湯","Ward":"神奈川区","Type":"民間施設","Notes":"被災状況によっては提供できない場合もあります。開設状況は、「一時滞在ＮＡＶＩ」をご確認ください。","Address":"西神奈川二丁目1番5号"}},{"type":"Feature","geometry":{"type":"Point","coordinates":[139.6249645,35.4742569]},"properties":{"Name":"反町浴場","Ward":"神奈川区","Type":"民間施設","Notes":"被災状況によっては提供できない場合もあります。開設状況は、「一時滞在ＮＡＶＩ」をご確認ください。","Address":"上反町1丁目5番地2"}},{"type":"Feature","geometry":{"type":"Point","coordinates":[139.6447932,35.486978]},"properties":{"Name":"鷲の湯","Ward":"神奈川区","Type":"民間施設","Notes":"被災状況によっては提供できない場合もあります。開設状況は、「一時滞在ＮＡＶＩ」をご確認ください。","Address":"七島町151番地"}},{"type":"Feature","geometry":{"type":"Point","coordinates":[139.6265588,35.472035]},"properties":{"Name":"青木山　本覚寺","Ward":"神奈川区","Type":"民間施設","Notes":"被災状況によっては提供できない場合もあります。開設状況は、「一時滞在ＮＡＶＩ」をご確認ください。","Address":"高島台1番地2"}},{"type":"Feature","geometry":{"type":"Point","coordinates":[139.6222981,35.4682215]},"properties":{"Name":"学校法人岩崎学園　情報科学専門学校","Ward":"神奈川区","Type":"民間施設","Notes":"被災状況によっては提供できない場合もあります。開設状況は、「一時滞在ＮＡＶＩ」をご確認ください。","Address":"鶴屋町2丁目17番地1"}},{"type":"Feature","geometry":{"type":"Point","coordinates":[139.6267949,35.469763]},"properties":{"Name":"学校法人代々木ゼミナール　横浜校","Ward":"神奈川区","Type":"民間施設","Notes":"被災状況によっては提供できない場合もあります。開設状況は、「一時滞在ＮＡＶＩ」をご確認ください。","Address":"金港町7番地9"}},{"type":"Feature","geometry":{"type":"Point","coordinates":[139.6207816,35.4688103]},"properties":{"Name":"谷川ビル","Ward":"神奈川区","Type":"民間施設","Notes":"被災状況によっては提供できない場合もあります。開設状況は、「一時滞在ＮＡＶＩ」をご確認ください。","Address":"鶴屋町2丁目24番地1"}},{"type":"Feature","geometry":{"type":"Point","coordinates":[139.6200317,35.4684382]},"properties":{"Name":"神奈川歯科大学附属横浜クリニック","Ward":"神奈川区","Type":"民間施設","Notes":"被災状況によっては提供できない場合もあります。開設状況は、「一時滞在ＮＡＶＩ」をご確認ください。","Address":"鶴屋町3丁目31番地6"}},{"type":"Feature","geometry":{"type":"Point","coordinates":[139.6199761,35.4678105]},"properties":{"Name":"学校法人岩崎学園　横浜ｆカレッジ","Ward":"西区","Type":"民間施設","Notes":"被災状況によっては提供できない場合もあります。開設状況は、「一時滞在ＮＡＶＩ」をご確認ください。","Address":"北幸一丁目2番7号"}},{"type":"Feature","geometry":{"type":"Point","coordinates":[139.6181182,35.4638693]},"properties":{"Name":"ラウンドワン　横浜駅西口店","Ward":"西区","Type":"民間施設","Notes":"被災状況によっては提供できない場合もあります。開設状況は、「一時滞在ＮＡＶＩ」をご確認ください。","Address":"南幸二丁目8番16号"}},{"type":"Feature","geometry":{"type":"Point","coordinates":[139.6275312,35.4629999]},"properties":{"Name":"富士ゼロックス株式会社Ｒ＆Ｄスクエア","Ward":"西区","Type":"民間施設","Notes":"被災状況によっては提供できない場合もあります。開設状況は、「一時滞在ＮＡＶＩ」をご確認ください。","Address":"みなとみらい六丁目1番"}},{"type":"Feature","geometry":{"type":"Point","coordinates":[139.6169821,35.4680604]},"properties":{"Name":"宗教法人立正佼成会　横浜普門館","Ward":"西区","Type":"民間施設","Notes":"被災状況によっては提供できない場合もあります。開設状況は、「一時滞在ＮＡＶＩ」をご確認ください。","Address":"北幸二丁目7番3号"}},{"type":"Feature","geometry":{"type":"Point","coordinates":[139.6183819,35.4679243]},"properties":{"Name":"ホテルキャメロットジャパン","Ward":"西区","Type":"民間施設","Notes":"被災状況によっては提供できない場合もあります。開設状況は、「一時滞在ＮＡＶＩ」をご確認ください。","Address":"北幸一丁目11番3号"}},{"type":"Feature","geometry":{"type":"Point","coordinates":[139.6175182,35.4648941]},"properties":{"Name":"横浜国際ホテル","Ward":"西区","Type":"民間施設","Notes":"被災状況によっては提供できない場合もあります。開設状況は、「一時滞在ＮＡＶＩ」をご確認ください。","Address":"南幸二丁目16番28号"}},{"type":"Feature","geometry":{"type":"Point","coordinates":[139.6257563,35.4629583]},"properties":{"Name":"日産自動車株式会社　本社ビル","Ward":"西区","Type":"民間施設","Notes":"被災状況によっては提供できない場合もあります。開設状況は、「一時滞在ＮＡＶＩ」をご確認ください。","Address":"高島一丁目1番1号"}},{"type":"Feature","geometry":{"type":"Point","coordinates":[139.6168821,35.4658301]},"properties":{"Name":"ハマボール　イアス","Ward":"西区","Type":"民間施設","Notes":"被災状況によっては提供できない場合もあります。開設状況は、「一時滞在ＮＡＶＩ」をご確認ください。","Address":"北幸二丁目2番"}},{"type":"Feature","geometry":{"type":"Point","coordinates":[139.635714,35.4587199]},"properties":{"Name":"ヨコハマグランドインターコンチネンタルホテル","Ward":"西区","Type":"民間施設","Notes":"被災状況によっては提供できない場合もあります。開設状況は、「一時滞在ＮＡＶＩ」をご確認ください。","Address":"みなとみらい一丁目1番1号"}},{"type":"Feature","geometry":{"type":"Point","coordinates":[139.635714,35.4587199]},"properties":{"Name":"パシフィコ横浜","Ward":"西区","Type":"民間施設","Notes":"被災状況によっては提供できない場合もあります。開設状況は、「一時滞在ＮＡＶＩ」をご確認ください。","Address":"みなとみらい一丁目1番1号"}},{"type":"Feature","geometry":{"type":"Point","coordinates":[139.6052255,35.4551675]},"properties":{"Name":"ケンセイビル","Ward":"西区","Type":"民間施設","Notes":"被災状況によっては提供できない場合もあります。開設状況は、「一時滞在ＮＡＶＩ」をご確認ください。","Address":"浅間町5丁目387番地8"}},{"type":"Feature","geometry":{"type":"Point","coordinates":[139.6308786,35.4488461]},"properties":{"Name":"ブリーズベイホテル","Ward":"中区","Type":"民間施設","Notes":"被災状況によっては提供できない場合もあります。開設状況は、「一時滞在ＮＡＶＩ」をご確認ください。","Address":"花咲町1丁目22番地2"}},{"type":"Feature","geometry":{"type":"Point","coordinates":[139.6326979,35.4508125]},"properties":{"Name":"横浜桜木町ワシントンホテル","Ward":"中区","Type":"民間施設","Notes":"被災状況によっては提供できない場合もあります。開設状況は、「一時滞在ＮＡＶＩ」をご確認ください。","Address":"桜木町1丁目101番地1"}},{"type":"Feature","geometry":{"type":"Point","coordinates":[139.6326979,35.4508125]},"properties":{"Name":"クロスゲート","Ward":"中区","Type":"民間施設","Notes":"被災状況によっては提供できない場合もあります。開設状況は、「一時滞在ＮＡＶＩ」をご確認ください。","Address":"桜木町1丁目101番地1"}},{"type":"Feature","geometry":{"type":"Point","coordinates":[139.6409032,35.4420997]},"properties":{"Name":"ホテル横浜ガーデン","Ward":"中区","Type":"民間施設","Notes":"被災状況によっては提供できない場合もあります。開設状況は、「一時滞在ＮＡＶＩ」をご確認ください。","Address":"山下町254番地"}},{"type":"Feature","geometry":{"type":"Point","coordinates":[139.634191,35.4463906]},"properties":{"Name":"割烹蒲焼わかな（鈴木ビル）","Ward":"中区","Type":"民間施設","Notes":"被災状況によっては提供できない場合もあります。開設状況は、「一時滞在ＮＡＶＩ」をご確認ください。","Address":"港町5丁目20番地 鈴木ビル"}},{"type":"Feature","geometry":{"type":"Point","coordinates":[136.6340898,34.961013]},"properties":{"Name":"関内新井ビル","Ward":"中区","Type":"民間施設","Notes":"被災状況によっては提供できない場合もあります。開設状況は、「一時滞在ＮＡＶＩ」をご確認ください。","Address":"尾上町1丁目8番地"}},{"type":"Feature","geometry":{"type":"Point","coordinates":[139.6414144,35.4394472]},"properties":{"Name":"学校法人横浜山手中華学園","Ward":"中区","Type":"民間施設","Notes":"被災状況によっては提供できない場合もあります。開設状況は、「一時滞在ＮＡＶＩ」をご確認ください。","Address":"吉浜町2番地66"}},{"type":"Feature","geometry":{"type":"Point","coordinates":[139.654311,35.4332425]},"properties":{"Name":"本牧ゆあそび館","Ward":"中区","Type":"民間施設","Notes":"被災状況によっては提供できない場合もあります。開設状況は、「一時滞在ＮＡＶＩ」をご確認ください。","Address":"千代崎町2丁目41番地1"}},{"type":"Feature","geometry":{"type":"Point","coordinates":[139.6730288,35.4173418]},"properties":{"Name":"三菱重工業株式会社横浜製作所本牧工場","Ward":"中区","Type":"民間施設","Notes":"被災状況によっては提供できない場合もあります。開設状況は、「一時滞在ＮＡＶＩ」をご確認ください。","Address":"錦町12番地"}},{"type":"Feature","geometry":{"type":"Point","coordinates":[139.6389418,35.4526789]},"properties":{"Name":"ナビオス横浜","Ward":"中区","Type":"民間施設","Notes":"被災状況によっては提供できない場合もあります。開設状況は、「一時滞在ＮＡＶＩ」をご確認ください。","Address":"新港二丁目1番1号"}},{"type":"Feature","geometry":{"type":"Point","coordinates":[139.6366415,35.4484344]},"properties":{"Name":"ゴールドジム横浜馬車道本館","Ward":"中区","Type":"民間施設","Notes":"被災状況によっては提供できない場合もあります。開設状況は、「一時滞在ＮＡＶＩ」をご確認ください。","Address":"弁天通4丁目67番地1 馬車道スクエアビル8階"}},{"type":"Feature","geometry":{"type":"Point","coordinates":[139.6374384,35.4491136]},"properties":{"Name":"ゴールドジム横浜馬車道別館プールアネックス","Ward":"中区","Type":"民間施設","Notes":"被災状況によっては提供できない場合もあります。開設状況は、「一時滞在ＮＡＶＩ」をご確認ください。","Address":"本町4丁目43番地 セボン関内第2ビルB1階"}},{"type":"Feature","geometry":{"type":"Point","coordinates":[139.6444473,35.4452243]},"properties":{"Name":"ホテルＪＡＬシティ関内　横浜","Ward":"中区","Type":"民間施設","Notes":"被災状況によっては提供できない場合もあります。開設状況は、「一時滞在ＮＡＶＩ」をご確認ください。","Address":"山下町72番地"}},{"type":"Feature","geometry":{"type":"Point","coordinates":[139.6452555,35.4475379]},"properties":{"Name":"シルクセンター国際貿易観光会館","Ward":"中区","Type":"民間施設","Notes":"被災状況によっては提供できない場合もあります。開設状況は、「一時滞在ＮＡＶＩ」をご確認ください。","Address":"山下町1番地"}},{"type":"Feature","geometry":{"type":"Point","coordinates":[139.6502081,35.444566]},"properties":{"Name":"スターホテル横浜","Ward":"中区","Type":"民間施設","Notes":"被災状況によっては提供できない場合もあります。開設状況は、「一時滞在ＮＡＶＩ」をご確認ください。","Address":"山下町11番地"}},{"type":"Feature","geometry":{"type":"Point","coordinates":[139.6495303,35.4449576]},"properties":{"Name":"ホテルニューグランド","Ward":"中区","Type":"民間施設","Notes":"被災状況によっては提供できない場合もあります。開設状況は、「一時滞在ＮＡＶＩ」をご確認ください。","Address":"山下町10番地"}},{"type":"Feature","geometry":{"type":"Point","coordinates":[139.6478693,35.4457353]},"properties":{"Name":"ホテルモントレ横浜","Ward":"中区","Type":"民間施設","Notes":"被災状況によっては提供できない場合もあります。開設状況は、「一時滞在ＮＡＶＩ」をご確認ください。","Address":"山下町6番地1"}},{"type":"Feature","geometry":{"type":"Point","coordinates":[139.6468555,35.4441466]},"properties":{"Name":"ローズホテル横浜","Ward":"中区","Type":"民間施設","Notes":"被災状況によっては提供できない場合もあります。開設状況は、「一時滞在ＮＡＶＩ」をご確認ください。","Address":"山下町77番地"}},{"type":"Feature","geometry":{"type":"Point","coordinates":[139.6483637,35.4457381]},"properties":{"Name":"宗教法人創価学会　神奈川文化会館","Ward":"中区","Type":"民間施設","Notes":"被災状況によっては提供できない場合もあります。開設状況は、「一時滞在ＮＡＶＩ」をご確認ください。","Address":"山下町7番地1"}},{"type":"Feature","geometry":{"type":"Point","coordinates":[139.6494138,35.4427246]},"properties":{"Name":"エスカル横浜","Ward":"中区","Type":"民間施設","Notes":"被災状況によっては提供できない場合もあります。開設状況は、「一時滞在ＮＡＶＩ」をご確認ください。","Address":"山下町84番地"}},{"type":"Feature","geometry":{"type":"Point","coordinates":[139.6514553,35.4434967]},"properties":{"Name":"メルパルク横浜","Ward":"中区","Type":"民間施設","Notes":"被災状況によっては提供できない場合もあります。開設状況は、「一時滞在ＮＡＶＩ」をご確認ください。","Address":"山下町16番地"}},{"type":"Feature","geometry":{"type":"Point","coordinates":[139.6276819,35.4405693]},"properties":{"Name":"利世館","Ward":"中区","Type":"民間施設","Notes":"被災状況によっては提供できない場合もあります。開設状況は、「一時滞在ＮＡＶＩ」をご確認ください。","Address":"伊勢佐木町5丁目127番地24"}},{"type":"Feature","geometry":{"type":"Point","coordinates":[139.6321401,35.4350144]},"properties":{"Name":"中村浴場","Ward":"南区","Type":"民間施設","Notes":"被災状況によっては提供できない場合もあります。開設状況は、「一時滞在ＮＡＶＩ」をご確認ください。","Address":"中村町2丁目117番地"}},{"type":"Feature","geometry":{"type":"Point","coordinates":[139.6086257,35.4287431]},"properties":{"Name":"宗教法人大山ねずのみこと神示教会　信光会館","Ward":"南区","Type":"民間施設","Notes":"被災状況によっては提供できない場合もあります。開設状況は、「一時滞在ＮＡＶＩ」をご確認ください。","Address":"宮元町4丁目82番地"}},{"type":"Feature","geometry":{"type":"Point","coordinates":[139.6014599,35.4244047]},"properties":{"Name":"中島館","Ward":"南区","Type":"民間施設","Notes":"被災状況によっては提供できない場合もあります。開設状況は、「一時滞在ＮＡＶＩ」をご確認ください。","Address":"中島町4丁目75番地1"}},{"type":"Feature","geometry":{"type":"Point","coordinates":[139.6033457,35.4252018]},"properties":{"Name":"若宮湯","Ward":"南区","Type":"民間施設","Notes":"被災状況によっては提供できない場合もあります。開設状況は、「一時滞在ＮＡＶＩ」をご確認ください。","Address":"通町4丁目82番地1"}},{"type":"Feature","geometry":{"type":"Point","coordinates":[139.5996129,35.4316537]},"properties":{"Name":"横浜天然温泉　くさつ","Ward":"南区","Type":"民間施設","Notes":"被災状況によっては提供できない場合もあります。開設状況は、「一時滞在ＮＡＶＩ」をご確認ください。","Address":"井土ケ谷上町21番地29"}},{"type":"Feature","geometry":{"type":"Point","coordinates":[139.6233046,35.4160006]},"properties":{"Name":"ゆーらんど新世館","Ward":"磯子区","Type":"民間施設","Notes":"被災状況によっては提供できない場合もあります。開設状況は、「一時滞在ＮＡＶＩ」をご確認ください。","Address":"久木町4番地10"}},{"type":"Feature","geometry":{"type":"Point","coordinates":[140.4689373,37.753601]},"properties":{"Name":"大盛舘","Ward":"磯子区","Type":"民間施設","Notes":"被災状況によっては提供できない場合もあります。開設状況は、「一時滞在ＮＡＶＩ」をご確認ください。","Address":"上町5番地13"}},{"type":"Feature","geometry":{"type":"Point","coordinates":[139.6245045,35.418678]},"properties":{"Name":"鯉の湯","Ward":"磯子区","Type":"民間施設","Notes":"被災状況によっては提供できない場合もあります。開設状況は、「一時滞在ＮＡＶＩ」をご確認ください。","Address":"滝頭三丁目4番9号"}},{"type":"Feature","geometry":{"type":"Point","coordinates":[139.6264016,35.4153729]},"properties":{"Name":"第二江陽館","Ward":"磯子区","Type":"民間施設","Notes":"被災状況によっては提供できない場合もあります。開設状況は、「一時滞在ＮＡＶＩ」をご確認ください。","Address":"中浜町4番地16"}},{"type":"Feature","geometry":{"type":"Point","coordinates":[139.6177635,35.4012666]},"properties":{"Name":"磯子商業振興協同組合　磯子アイランドビル","Ward":"磯子区","Type":"民間施設","Notes":"被災状況によっては提供できない場合もあります。開設状況は、「一時滞在ＮＡＶＩ」をご確認ください。","Address":"磯子三丁目6番23号"}},{"type":"Feature","geometry":{"type":"Point","coordinates":[139.6212658,35.4252104]},"properties":{"Name":"株式会社マーメイドケアー","Ward":"磯子区","Type":"民間施設","Notes":"被災状況によっては提供できない場合もあります。開設状況は、「一時滞在ＮＡＶＩ」をご確認ください。","Address":"丸山一丁目15番25号"}},{"type":"Feature","geometry":{"type":"Point","coordinates":[139.6527251,35.3709268]},"properties":{"Name":"三菱重工業株式会社横浜製作所金沢工場","Ward":"金沢区","Type":"民間施設","Notes":"被災状況によっては提供できない場合もあります。開設状況は、「一時滞在ＮＡＶＩ」をご確認ください。","Address":"幸浦一丁目8番1号"}},{"type":"Feature","geometry":{"type":"Point","coordinates":[139.6449452,35.3545231]},"properties":{"Name":"横浜金沢ハイテクセンター","Ward":"金沢区","Type":"民間施設","Notes":"被災状況によっては提供できない場合もあります。開設状況は、「一時滞在ＮＡＶＩ」をご確認ください。","Address":"福浦一丁目1番1号"}},{"type":"Feature","geometry":{"type":"Point","coordinates":[139.6494559,35.3433996]},"properties":{"Name":"日本発条株式会社横浜事業所　本館棟","Ward":"金沢区","Type":"民間施設","Notes":"被災状況によっては提供できない場合もあります。開設状況は、「一時滞在ＮＡＶＩ」をご確認ください。","Address":"福浦三丁目10番"}},{"type":"Feature","geometry":{"type":"Point","coordinates":[139.6185039,35.5089029]},"properties":{"Name":"新横浜グレイスホテル","Ward":"港北区","Type":"民間施設","Notes":"被災状況によっては提供できない場合もあります。開設状況は、「一時滞在ＮＡＶＩ」をご確認ください。","Address":"新横浜三丁目6番15号"}},{"type":"Feature","geometry":{"type":"Point","coordinates":[139.6167041,35.5099695]},"properties":{"Name":"新横浜国際ホテル","Ward":"港北区","Type":"民間施設","Notes":"被災状況によっては提供できない場合もあります。開設状況は、「一時滞在ＮＡＶＩ」をご確認ください。","Address":"新横浜三丁目18番1号"}},{"type":"Feature","geometry":{"type":"Point","coordinates":[139.6145599,35.5073836]},"properties":{"Name":"新横浜フジビューホテル","Ward":"港北区","Type":"民間施設","Notes":"被災状況によっては提供できない場合もあります。開設状況は、「一時滞在ＮＡＶＩ」をご確認ください。","Address":"新横浜二丁目3番1号"}},{"type":"Feature","geometry":{"type":"Point","coordinates":[139.6188705,35.5095167]},"properties":{"Name":"新横浜プリンスホテル","Ward":"港北区","Type":"民間施設","Notes":"被災状況によっては提供できない場合もあります。開設状況は、「一時滞在ＮＡＶＩ」をご確認ください。","Address":"新横浜三丁目4番"}},{"type":"Feature","geometry":{"type":"Point","coordinates":[139.6201064,35.5115138]},"properties":{"Name":"横浜アリーナ","Ward":"港北区","Type":"民間施設","Notes":"被災状況によっては提供できない場合もあります。開設状況は、「一時滞在ＮＡＶＩ」をご確認ください。","Address":"新横浜三丁目10番"}},{"type":"Feature","geometry":{"type":"Point","coordinates":[139.6160764,35.5090334]},"properties":{"Name":"学校法人岩崎学園　横浜医療情報専門学校","Ward":"港北区","Type":"民間施設","Notes":"被災状況によっては提供できない場合もあります。開設状況は、「一時滞在ＮＡＶＩ」をご確認ください。","Address":"新横浜二丁目4番10号"}},{"type":"Feature","geometry":{"type":"Point","coordinates":[139.6135962,35.5071392]},"properties":{"Name":"坂本祭典　新横浜斎場","Ward":"港北区","Type":"民間施設","Notes":"被災状況によっては提供できない場合もあります。開設状況は、「一時滞在ＮＡＶＩ」をご確認ください。","Address":"新横浜二丁目2番9号"}},{"type":"Feature","geometry":{"type":"Point","coordinates":[139.6185926,35.512497]},"properties":{"Name":"学校法人岩崎学園　横浜デジタルアーツ専門学校","Ward":"港北区","Type":"民間施設","Notes":"被災状況によっては提供できない場合もあります。開設状況は、「一時滞在ＮＡＶＩ」をご確認ください。","Address":"新横浜三丁目22番17号"}},{"type":"Feature","geometry":{"type":"Point","coordinates":[139.6508773,35.5527031]},"properties":{"Name":"慶応義塾大学　日吉キャンパス","Ward":"港北区","Type":"民間施設","Notes":"被災状況によっては提供できない場合もあります。開設状況は、「一時滞在ＮＡＶＩ」をご確認ください。","Address":"日吉四丁目1番1号"}},{"type":"Feature","geometry":{"type":"Point","coordinates":[139.632743,35.5480011]},"properties":{"Name":"日吉湯","Ward":"港北区","Type":"民間施設","Notes":"被災状況によっては提供できない場合もあります。開設状況は、「一時滞在ＮＡＶＩ」をご確認ください。","Address":"日吉本町四丁目15番9号"}},{"type":"Feature","geometry":{"type":"Point","coordinates":[139.6281886,35.5218685]},"properties":{"Name":"一の湯","Ward":"港北区","Type":"民間施設","Notes":"被災状況によっては提供できない場合もあります。開設状況は、「一時滞在ＮＡＶＩ」をご確認ください。","Address":"大倉山三丁目2番18号"}},{"type":"Feature","geometry":{"type":"Point","coordinates":[139.5989988,35.4453409]},"properties":{"Name":"坂本祭典　保土ヶ谷斎場","Ward":"保土ケ谷区","Type":"民間施設","Notes":"被災状況によっては提供できない場合もあります。開設状況は、「一時滞在ＮＡＶＩ」をご確認ください。","Address":"岩井町124番地"}},{"type":"Feature","geometry":{"type":"Point","coordinates":[139.5856886,35.4653024]},"properties":{"Name":"坂本祭典　和田町斎場","Ward":"保土ケ谷区","Type":"民間施設","Notes":"被災状況によっては提供できない場合もあります。開設状況は、「一時滞在ＮＡＶＩ」をご確認ください。","Address":"和田一丁目21番15号"}},{"type":"Feature","geometry":{"type":"Point","coordinates":[139.5789419,35.4682907]},"properties":{"Name":"上星川浴場","Ward":"保土ケ谷区","Type":"民間施設","Notes":"被災状況によっては提供できない場合もあります。開設状況は、「一時滞在ＮＡＶＩ」をご確認ください。","Address":"上星川三丁目3番1号"}},{"type":"Feature","geometry":{"type":"Point","coordinates":[139.5948745,35.412945]},"properties":{"Name":"坂本祭典　上大岡斎場","Ward":"港南区","Type":"民間施設","Notes":"被災状況によっては提供できない場合もあります。開設状況は、「一時滞在ＮＡＶＩ」をご確認ください。","Address":"最戸一丁目18番18号"}},{"type":"Feature","geometry":{"type":"Point","coordinates":[139.5967299,35.412209]},"properties":{"Name":"セントラルホール横浜葬儀社　上大岡駅前式場","Ward":"港南区","Type":"民間施設","Notes":"被災状況によっては提供できない場合もあります。開設状況は、「一時滞在ＮＡＶＩ」をご確認ください。","Address":"上大岡西一丁目2番2号"}},{"type":"Feature","geometry":{"type":"Point","coordinates":[139.513093,35.5447988]},"properties":{"Name":"大成祭典　セレモニーホール大成第２","Ward":"青葉区","Type":"民間施設","Notes":"被災状況によっては提供できない場合もあります。開設状況は、「一時滞在ＮＡＶＩ」をご確認ください。","Address":"青葉台二丁目18番6号"}},{"type":"Feature","geometry":{"type":"Point","coordinates":[139.4963191,35.5291264]},"properties":{"Name":"大林寺　山水閣","Ward":"緑区","Type":"民間施設","Notes":"被災状況によっては提供できない場合もあります。開設状況は、「一時滞在ＮＡＶＩ」をご確認ください。","Address":"長津田六丁目2番7号"}},{"type":"Feature","geometry":{"type":"Point","coordinates":[139.4883445,35.5275978]},"properties":{"Name":"学校法人森村学園","Ward":"緑区","Type":"民間施設","Notes":"被災状況によっては提供できない場合もあります。開設状況は、「一時滞在ＮＡＶＩ」をご確認ください。","Address":"長津田町2695番地"}},{"type":"Feature","geometry":{"type":"Point","coordinates":[139.5604322,35.4786889]},"properties":{"Name":"坂本祭典　西谷斎場","Ward":"旭区","Type":"民間施設","Notes":"被災状況によっては提供できない場合もあります。開設状況は、「一時滞在ＮＡＶＩ」をご確認ください。","Address":"西川島町1番地5"}},{"type":"Feature","geometry":{"type":"Point","coordinates":[139.5289047,35.4615297]},"properties":{"Name":"坂本祭典　二俣川斎場","Ward":"旭区","Type":"民間施設","Notes":"被災状況によっては提供できない場合もあります。開設状況は、「一時滞在ＮＡＶＩ」をご確認ください。","Address":"さちが丘48番地"}},{"type":"Feature","geometry":{"type":"Point","coordinates":[139.5358795,35.3982683]},"properties":{"Name":"戸塚法人会館","Ward":"戸塚区","Type":"民間施設","Notes":"被災状況によっては提供できない場合もあります。開設状況は、「一時滞在ＮＡＶＩ」をご確認ください。","Address":"上倉田町449番地2"}},{"type":"Feature","geometry":{"type":"Point","coordinates":[139.560266,35.4310919]},"properties":{"Name":"学校法人岩崎学園　横浜保育福祉専門学校","Ward":"戸塚区","Type":"民間施設","Notes":"被災状況によっては提供できない場合もあります。開設状況は、「一時滞在ＮＡＶＩ」をご確認ください。","Address":"品濃町550番地8"}},{"type":"Feature","geometry":{"type":"Point","coordinates":[139.5599466,35.4310503]},"properties":{"Name":"学校法人岩崎学園　横浜リハビリテーション専門学校","Ward":"戸塚区","Type":"民間施設","Notes":"被災状況によっては提供できない場合もあります。開設状況は、「一時滞在ＮＡＶＩ」をご確認ください。","Address":"品濃町550番地1"}},{"type":"Feature","geometry":{"type":"Point","coordinates":[139.5584218,35.4293172]},"properties":{"Name":"コナカエンタープライズ株式会社　本社ビル","Ward":"戸塚区","Type":"民間施設","Notes":"被災状況によっては提供できない場合もあります。開設状況は、「一時滞在ＮＡＶＩ」をご確認ください。","Address":"品濃町517番地2"}},{"type":"Feature","geometry":{"type":"Point","coordinates":[139.5025621,35.4661013]},"properties":{"Name":"ファミリーアイランド　さくらゆ","Ward":"瀬谷区","Type":"民間施設","Notes":"被災状況によっては提供できない場合もあります。開設状況は、「一時滞在ＮＡＶＩ」をご確認ください。","Address":"三ツ境12番地10"}},{"type":"Feature","geometry":{"type":"Point","coordinates":[139.510648,35.4041199]},"properties":{"Name":"葛の湯","Ward":"泉区","Type":"民間施設","Notes":"被災状況によっては提供できない場合もあります。開設状況は、「一時滞在ＮＡＶＩ」をご確認ください。","Address":"中田南五丁目1番16号"}},{"type":"Feature","geometry":{"type":"Point","coordinates":[139.6752658,35.5085118]},"properties":{"Name":"鶴見公会堂","Ward":"鶴見区","Type":"公共施設","Notes":"被災状況によっては提供できない場合もあります。開設状況は、「一時滞在ＮＡＶＩ」をご確認ください。","Address":"豊岡町2番地1 フーガ1 6階・7階"}},{"type":"Feature","geometry":{"type":"Point","coordinates":[139.602967,35.4707434]},"properties":{"Name":"平沼記念体育館","Ward":"神奈川区","Type":"公共施設","Notes":"被災状況によっては提供できない場合もあります。開設状況は、「一時滞在ＮＡＶＩ」をご確認ください。","Address":"三ツ沢西町3番地1"}},{"type":"Feature","geometry":{"type":"Point","coordinates":[139.6334637,35.4805063]},"properties":{"Name":"神奈川公会堂","Ward":"神奈川区","Type":"公共施設","Notes":"被災状況によっては提供できない場合もあります。開設状況は、「一時滞在ＮＡＶＩ」をご確認ください。","Address":"富家町1番地3"}},{"type":"Feature","geometry":{"type":"Point","coordinates":[139.6179486,35.4712267]},"properties":{"Name":"横浜市民防災センター","Ward":"神奈川区","Type":"公共施設","Notes":"被災状況によっては提供できない場合もあります。開設状況は、「一時滞在ＮＡＶＩ」をご確認ください。","Address":"沢渡4番地7"}},{"type":"Feature","geometry":{"type":"Point","coordinates":[139.6154907,35.4625167]},"properties":{"Name":"西公会堂","Ward":"西区","Type":"公共施設","Notes":"被災状況によっては提供できない場合もあります。開設状況は、「一時滞在ＮＡＶＩ」をご確認ください。","Address":"岡野一丁目6番41号"}},{"type":"Feature","geometry":{"type":"Point","coordinates":[139.6265568,35.4475573]},"properties":{"Name":"中央図書館","Ward":"西区","Type":"公共施設","Notes":"被災状況によっては提供できない場合もあります。開設状況は、「一時滞在ＮＡＶＩ」をご確認ください。","Address":"老松町1番地"}},{"type":"Feature","geometry":{"type":"Point","coordinates":[139.6296687,35.453141]},"properties":{"Name":"市民活動支援センター","Ward":"中区","Type":"公共施設","Notes":"被災状況によっては提供できない場合もあります。開設状況は、「一時滞在ＮＡＶＩ」をご確認ください。","Address":"桜木町1丁目1番地56 みなとみらい21 クリーンセンタービル"}},{"type":"Feature","geometry":{"type":"Point","coordinates":[139.6440441,35.4548426]},"properties":{"Name":"海上保安庁横浜海上防災基地","Ward":"中区","Type":"公共施設","Notes":"被災状況によっては提供できない場合もあります。開設状況は、「一時滞在ＮＡＶＩ」をご確認ください。","Address":"新港一丁目2番1号"}},{"type":"Feature","geometry":{"type":"Point","coordinates":[139.6371309,35.4507708]},"properties":{"Name":"横浜第２合同庁舎（財務省横浜財務事務所管理）","Ward":"中区","Type":"公共施設","Notes":"被災状況によっては提供できない場合もあります。開設状況は、「一時滞在ＮＡＶＩ」をご確認ください。","Address":"北仲通5丁目57番地"}},{"type":"Feature","geometry":{"type":"Point","coordinates":[139.636245,35.4473018]},"properties":{"Name":"関内ホール","Ward":"中区","Type":"公共施設","Notes":"被災状況によっては提供できない場合もあります。開設状況は、「一時滞在ＮＡＶＩ」をご確認ください。","Address":"住吉町4丁目42番地1"}},{"type":"Feature","geometry":{"type":"Point","coordinates":[133.9200904,34.665236]},"properties":{"Name":"開港記念会館","Ward":"中区","Type":"公共施設","Notes":"被災状況によっては提供できない場合もあります。開設状況は、「一時滞在ＮＡＶＩ」をご確認ください。","Address":"本町1丁目6番地"}},{"type":"Feature","geometry":{"type":"Point","coordinates":[139.6364452,35.4410026]},"properties":{"Name":"横浜文化体育館","Ward":"中区","Type":"公共施設","Notes":"被災状況によっては提供できない場合もあります。開設状況は、「一時滞在ＮＡＶＩ」をご確認ください。","Address":"不老町2丁目7番地"}},{"type":"Feature","geometry":{"type":"Point","coordinates":[139.9320176,37.497397]},"properties":{"Name":"根岸地区センター","Ward":"磯子区","Type":"公共施設","Notes":"被災状況によっては提供できない場合もあります。開設状況は、「一時滞在ＮＡＶＩ」をご確認ください。","Address":"馬場町1番地42"}},{"type":"Feature","geometry":{"type":"Point","coordinates":[139.6185495,35.4023887]},"properties":{"Name":"磯子公会堂","Ward":"磯子区","Type":"公共施設","Notes":"被災状況によっては提供できない場合もあります。開設状況は、「一時滞在ＮＡＶＩ」をご確認ください。","Address":"磯子三丁目5番1号"}},{"type":"Feature","geometry":{"type":"Point","coordinates":[139.6209075,35.4055411]},"properties":{"Name":"磯子地区センター","Ward":"磯子区","Type":"公共施設","Notes":"被災状況によっては提供できない場合もあります。開設状況は、「一時滞在ＮＡＶＩ」をご確認ください。","Address":"磯子三丁目1番41号"}},{"type":"Feature","geometry":{"type":"Point","coordinates":[139.6226191,35.38353550000001]},"properties":{"Name":"磯子スポーツセンター","Ward":"磯子区","Type":"公共施設","Notes":"被災状況によっては提供できない場合もあります。開設状況は、「一時滞在ＮＡＶＩ」をご確認ください。","Address":"杉田五丁目32番25号"}},{"type":"Feature","geometry":{"type":"Point","coordinates":[139.6194249,35.385649]},"properties":{"Name":"磯子区民文化センター杉田劇場","Ward":"磯子区","Type":"公共施設","Notes":"被災状況によっては提供できない場合もあります。開設状況は、「一時滞在ＮＡＶＩ」をご確認ください。","Address":"杉田一丁目1番1号"}},{"type":"Feature","geometry":{"type":"Point","coordinates":[141.4411623,40.6126256]},"properties":{"Name":"洋光台第一中学校","Ward":"磯子区","Type":"公共施設","Notes":"被災状況によっては提供できない場合もあります。開設状況は、「一時滞在ＮＡＶＩ」をご確認ください。","Address":"洋光台二丁目5番1号"}},{"type":"Feature","geometry":{"type":"Point","coordinates":[139.6363988,35.3677878]},"properties":{"Name":"富岡並木地区センター","Ward":"金沢区","Type":"公共施設","Notes":"被災状況によっては提供できない場合もあります。開設状況は、「一時滞在ＮＡＶＩ」をご確認ください。","Address":"富岡東四丁目13番2号"}},{"type":"Feature","geometry":{"type":"Point","coordinates":[139.6265358,35.3594249]},"properties":{"Name":"能見台地区センター","Ward":"金沢区","Type":"公共施設","Notes":"被災状況によっては提供できない場合もあります。開設状況は、「一時滞在ＮＡＶＩ」をご確認ください。","Address":"能見台東2番地1"}},{"type":"Feature","geometry":{"type":"Point","coordinates":[139.6244637,35.3372726]},"properties":{"Name":"金沢公会堂","Ward":"金沢区","Type":"公共施設","Notes":"被災状況によっては提供できない場合もあります。開設状況は、「一時滞在ＮＡＶＩ」をご確認ください。","Address":"泥亀二丁目9番1号"}},{"type":"Feature","geometry":{"type":"Point","coordinates":[139.6121121,35.3256759]},"properties":{"Name":"六浦地区センター","Ward":"金沢区","Type":"公共施設","Notes":"被災状況によっては提供できない場合もあります。開設状況は、「一時滞在ＮＡＶＩ」をご確認ください。","Address":"六浦五丁目20番2"}},{"type":"Feature","geometry":{"type":"Point","coordinates":[139.6426752,35.5551554]},"properties":{"Name":"日吉地区センター","Ward":"港北区","Type":"公共施設","Notes":"被災状況によっては提供できない場合もあります。開設状況は、「一時滞在ＮＡＶＩ」をご確認ください。","Address":"日吉本町一丁目11番13号"}},{"type":"Feature","geometry":{"type":"Point","coordinates":[139.6320822,35.5378058]},"properties":{"Name":"綱島地区センター","Ward":"港北区","Type":"公共施設","Notes":"被災状況によっては提供できない場合もあります。開設状況は、「一時滞在ＮＡＶＩ」をご確認ください。","Address":"綱島西一丁目14番26号"}},{"type":"Feature","geometry":{"type":"Point","coordinates":[139.6330355,35.519055]},"properties":{"Name":"港北公会堂","Ward":"港北区","Type":"公共施設","Notes":"被災状況によっては提供できない場合もあります。開設状況は、「一時滞在ＮＡＶＩ」をご確認ください。","Address":"大豆戸町26番地1"}},{"type":"Feature","geometry":{"type":"Point","coordinates":[139.6111957,35.5325644]},"properties":{"Name":"新田地区センター","Ward":"港北区","Type":"公共施設","Notes":"被災状況によっては提供できない場合もあります。開設状況は、「一時滞在ＮＡＶＩ」をご確認ください。","Address":"新吉田町3236番地"}},{"type":"Feature","geometry":{"type":"Point","coordinates":[139.6236059,35.5156357]},"properties":{"Name":"港北スポーツセンター","Ward":"港北区","Type":"公共施設","Notes":"被災状況によっては提供できない場合もあります。開設状況は、「一時滞在ＮＡＶＩ」をご確認ください。","Address":"大豆戸町518番地1"}},{"type":"Feature","geometry":{"type":"Point","coordinates":[139.5971042,35.4569979]},"properties":{"Name":"保土ケ谷公会堂","Ward":"保土ケ谷区","Type":"公共施設","Notes":"被災状況によっては提供できない場合もあります。開設状況は、「一時滞在ＮＡＶＩ」をご確認ください。","Address":"星川一丁目2番1号"}},{"type":"Feature","geometry":{"type":"Point","coordinates":[139.6098672,35.4306012]},"properties":{"Name":"蒔田コミュニティハウス","Ward":"南区","Type":"公共施設","Notes":"被災状況によっては提供できない場合もあります。開設状況は、「一時滞在ＮＡＶＩ」をご確認ください。","Address":"宿町3丁目57番地"}},{"type":"Feature","geometry":{"type":"Point","coordinates":[139.6088201,35.4313399]},"properties":{"Name":"南公会堂","Ward":"南区","Type":"公共施設","Notes":"被災状況によっては提供できない場合もあります。開設状況は、「一時滞在ＮＡＶＩ」をご確認ください。","Address":"花之木町3丁目48番地1"}},{"type":"Feature","geometry":{"type":"Point","coordinates":[139.6150416,35.4362948]},"properties":{"Name":"男女共同参画センター横浜南","Ward":"南区","Type":"公共施設","Notes":"被災状況によっては提供できない場合もあります。開設状況は、「一時滞在ＮＡＶＩ」をご確認ください。","Address":"南太田一丁目7番20号"}},{"type":"Feature","geometry":{"type":"Point","coordinates":[139.5963938,35.4085067]},"properties":{"Name":"港南区民文化センターひまわりの郷","Ward":"港南区","Type":"公共施設","Notes":"被災状況によっては提供できない場合もあります。開設状況は、「一時滞在ＮＡＶＩ」をご確認ください。","Address":"上大岡西一丁目6番1号 4階"}},{"type":"Feature","geometry":{"type":"Point","coordinates":[139.5963938,35.4085067]},"properties":{"Name":"福祉保健研修交流センターウィリング横浜","Ward":"港南区","Type":"公共施設","Notes":"被災状況によっては提供できない場合もあります。開設状況は、「一時滞在ＮＡＶＩ」をご確認ください。","Address":"上大岡西一丁目6番1号 4階"}},{"type":"Feature","geometry":{"type":"Point","coordinates":[139.5963938,35.4085067]},"properties":{"Name":"港南国際交流ラウンジ","Ward":"港南区","Type":"公共施設","Notes":"被災状況によっては提供できない場合もあります。開設状況は、「一時滞在ＮＡＶＩ」をご確認ください。","Address":"上大岡西一丁目6番1号 13階"}},{"type":"Feature","geometry":{"type":"Point","coordinates":[139.5887364,35.3987604]},"properties":{"Name":"港南スポーツセンター","Ward":"港南区","Type":"公共施設","Notes":"被災状況によっては提供できない場合もあります。開設状況は、「一時滞在ＮＡＶＩ」をご確認ください。","Address":"日野一丁目2番30号"}},{"type":"Feature","geometry":{"type":"Point","coordinates":[139.5533229,35.3634147]},"properties":{"Name":"栄公会堂","Ward":"栄区","Type":"公共施設","Notes":"被災状況によっては提供できない場合もあります。開設状況は、「一時滞在ＮＡＶＩ」をご確認ください。","Address":"桂町279番地29"}},{"type":"Feature","geometry":{"type":"Point","coordinates":[139.5533229,35.3634147]},"properties":{"Name":"栄スポーツセンター","Ward":"栄区","Type":"公共施設","Notes":"被災状況によっては提供できない場合もあります。開設状況は、「一時滞在ＮＡＶＩ」をご確認ください。","Address":"桂町279番地29"}},{"type":"Feature","geometry":{"type":"Point","coordinates":[139.5781266,35.5501972]},"properties":{"Name":"歴史博物館","Ward":"都筑区","Type":"公共施設","Notes":"被災状況によっては提供できない場合もあります。開設状況は、「一時滞在ＮＡＶＩ」をご確認ください。","Address":"中川中央一丁目18番1号"}},{"type":"Feature","geometry":{"type":"Point","coordinates":[139.5710302,35.5449367]},"properties":{"Name":"都筑公会堂","Ward":"都筑区","Type":"公共施設","Notes":"被災状況によっては提供できない場合もあります。開設状況は、「一時滞在ＮＡＶＩ」をご確認ください。","Address":"茅ケ崎中央32番地1"}},{"type":"Feature","geometry":{"type":"Point","coordinates":[139.55357,35.566892]},"properties":{"Name":"山内地区センター","Ward":"青葉区","Type":"公共施設","Notes":"被災状況によっては提供できない場合もあります。開設状況は、「一時滞在ＮＡＶＩ」をご確認ください。","Address":"あざみ野二丁目3番2号"}},{"type":"Feature","geometry":{"type":"Point","coordinates":[139.5361883,35.553835]},"properties":{"Name":"青葉公会堂","Ward":"青葉区","Type":"公共施設","Notes":"被災状況によっては提供できない場合もあります。開設状況は、「一時滞在ＮＡＶＩ」をご確認ください。","Address":"市ケ尾町31番地4"}},{"type":"Feature","geometry":{"type":"Point","coordinates":[139.5271671,35.5469053]},"properties":{"Name":"藤が丘地区センター","Ward":"青葉区","Type":"公共施設","Notes":"被災状況によっては提供できない場合もあります。開設状況は、「一時滞在ＮＡＶＩ」をご確認ください。","Address":"藤が丘一丁目14番95号"}},{"type":"Feature","geometry":{"type":"Point","coordinates":[130.2990219,33.2550189]},"properties":{"Name":"白山地区センター","Ward":"緑区","Type":"公共施設","Notes":"被災状況によっては提供できない場合もあります。開設状況は、「一時滞在ＮＡＶＩ」をご確認ください。","Address":"白山一丁目2番1号"}},{"type":"Feature","geometry":{"type":"Point","coordinates":[139.5436607,35.516462]},"properties":{"Name":"中山地区センター","Ward":"緑区","Type":"公共施設","Notes":"被災状況によっては提供できない場合もあります。開設状況は、「一時滞在ＮＡＶＩ」をご確認ください。","Address":"中山町413番地4 ハーモニーみどり"}},{"type":"Feature","geometry":{"type":"Point","coordinates":[139.5102409,35.5261676]},"properties":{"Name":"十日市場スポーツ会館","Ward":"緑区","Type":"公共施設","Notes":"被災状況によっては提供できない場合もあります。開設状況は、「一時滞在ＮＡＶＩ」をご確認ください。","Address":"十日市場町1633番地"}},{"type":"Feature","geometry":{"type":"Point","coordinates":[139.5150935,35.5246712]},"properties":{"Name":"十日市場地区センター","Ward":"緑区","Type":"公共施設","Notes":"被災状況によっては提供できない場合もあります。開設状況は、「一時滞在ＮＡＶＩ」をご確認ください。","Address":"十日市場町808番地3"}},{"type":"Feature","geometry":{"type":"Point","coordinates":[139.4920443,35.5305311]},"properties":{"Name":"長津田地区センター","Ward":"緑区","Type":"公共施設","Notes":"被災状況によっては提供できない場合もあります。開設状況は、「一時滞在ＮＡＶＩ」をご確認ください。","Address":"長津田町2327番地"}},{"type":"Feature","geometry":{"type":"Point","coordinates":[139.5473166,35.4809607]},"properties":{"Name":"白根地区センター","Ward":"旭区","Type":"公共施設","Notes":"被災状況によっては提供できない場合もあります。開設状況は、「一時滞在ＮＡＶＩ」をご確認ください。","Address":"白根四丁目6番1号"}},{"type":"Feature","geometry":{"type":"Point","coordinates":[139.5500221,35.4748281]},"properties":{"Name":"みなくる","Ward":"旭区","Type":"公共施設","Notes":"被災状況によっては提供できない場合もあります。開設状況は、「一時滞在ＮＡＶＩ」をご確認ください。","Address":"鶴ケ峰二丁目82番1号 ココロット鶴ヶ峰4階"}},{"type":"Feature","geometry":{"type":"Point","coordinates":[139.5325099,35.4641182]},"properties":{"Name":"旭区民文化センターサンハート","Ward":"旭区","Type":"公共施設","Notes":"被災状況によっては提供できない場合もあります。開設状況は、「一時滞在ＮＡＶＩ」をご確認ください。","Address":"二俣川1丁目3番 二俣川ライフ5階"}},{"type":"Feature","geometry":{"type":"Point","coordinates":[139.5108783,35.459516]},"properties":{"Name":"希望が丘地区センター","Ward":"旭区","Type":"公共施設","Notes":"被災状況によっては提供できない場合もあります。開設状況は、「一時滞在ＮＡＶＩ」をご確認ください。","Address":"中希望が丘145番地4"}},{"type":"Feature","geometry":{"type":"Point","coordinates":[139.5579687,35.4642183]},"properties":{"Name":"市沢地区センター","Ward":"旭区","Type":"公共施設","Notes":"被災状況によっては提供できない場合もあります。開設状況は、「一時滞在ＮＡＶＩ」をご確認ください。","Address":"市沢町9番地"}},{"type":"Feature","geometry":{"type":"Point","coordinates":[139.5238435,35.4858184]},"properties":{"Name":"都岡地区センター","Ward":"旭区","Type":"公共施設","Notes":"被災状況によっては提供できない場合もあります。開設状況は、「一時滞在ＮＡＶＩ」をご確認ください。","Address":"今宿西町292番地2"}},{"type":"Feature","geometry":{"type":"Point","coordinates":[139.5391647,35.4765445]},"properties":{"Name":"鶴ケ峰コミュニティハウス","Ward":"旭区","Type":"公共施設","Notes":"被災状況によっては提供できない場合もあります。開設状況は、「一時滞在ＮＡＶＩ」をご確認ください。","Address":"鶴ケ峰本町一丁目16番1号"}},{"type":"Feature","geometry":{"type":"Point","coordinates":[139.5376866,35.4911178]},"properties":{"Name":"上白根コミュニティハウス","Ward":"旭区","Type":"公共施設","Notes":"被災状況によっては提供できない場合もあります。開設状況は、「一時滞在ＮＡＶＩ」をご確認ください。","Address":"上白根町233番地6"}},{"type":"Feature","geometry":{"type":"Point","coordinates":[139.4988346,35.4660791]},"properties":{"Name":"瀬谷公会堂","Ward":"瀬谷区","Type":"公共施設","Notes":"被災状況によっては提供できない場合もあります。開設状況は、「一時滞在ＮＡＶＩ」をご確認ください。","Address":"二ツ橋町190番地"}},{"type":"Feature","geometry":{"type":"Point","coordinates":[139.4865101,35.4738278]},"properties":{"Name":"瀬谷センター","Ward":"瀬谷区","Type":"公共施設","Notes":"被災状況によっては提供できない場合もあります。開設状況は、「一時滞在ＮＡＶＩ」をご確認ください。","Address":"瀬谷三丁目18番1号"}},{"type":"Feature","geometry":{"type":"Point","coordinates":[139.5139977,35.4203041]},"properties":{"Name":"老人福祉センター泉寿荘","Ward":"泉区","Type":"公共施設","Notes":"被災状況によっては提供できない場合もあります。開設状況は、「一時滞在ＮＡＶＩ」をご確認ください。","Address":"西が岡三丁目11番"}},{"type":"Feature","geometry":{"type":"Point","coordinates":[139.514231,35.4260367]},"properties":{"Name":"中川地区センター","Ward":"泉区","Type":"公共施設","Notes":"被災状況によっては提供できない場合もあります。開設状況は、「一時滞在ＮＡＶＩ」をご確認ください。","Address":"桂坂4番地1"}},{"type":"Feature","geometry":{"type":"Point","coordinates":[139.5008544,35.4171878]},"properties":{"Name":"立場地区センター","Ward":"泉区","Type":"公共施設","Notes":"被災状況によっては提供できない場合もあります。開設状況は、「一時滞在ＮＡＶＩ」をご確認ください。","Address":"中田北一丁目9番14号"}},{"type":"Feature","geometry":{"type":"Point","coordinates":[139.495474,35.403288]},"properties":{"Name":"下和泉地区センター（下和泉地域ケアプラザ）","Ward":"泉区","Type":"公共施設","Notes":"被災状況によっては提供できない場合もあります。開設状況は、「一時滞在ＮＡＶＩ」をご確認ください。","Address":"和泉が丘一丁目26番1号"}},{"type":"Feature","geometry":{"type":"Point","coordinates":[139.4890583,35.4178738]},"properties":{"Name":"泉公会堂","Ward":"泉区","Type":"公共施設","Notes":"被災状況によっては提供できない場合もあります。開設状況は、「一時滞在ＮＡＶＩ」をご確認ください。","Address":"和泉町4636番地2"}},{"type":"Feature","geometry":{"type":"Point","coordinates":[139.4831475,35.433769]},"properties":{"Name":"上飯田地区センター","Ward":"泉区","Type":"公共施設","Notes":"被災状況によっては提供できない場合もあります。開設状況は、「一時滞在ＮＡＶＩ」をご確認ください。","Address":"上飯田町3913番地1"}},{"type":"Feature","geometry":{"type":"Point","coordinates":[139.5535979,35.4030543]},"properties":{"Name":"舞岡地区センター","Ward":"戸塚区","Type":"公共施設","Notes":"被災状況によっては提供できない場合もあります。開設状況は、「一時滞在ＮＡＶＩ」をご確認ください。","Address":"舞岡町3020番地"}},{"type":"Feature","geometry":{"type":"Point","coordinates":[139.5552664,35.4286866]},"properties":{"Name":"東戸塚地区センター","Ward":"戸塚区","Type":"公共施設","Notes":"被災状況によっては提供できない場合もあります。開設状況は、「一時滞在ＮＡＶＩ」をご確認ください。","Address":"川上町4番地4"}},{"type":"Feature","geometry":{"type":"Point","coordinates":[139.55158,35.4198772]},"properties":{"Name":"戸塚公会堂","Ward":"戸塚区","Type":"公共施設","Notes":"被災状況によっては提供できない場合もあります。開設状況は、「一時滞在ＮＡＶＩ」をご確認ください。","Address":"戸塚町127番地 戸塚センター"}},{"type":"Feature","geometry":{"type":"Point","coordinates":[139.5355212,35.3991237]},"properties":{"Name":"戸塚スポーツセンター","Ward":"戸塚区","Type":"公共施設","Notes":"被災状況によっては提供できない場合もあります。開設状況は、「一時滞在ＮＡＶＩ」をご確認ください。","Address":"上倉田町477番地"}},{"type":"Feature","geometry":{"type":"Point","coordinates":[139.55158,35.4198772]},"properties":{"Name":"戸塚地区センター","Ward":"戸塚区","Type":"公共施設","Notes":"被災状況によっては提供できない場合もあります。開設状況は、「一時滞在ＮＡＶＩ」をご確認ください。","Address":"戸塚町127番地 戸塚センター"}},{"type":"Feature","geometry":{"type":"Point","coordinates":[139.5343296,35.39786]},"properties":{"Name":"男女共同参画センター横浜","Ward":"戸塚区","Type":"公共施設","Notes":"被災状況によっては提供できない場合もあります。開設状況は、「一時滞在ＮＡＶＩ」をご確認ください。","Address":"上倉田町435番地1"}},{"type":"Feature","geometry":{"type":"Point","coordinates":[139.5415097,35.3945023]},"properties":{"Name":"倉田コミュニティハウス","Ward":"戸塚区","Type":"公共施設","Notes":"被災状況によっては提供できない場合もあります。開設状況は、「一時滞在ＮＡＶＩ」をご確認ください。","Address":"上倉田町1865番地4"}},{"type":"Feature","geometry":{"type":"Point","coordinates":[139.5239552,35.385606]},"properties":{"Name":"老人福祉センター戸塚柏桜荘","Ward":"戸塚区","Type":"公共施設","Notes":"被災状況によっては提供できない場合もあります。開設状況は、「一時滞在ＮＡＶＩ」をご確認ください。","Address":"戸塚町2304番地5"}},{"type":"Feature","geometry":{"type":"Point","coordinates":[139.5195139,35.4014397]},"properties":{"Name":"踊場地区センター","Ward":"戸塚区","Type":"公共施設","Notes":"被災状況によっては提供できない場合もあります。開設状況は、「一時滞在ＮＡＶＩ」をご確認ください。","Address":"汲沢二丁目23番1号"}},{"type":"Feature","geometry":{"type":"Point","coordinates":[139.5155253,35.4032755]},"properties":{"Name":"踊場公園こどもログハウス","Ward":"戸塚区","Type":"公共施設","Notes":"被災状況によっては提供できない場合もあります。開設状況は、「一時滞在ＮＡＶＩ」をご確認ください。","Address":"汲沢八丁目11番"}},{"type":"Feature","geometry":{"type":"Point","coordinates":[139.5036847,35.38104]},"properties":{"Name":"大正地区センター","Ward":"戸塚区","Type":"公共施設","Notes":"被災状況によっては提供できない場合もあります。開設状況は、「一時滞在ＮＡＶＩ」をご確認ください。","Address":"原宿三丁目59番1号"}},{"type":"Feature","geometry":{"type":"Point","coordinates":[139.5279549,35.4189876]},"properties":{"Name":"上矢部地区センター","Ward":"戸塚区","Type":"公共施設","Notes":"被災状況によっては提供できない場合もあります。開設状況は、「一時滞在ＮＡＶＩ」をご確認ください。","Address":"上矢部町2342番地"}}]}