{"type":"FeatureCollection","features":[{"type":"Feature","geometry":{"type":"Point","coordinates":[140.5709507,39.3158314]},"properties":{"name":"横手南小学校","フリガナ":"ヨコテミナミショウガッコウ","郵便番号":"013-0015","address":"秋田県横手市羽黒町4-36","tel":"0182-32-1051","広域避難所種別":"TRUE","一時避難所種別":"TRUE","津波災害種別":"FALSE","風水害種別":"TRUE","地震種別":"TRUE","避難所の備蓄品":0,"収容可能人数":"8,926","避難所、避難場所情報":"屋内・屋外、トイレ・給食設備・冷暖房"}},{"type":"Feature","geometry":{"type":"Point","coordinates":[140.5600433,39.3261045]},"properties":{"name":"朝倉小学校","フリガナ":"アサクラショウガッコウ","郵便番号":"013-0008","address":"秋田県横手市睦成字碇185","tel":"0182-32-6070","広域避難所種別":"TRUE","一時避難所種別":"TRUE","津波災害種別":"FALSE","風水害種別":"TRUE","地震種別":"TRUE","避難所の備蓄品":0,"収容可能人数":"7,353","避難所、避難場所情報":"屋内・屋外、トイレ・給食設備・冷暖房・障がい者用トイレ"}},{"type":"Feature","geometry":{"type":"Point","coordinates":[140.526981,39.314831]},"properties":{"name":"旭小学校","フリガナ":"アサヒショウガッコウ","郵便番号":"013-0064","address":"秋田県横手市赤坂字城野岡222","tel":"0182-36-1020","広域避難所種別":"TRUE","一時避難所種別":"TRUE","津波災害種別":"FALSE","風水害種別":"TRUE","地震種別":"TRUE","避難所の備蓄品":0,"収容可能人数":"9,804","避難所、避難場所情報":"屋内・屋外、トイレ・給食設備・冷暖房・障がい者用トイレ"}},{"type":"Feature","geometry":{"type":"Point","coordinates":[140.5575913,39.2749272]},"properties":{"name":"栄小学校","フリガナ":"サカエショウガッコウ","郵便番号":"013-0052","address":"秋田県横手市大屋寺内字長谷下6-3","tel":"0182-33-5210","広域避難所種別":"TRUE","一時避難所種別":"TRUE","津波災害種別":"FALSE","風水害種別":"TRUE","地震種別":"TRUE","避難所の備蓄品":0,"収容可能人数":"7,280","避難所、避難場所情報":"屋内・屋外、トイレ・給食設備・冷暖房・障がい者用トイレ"}},{"type":"Feature","geometry":{"type":"Point","coordinates":[140.5266407,39.3407994]},"properties":{"name":"境町小学校","フリガナ":"サカイマチショウガッコウ","郵便番号":"013-0821","address":"秋田県横手市上境字谷地中17","tel":"0182-36-1030","広域避難所種別":"TRUE","一時避難所種別":"TRUE","津波災害種別":"FALSE","風水害種別":"TRUE","地震種別":"TRUE","避難所の備蓄品":0,"収容可能人数":"4,711","避難所、避難場所情報":"屋内・屋外、トイレ・給食設備・冷暖房"}},{"type":"Feature","geometry":{"type":"Point","coordinates":[140.500458,39.3647365]},"properties":{"name":"黒川小学校","フリガナ":"クロカワショウガッコウ","郵便番号":"013-0826","address":"秋田県横手市黒川字福島59","tel":"0182-38-2100","広域避難所種別":"TRUE","一時避難所種別":"TRUE","津波災害種別":"FALSE","風水害種別":"TRUE","地震種別":"TRUE","避難所の備蓄品":0,"収容可能人数":"3,393","避難所、避難場所情報":"屋内・屋外、トイレ・給食設備・冷暖房・障がい者用トイレ"}},{"type":"Feature","geometry":{"type":"Point","coordinates":[140.5670823,39.3696131]},"properties":{"name":"金沢小学校","フリガナ":"カネザワショウガッコウ","郵便番号":"013-0814","address":"秋田県横手市金沢中野字長持213","tel":"0182-37-2150","広域避難所種別":"TRUE","一時避難所種別":"TRUE","津波災害種別":"FALSE","風水害種別":"TRUE","地震種別":"TRUE","避難所の備蓄品":0,"収容可能人数":"1,613","避難所、避難場所情報":"屋内、トイレ・給食設備・冷暖房"}},{"type":"Feature","geometry":{"type":"Point","coordinates":[140.5479328,39.3010828]},"properties":{"name":"横手南中学校","フリガナ":"ヨコテミナミチュウガッコウ","郵便番号":"013-0064","address":"秋田県横手市赤坂字郷士館32-1","tel":"0182-32-3108","広域避難所種別":"TRUE","一時避難所種別":"TRUE","津波災害種別":"FALSE","風水害種別":"TRUE","地震種別":"TRUE","避難所の備蓄品":0,"収容可能人数":"28,969","避難所、避難場所情報":"屋内・屋外、トイレ・給食設備・冷暖房・障がい者用トイレ"}},{"type":"Feature","geometry":{"type":"Point","coordinates":[140.567021,39.3291981]},"properties":{"name":"鳳中学校","フリガナ":"オオトリチュウガッコウ","郵便番号":"013-0006","address":"秋田県横手市新坂町2-74","tel":"0182-32-2028","広域避難所種別":"TRUE","一時避難所種別":"TRUE","津波災害種別":"FALSE","風水害種別":"TRUE","地震種別":"TRUE","避難所の備蓄品":0,"収容可能人数":"5,868","避難所、避難場所情報":"屋内・屋外、トイレ・給食設備・冷暖房・障がい者用トイレ"}},{"type":"Feature","geometry":{"type":"Point","coordinates":[140.5197737,39.3587022]},"properties":{"name":"横手西中学校","フリガナ":"ヨコテニシチュウガッコウ","郵便番号":"013-0826","address":"秋田県横手市黒川字一本木32","tel":"0182-38-2200","広域避難所種別":"TRUE","一時避難所種別":"TRUE","津波災害種別":"FALSE","風水害種別":"TRUE","地震種別":"TRUE","避難所の備蓄品":0,"収容可能人数":"6,330","避難所、避難場所情報":"屋内・屋外、トイレ・給食設備・冷暖房"}},{"type":"Feature","geometry":{"type":"Point","coordinates":[140.5698706,39.376754]},"properties":{"name":"金沢中学校","フリガナ":"カネザワチュウガッコウ","郵便番号":"013-0814","address":"秋田県横手市金沢中野字根小屋84","tel":"0182-37-3390","広域避難所種別":"TRUE","一時避難所種別":"TRUE","津波災害種別":"FALSE","風水害種別":"TRUE","地震種別":"TRUE","避難所の備蓄品":0,"収容可能人数":"4,617","避難所、避難場所情報":"屋内・屋外、トイレ・給食設備・冷暖房"}},{"type":"Feature","geometry":{"type":"Point","coordinates":[140.5643919,39.337753]},"properties":{"name":"横手高等学校","フリガナ":"ヨコテコウトウガッコウ","郵便番号":"013-0008","address":"秋田県横手市睦成字鶴谷地68","tel":"0182-32-3020","広域避難所種別":"TRUE","一時避難所種別":"TRUE","津波災害種別":"FALSE","風水害種別":"TRUE","地震種別":"TRUE","避難所の備蓄品":0,"収容可能人数":"21,653","避難所、避難場所情報":"屋内・屋外、トイレ・シャワー・冷暖房・障がい者用トイレ"}},{"type":"Feature","geometry":{"type":"Point","coordinates":[140.5676203,39.3220804]},"properties":{"name":"横手城南高等学校","フリガナ":"ヨコテジョウナンコウトウガッコウ","郵便番号":"013-0016","address":"秋田県横手市根岸町2-14","tel":"0182-32-4007","広域避難所種別":"TRUE","一時避難所種別":"TRUE","津波災害種別":"FALSE","風水害種別":"TRUE","地震種別":"TRUE","避難所の備蓄品":0,"収容可能人数":"19,122","避難所、避難場所情報":"屋内・屋外、トイレ・シャワー・給食設備・冷暖房・障がい者用トイレ"}},{"type":"Feature","geometry":{"type":"Point","coordinates":[140.5661095,39.3197696]},"properties":{"name":"女性センター","フリガナ":"ジョセイセンター","郵便番号":"013-0018","address":"秋田県横手市本町3-30","tel":"0182-33-3995","広域避難所種別":"TRUE","一時避難所種別":"TRUE","津波災害種別":"FALSE","風水害種別":"TRUE","地震種別":"TRUE","避難所の備蓄品":0,"収容可能人数":"341","避難所、避難場所情報":"屋内、トイレ・給食設備・冷暖房"}},{"type":"Feature","geometry":{"type":"Point","coordinates":[140.560958,39.3235662]},"properties":{"name":"あさくら館","フリガナ":"アサクラカン","郵便番号":"013-0028","address":"秋田県横手市朝倉町6-38","tel":"0182-35-2138","広域避難所種別":"TRUE","一時避難所種別":"TRUE","津波災害種別":"FALSE","風水害種別":"TRUE","地震種別":"TRUE","避難所の備蓄品":0,"収容可能人数":"1,108","避難所、避難場所情報":"屋内、トイレ・給食設備・冷暖房・障がい者用トイレ"}},{"type":"Feature","geometry":{"type":"Point","coordinates":[140.5576355,39.2762382]},"properties":{"name":"さかえ館","フリガナ":"サカエカン","郵便番号":"013-0051","address":"秋田県横手市大屋新町字堂ﾉ前32-1","tel":"0182-33-5320","広域避難所種別":"TRUE","一時避難所種別":"TRUE","津波災害種別":"FALSE","風水害種別":"TRUE","地震種別":"TRUE","避難所の備蓄品":0,"収容可能人数":"585","避難所、避難場所情報":"屋内、トイレ・給食設備・冷暖房・障がい者用トイレ"}},{"type":"Feature","geometry":{"type":"Point","coordinates":[140.5216199,39.3169524]},"properties":{"name":"旭ふれあい館","フリガナ":"アサヒフレアイカン","郵便番号":"013-0065","address":"秋田県横手市猪岡字水上91-2","tel":"0182-36-1100","広域避難所種別":"TRUE","一時避難所種別":"TRUE","津波災害種別":"FALSE","風水害種別":"TRUE","地震種別":"TRUE","避難所の備蓄品":0,"収容可能人数":"2,443","避難所、避難場所情報":"屋内・屋外、トイレ・給食設備・冷暖房"}},{"type":"Feature","geometry":{"type":"Point","coordinates":[140.5274655,39.3426492]},"properties":{"name":"ふるさと館","フリガナ":"フルサトカン","郵便番号":"013-0821","address":"秋田県横手市上境字谷地中144-1","tel":"0182-36-1200","広域避難所種別":"TRUE","一時避難所種別":"TRUE","津波災害種別":"FALSE","風水害種別":"TRUE","地震種別":"TRUE","避難所の備蓄品":0,"収容可能人数":"433","避難所、避難場所情報":"屋内、トイレ・給食設備・冷暖房・障がい者用トイレ"}},{"type":"Feature","geometry":{"type":"Point","coordinates":[140.5012923,39.3642647]},"properties":{"name":"オアシス館","フリガナ":"オアシスカン","郵便番号":"013-0826","address":"秋田県横手市黒川字館西619","tel":"0182-38-2111","広域避難所種別":"TRUE","一時避難所種別":"TRUE","津波災害種別":"FALSE","風水害種別":"TRUE","地震種別":"TRUE","避難所の備蓄品":0,"収容可能人数":"401","避難所、避難場所情報":"屋内、トイレ・シャワー・給食設備・冷暖房・障がい者用トイレ"}},{"type":"Feature","geometry":{"type":"Point","coordinates":[140.5741256,39.3776707]},"properties":{"name":"金沢公民館","フリガナ":"カネザワコウミンカン","郵便番号":"013-0812","address":"秋田県横手市金沢本町字本町27","tel":"0182-37-2111","広域避難所種別":"TRUE","一時避難所種別":"TRUE","津波災害種別":"FALSE","風水害種別":"TRUE","地震種別":"TRUE","避難所の備蓄品":0,"収容可能人数":"247","避難所、避難場所情報":"屋内、トイレ・給食設備・冷暖房"}},{"type":"Feature","geometry":{"type":"Point","coordinates":[140.5523009,39.3129396]},"properties":{"name":"横手体育館","フリガナ":"ヨコテタイイクカン","郵便番号":"013-0060","address":"秋田県横手市条里二丁目2-40","tel":"0182-33-2102","広域避難所種別":"TRUE","一時避難所種別":"TRUE","津波災害種別":"FALSE","風水害種別":"TRUE","地震種別":"TRUE","避難所の備蓄品":0,"収容可能人数":"2,260","避難所、避難場所情報":"屋内、トイレ・シャワー・冷暖房・障がい者用トイレ"}},{"type":"Feature","geometry":{"type":"Point","coordinates":[140.5684463,39.3040248]},"properties":{"name":"横手市民会館","フリガナ":"ヨコテシミンカイカン","郵便番号":"013-0045","address":"秋田県横手市南町13-1","tel":"0182-32-3136","広域避難所種別":"TRUE","一時避難所種別":"TRUE","津波災害種別":"FALSE","風水害種別":"TRUE","地震種別":"TRUE","避難所の備蓄品":0,"収容可能人数":"4,744","避難所、避難場所情報":"屋内・屋外、トイレ・給食設備・冷暖房・障がい者用トイレ"}},{"type":"Feature","geometry":{"type":"Point","coordinates":[140.5636583,39.3045134]},"properties":{"name":"横手保健センター","フリガナ":"ヨコテホケンセンター","郵便番号":"013-0044","address":"秋田県横手市横山町1-1","tel":"0182-33-9600","広域避難所種別":"TRUE","一時避難所種別":"TRUE","津波災害種別":"FALSE","風水害種別":"TRUE","地震種別":"TRUE","避難所の備蓄品":0,"収容可能人数":"191","避難所、避難場所情報":"屋内、トイレ・冷暖房・障がい者用トイレ"}},{"type":"Feature","geometry":{"type":"Point","coordinates":[140.551816,39.3007135]},"properties":{"name":"横手防災センター","フリガナ":"ヨコテボウサイセンター","郵便番号":"013-0063","address":"秋田県横手市婦気大堤字婦気前197-1","tel":"0182-32-5866","広域避難所種別":"TRUE","一時避難所種別":"TRUE","津波災害種別":"FALSE","風水害種別":"TRUE","地震種別":"TRUE","避難所の備蓄品":0,"収容可能人数":"249","避難所、避難場所情報":"屋内、トイレ・給食設備・冷暖房"}},{"type":"Feature","geometry":{"type":"Point","coordinates":[140.5845156,39.3067887]},"properties":{"name":"横手清陵学院高等学校","フリガナ":"ヨコテセイリョウガクインコウトウガッコウ","郵便番号":"013-0041","address":"秋田県横手市大沢字前田147-1","tel":"0182-35-4033","広域避難所種別":"TRUE","一時避難所種別":"TRUE","津波災害種別":"FALSE","風水害種別":"TRUE","地震種別":"TRUE","避難所の備蓄品":0,"収容可能人数":"54,013","避難所、避難場所情報":"屋内・屋外、トイレ・シャワー・給食設備・冷暖房・障がい者用トイレ"}},{"type":"Feature","geometry":{"type":"Point","coordinates":[140.5520844,39.3119426]},"properties":{"name":"高齢者センター","フリガナ":"コウレイシャセンター","郵便番号":"013-0060","address":"秋田県横手市条里二丁目2-52","tel":"0182-33-2002","広域避難所種別":"TRUE","一時避難所種別":"TRUE","津波災害種別":"FALSE","風水害種別":"TRUE","地震種別":"TRUE","避難所の備蓄品":0,"収容可能人数":"446","避難所、避難場所情報":"屋内、トイレ・シャワー・給食設備・冷暖房・障がい者用トイレ"}},{"type":"Feature","geometry":{"type":"Point","coordinates":[140.5316757,39.2976716]},"properties":{"name":"横手養護学校","フリガナ":"ヨコテヨウゴガッコウ","郵便番号":"013-0064","address":"秋田県横手市赤坂字仁坂105-1","tel":"0182-33-4166","広域避難所種別":"TRUE","一時避難所種別":"TRUE","津波災害種別":"FALSE","風水害種別":"TRUE","地震種別":"TRUE","避難所の備蓄品":0,"収容可能人数":"23,286","避難所、避難場所情報":"屋内・屋外、トイレ・シャワー・冷暖房・障がい者用トイレ"}},{"type":"Feature","geometry":{"type":"Point","coordinates":[140.555589,39.3630088]},"properties":{"name":"立馬郊グラウンド","フリガナ":"リツバコウグラウンド","郵便番号":"013-0814","address":"秋田県横手市金沢中野字三貫堰645-1","tel":"-","広域避難所種別":"TRUE","一時避難所種別":"TRUE","津波災害種別":"FALSE","風水害種別":"FALSE","地震種別":"TRUE","避難所の備蓄品":0,"収容可能人数":"5,200","避難所、避難場所情報":"屋外、トイレ"}},{"type":"Feature","geometry":{"type":"Point","coordinates":[140.5681852,39.304683]},"properties":{"name":"記念公園運動広場","フリガナ":"キネンコウエンウンドウヒロバ","郵便番号":"013-0045","address":"秋田県横手市南町13","tel":"0182-33-2102","広域避難所種別":"TRUE","一時避難所種別":"TRUE","津波災害種別":"FALSE","風水害種別":"FALSE","地震種別":"TRUE","避難所の備蓄品":0,"収容可能人数":"7,500","避難所、避難場所情報":"屋外、トイレ"}},{"type":"Feature","geometry":{"type":"Point","coordinates":[140.566723,39.3113552]},"properties":{"name":"花端木児童公園","フリガナ":"ハナミズキジドウコウエン","郵便番号":"013-0038","address":"秋田県横手市前郷一番町760","tel":"-","広域避難所種別":"TRUE","一時避難所種別":"TRUE","津波災害種別":"FALSE","風水害種別":"FALSE","地震種別":"TRUE","避難所の備蓄品":0,"収容可能人数":"1,450","避難所、避難場所情報":"屋外、トイレ"}},{"type":"Feature","geometry":{"type":"Point","coordinates":[140.572122,39.3072518]},"properties":{"name":"三井寺児童公園","フリガナ":"ミイデラジドウコウエン","郵便番号":"013-0045","address":"秋田県横手市南町849","tel":"-","広域避難所種別":"TRUE","一時避難所種別":"TRUE","津波災害種別":"FALSE","風水害種別":"FALSE","地震種別":"TRUE","避難所の備蓄品":0,"収容可能人数":"1,500","避難所、避難場所情報":"屋外、トイレ・障がい者用トイレ"}},{"type":"Feature","geometry":{"type":"Point","coordinates":[140.560229,39.3030826]},"properties":{"name":"駅南児童公園","フリガナ":"エキミナミジドウコウエン","郵便番号":"013-0062","address":"秋田県横手市駅南一丁目35","tel":"-","広域避難所種別":"TRUE","一時避難所種別":"TRUE","津波災害種別":"FALSE","風水害種別":"FALSE","地震種別":"TRUE","避難所の備蓄品":0,"収容可能人数":"1,950","避難所、避難場所情報":"屋外、トイレ"}},{"type":"Feature","geometry":{"type":"Point","coordinates":[140.575724,39.3099584]},"properties":{"name":"本郷第一公園","フリガナ":"ホンゴウダイイチコウエン","郵便番号":"013-0033","address":"秋田県横手市旭川一丁目6","tel":"-","広域避難所種別":"TRUE","一時避難所種別":"TRUE","津波災害種別":"FALSE","風水害種別":"FALSE","地震種別":"TRUE","避難所の備蓄品":0,"収容可能人数":"3,000","避難所、避難場所情報":"屋外、トイレ"}},{"type":"Feature","geometry":{"type":"Point","coordinates":[140.578923,39.308068]},"properties":{"name":"本郷第二公園","フリガナ":"ホンゴウダイニコウエン","郵便番号":"013-0033","address":"秋田県横手市旭川二丁目44","tel":"-","広域避難所種別":"TRUE","一時避難所種別":"TRUE","津波災害種別":"FALSE","風水害種別":"FALSE","地震種別":"TRUE","避難所の備蓄品":0,"収容可能人数":"1,500","避難所、避難場所情報":"屋外、トイレ"}},{"type":"Feature","geometry":{"type":"Point","coordinates":[140.570832,39.3080264]},"properties":{"name":"水上児童公園","フリガナ":"ミズカミジドウコウエン","郵便番号":"013-0035","address":"秋田県横手市平和町485","tel":"-","広域避難所種別":"TRUE","一時避難所種別":"TRUE","津波災害種別":"FALSE","風水害種別":"FALSE","地震種別":"TRUE","避難所の備蓄品":0,"収容可能人数":"1,050","避難所、避難場所情報":"屋外、トイレ"}},{"type":"Feature","geometry":{"type":"Point","coordinates":[140.570593,39.3107613]},"properties":{"name":"清川児童公園","フリガナ":"キヨカワジドウコウエン","郵便番号":"013-0032","address":"秋田県横手市清川町112","tel":"-","広域避難所種別":"TRUE","一時避難所種別":"TRUE","津波災害種別":"FALSE","風水害種別":"FALSE","地震種別":"TRUE","避難所の備蓄品":0,"収容可能人数":"800","避難所、避難場所情報":"屋外、トイレ・障がい者用トイレ"}},{"type":"Feature","geometry":{"type":"Point","coordinates":[140.572622,39.3336666]},"properties":{"name":"追廻第一児童公園","フリガナ":"オイマワシダイイチジドウコウエン","郵便番号":"013-0002","address":"秋田県横手市追廻三丁目27","tel":"-","広域避難所種別":"TRUE","一時避難所種別":"TRUE","津波災害種別":"FALSE","風水害種別":"FALSE","地震種別":"TRUE","避難所の備蓄品":0,"収容可能人数":"1,750","避難所、避難場所情報":"屋外、トイレ"}},{"type":"Feature","geometry":{"type":"Point","coordinates":[140.569023,39.3334656]},"properties":{"name":"追廻第二児童公園","フリガナ":"オイマワシダイニジドウコウエン","郵便番号":"013-0002","address":"秋田県横手市追廻一丁目56","tel":"-","広域避難所種別":"TRUE","一時避難所種別":"TRUE","津波災害種別":"FALSE","風水害種別":"FALSE","地震種別":"TRUE","避難所の備蓄品":0,"収容可能人数":"1,200","避難所、避難場所情報":"屋外、トイレ"}},{"type":"Feature","geometry":{"type":"Point","coordinates":[140.537596,39.2960678]},"properties":{"name":"西山児童公園","フリガナ":"ニシヤマジドウコウエン","郵便番号":"013-0055","address":"秋田県横手市朝日が丘三丁目423","tel":"-","広域避難所種別":"TRUE","一時避難所種別":"TRUE","津波災害種別":"FALSE","風水害種別":"FALSE","地震種別":"TRUE","避難所の備蓄品":0,"収容可能人数":"750","避難所、避難場所情報":"屋外"}},{"type":"Feature","geometry":{"type":"Point","coordinates":[140.540479,39.2974014]},"properties":{"name":"荒沼児童公園","フリガナ":"アラヌマジドウコウエン","郵便番号":"013-0055","address":"秋田県横手市朝日が丘二丁目422","tel":"-","広域避難所種別":"TRUE","一時避難所種別":"TRUE","津波災害種別":"FALSE","風水害種別":"FALSE","地震種別":"TRUE","避難所の備蓄品":0,"収容可能人数":"500","避難所、避難場所情報":"屋外"}},{"type":"Feature","geometry":{"type":"Point","coordinates":[140.5622093,39.2977475]},"properties":{"name":"八王寺公園","フリガナ":"ハチオウジコウエン","郵便番号":"013-0043","address":"秋田県横手市安田字柳堤3-1","tel":"-","広域避難所種別":"TRUE","一時避難所種別":"TRUE","津波災害種別":"FALSE","風水害種別":"FALSE","地震種別":"TRUE","避難所の備蓄品":0,"収容可能人数":"9,000","避難所、避難場所情報":"屋外、トイレ"}},{"type":"Feature","geometry":{"type":"Point","coordinates":[140.564685,39.3274483]},"properties":{"name":"大鳥公園","フリガナ":"オオトリコウエン","郵便番号":"013-0006","address":"秋田県横手市新坂町132-1","tel":"0182-33-2102","広域避難所種別":"TRUE","一時避難所種別":"TRUE","津波災害種別":"FALSE","風水害種別":"FALSE","地震種別":"TRUE","避難所の備蓄品":0,"収容可能人数":"8,100","避難所、避難場所情報":"屋外、トイレ・シャワー"}},{"type":"Feature","geometry":{"type":"Point","coordinates":[140.569214,39.3210443]},"properties":{"name":"横手公園","フリガナ":"ヨコテコウエン","郵便番号":"013-0008","address":"秋田県横手市睦成字城付1-4","tel":"0182-33-2102","広域避難所種別":"TRUE","一時避難所種別":"TRUE","津波災害種別":"FALSE","風水害種別":"FALSE","地震種別":"TRUE","避難所の備蓄品":0,"収容可能人数":"18,500","避難所、避難場所情報":"屋外、トイレ・障がい者用トイレ"}},{"type":"Feature","geometry":{"type":"Point","coordinates":[140.54371,39.296727]},"properties":{"name":"赤坂総合公園","フリガナ":"アカサカソウゴウコウエン","郵便番号":"013-0064","address":"秋田県横手市赤坂字大沼沢2-9","tel":"0182-35-8989","広域避難所種別":"TRUE","一時避難所種別":"TRUE","津波災害種別":"FALSE","風水害種別":"FALSE","地震種別":"TRUE","避難所の備蓄品":0,"収容可能人数":"13,280","避難所、避難場所情報":"屋外、トイレ・シャワー・障がい者用トイレ"}},{"type":"Feature","geometry":{"type":"Point","coordinates":[140.559215,39.3153044]},"properties":{"name":"梅ノ木街区公園","フリガナ":"ウメノキガイクコウエン","郵便番号":"013-0068","address":"秋田県横手市梅の木町711","tel":"-","広域避難所種別":"TRUE","一時避難所種別":"TRUE","津波災害種別":"FALSE","風水害種別":"FALSE","地震種別":"TRUE","避難所の備蓄品":0,"収容可能人数":"2,100","避難所、避難場所情報":"屋外、トイレ・障がい者用トイレ"}},{"type":"Feature","geometry":{"type":"Point","coordinates":[140.5646995,39.3074603]},"properties":{"name":"県立衛生看護学院","フリガナ":"ケンリツエイセイカンゴガクイン","郵便番号":"013-0037","address":"秋田県横手市前郷二番町10-2","tel":"0182-23-5011","広域避難所種別":"TRUE","一時避難所種別":"TRUE","津波災害種別":"FALSE","風水害種別":"TRUE","地震種別":"TRUE","避難所の備蓄品":0,"収容可能人数":"6,237","避難所、避難場所情報":"屋内・屋外、トイレ・給食設備・冷暖房・障がい者用トイレ"}},{"type":"Feature","geometry":{"type":"Point","coordinates":[140.5648161,39.3081713]},"properties":{"name":"横手高等学校青雲館","フリガナ":"ヨコテコウトウガッコウセイウンカン","郵便番号":"013-0037","address":"秋田県横手市前郷二番町10-1","tel":"0182-32-2011","広域避難所種別":"TRUE","一時避難所種別":"TRUE","津波災害種別":"FALSE","風水害種別":"TRUE","地震種別":"TRUE","避難所の備蓄品":0,"収容可能人数":"5,168","避難所、避難場所情報":"屋内・屋外、トイレ・給食設備・冷暖房・障がい者用トイレ"}},{"type":"Feature","geometry":{"type":"Point","coordinates":[140.5423885,39.2022186]},"properties":{"name":"増田小学校","フリガナ":"マスダショウガッコウ","郵便番号":"019-0701","address":"秋田県横手市増田町増田字土肥館141","tel":"0182-45-2014","広域避難所種別":"TRUE","一時避難所種別":"TRUE","津波災害種別":"FALSE","風水害種別":"TRUE","地震種別":"TRUE","避難所の備蓄品":0,"収容可能人数":"14,574","避難所、避難場所情報":"屋内・屋外、トイレ・給食設備・冷暖房"}},{"type":"Feature","geometry":{"type":"Point","coordinates":[140.5752673,39.2039549]},"properties":{"name":"西成瀬地域センター","フリガナ":"ニシナルセチイキセンター","郵便番号":"019-0711","address":"秋田県横手市増田町荻袋字真当72","tel":"0182-45-2657","広域避難所種別":"TRUE","一時避難所種別":"TRUE","津波災害種別":"FALSE","風水害種別":"TRUE","地震種別":"TRUE","避難所の備蓄品":0,"収容可能人数":"5,611","避難所、避難場所情報":"屋内・屋外、トイレ・給食設備・冷暖房"}},{"type":"Feature","geometry":{"type":"Point","coordinates":[140.5616998,39.2155313]},"properties":{"name":"亀田地域センター","フリガナ":"カメダチイキセンター","郵便番号":"019-0702","address":"秋田県横手市増田町亀田字半助村70","tel":"0182-45-2321","広域避難所種別":"TRUE","一時避難所種別":"TRUE","津波災害種別":"FALSE","風水害種別":"TRUE","地震種別":"TRUE","避難所の備蓄品":0,"収容可能人数":"4,904","避難所、避難場所情報":"屋内・屋外、トイレ・給食設備・冷暖房"}},{"type":"Feature","geometry":{"type":"Point","coordinates":[140.6218955,39.1640978]},"properties":{"name":"狙半内地域センター","フリガナ":"サルハンナイチイキセンター","郵便番号":"019-0705","address":"秋田県横手市増田町狙半内字七曲下101","tel":"0182-45-9020","広域避難所種別":"TRUE","一時避難所種別":"TRUE","津波災害種別":"FALSE","風水害種別":"TRUE","地震種別":"TRUE","避難所の備蓄品":0,"収容可能人数":"5,638","避難所、避難場所情報":"屋内・屋外、トイレ・給食設備・冷暖房"}},{"type":"Feature","geometry":{"type":"Point","coordinates":[140.5567395,39.2023356]},"properties":{"name":"増田中学校","フリガナ":"マスダチュウガッコウ","郵便番号":"019-0701","address":"秋田県横手市増田町増田字若松27","tel":"0182-45-2350","広域避難所種別":"TRUE","一時避難所種別":"TRUE","津波災害種別":"FALSE","風水害種別":"TRUE","地震種別":"TRUE","避難所の備蓄品":0,"収容可能人数":"11,099","避難所、避難場所情報":"屋内・屋外、トイレ・給食設備・冷暖房"}},{"type":"Feature","geometry":{"type":"Point","coordinates":[140.5584975,39.2028244]},"properties":{"name":"増田体育館","フリガナ":"マスダタイイクカン","郵便番号":"019-0701","address":"秋田県横手市増田町増田字若松44-4","tel":"0182-45-3660","広域避難所種別":"TRUE","一時避難所種別":"TRUE","津波災害種別":"FALSE","風水害種別":"TRUE","地震種別":"TRUE","避難所の備蓄品":0,"収容可能人数":"7,141","避難所、避難場所情報":"屋内・屋外、トイレ・シャワー・冷暖房・障がい者用トイレ"}},{"type":"Feature","geometry":{"type":"Point","coordinates":[140.5335253,39.2119729]},"properties":{"name":"増田高等学校","フリガナ":"マスダコウトウガッコウ","郵便番号":"019-0701","address":"秋田県横手市増田町増田字一本柳137","tel":"0182-45-2073","広域避難所種別":"TRUE","一時避難所種別":"TRUE","津波災害種別":"FALSE","風水害種別":"TRUE","地震種別":"TRUE","避難所の備蓄品":0,"収容可能人数":"19,882","避難所、避難場所情報":"屋内・屋外、トイレ・シャワー・冷暖房・障がい者用トイレ"}},{"type":"Feature","geometry":{"type":"Point","coordinates":[140.6471066,39.1238335]},"properties":{"name":"増田緑地管理センター（ゆーらく）","フリガナ":"マスダリョクチカンリセンター（ユーラク）","郵便番号":"019-0705","address":"秋田県横手市増田町狙半内字古家沢口1-2","tel":"0182-45-9001","広域避難所種別":"TRUE","一時避難所種別":"TRUE","津波災害種別":"FALSE","風水害種別":"TRUE","地震種別":"TRUE","避難所の備蓄品":0,"収容可能人数":"2,242","避難所、避難場所情報":"屋内・屋外、トイレ・シャワー・給食設備・冷暖房"}},{"type":"Feature","geometry":{"type":"Point","coordinates":[140.6482676,39.1234336]},"properties":{"name":"上畑温泉さわらび","フリガナ":"カミハタオンセンサワラビ","郵便番号":"019-0705","address":"秋田県横手市増田町狙半内字古家沢口15","tel":"0182-55-5050","広域避難所種別":"TRUE","一時避難所種別":"TRUE","津波災害種別":"FALSE","風水害種別":"TRUE","地震種別":"TRUE","避難所の備蓄品":0,"収容可能人数":"5,716","避難所、避難場所情報":"屋内・屋外、トイレ・シャワー・給食設備・冷暖房・障がい者用トイレ"}},{"type":"Feature","geometry":{"type":"Point","coordinates":[140.5585725,39.2023384]},"properties":{"name":"増田野球場","フリガナ":"マスダヤキュウジョウ","郵便番号":"019-0701","address":"秋田県横手市増田町増田字若松106","tel":"0182-45-3660","広域避難所種別":"TRUE","一時避難所種別":"TRUE","津波災害種別":"FALSE","風水害種別":"FALSE","地震種別":"TRUE","避難所の備蓄品":0,"収容可能人数":"4,250","避難所、避難場所情報":"屋外、トイレ"}},{"type":"Feature","geometry":{"type":"Point","coordinates":[140.4786989,39.2629602]},"properties":{"name":"浅舞小学校","フリガナ":"アサマイショウガッコウ","郵便番号":"013-0105","address":"秋田県横手市平鹿町浅舞字八幡小路18","tel":"0182-24-1140","広域避難所種別":"TRUE","一時避難所種別":"TRUE","津波災害種別":"FALSE","風水害種別":"TRUE","地震種別":"TRUE","避難所の備蓄品":0,"収容可能人数":"10,450","避難所、避難場所情報":"屋内・屋外、トイレ・給食設備・冷暖房"}},{"type":"Feature","geometry":{"type":"Point","coordinates":[140.4666218,39.289268]},"properties":{"name":"浅舞公民館蛭野分館","フリガナ":"アサマイコウミンカンヒルノブンカン","郵便番号":"013-0105","address":"秋田県横手市平鹿町浅舞字釜池175","tel":"0182-24-0027","広域避難所種別":"TRUE","一時避難所種別":"TRUE","津波災害種別":"FALSE","風水害種別":"TRUE","地震種別":"TRUE","避難所の備蓄品":0,"収容可能人数":"5,577","避難所、避難場所情報":"屋内・屋外、トイレ・給食設備・冷暖房"}},{"type":"Feature","geometry":{"type":"Point","coordinates":[140.488954,39.2601005]},"properties":{"name":"浅舞スポーツセンター","フリガナ":"アサマイスポーツセンター","郵便番号":"013-0105","address":"秋田県横手市平鹿町浅舞字野々助80-2","tel":"0182-24-1314","広域避難所種別":"TRUE","一時避難所種別":"TRUE","津波災害種別":"FALSE","風水害種別":"TRUE","地震種別":"TRUE","避難所の備蓄品":0,"収容可能人数":"12,335","避難所、避難場所情報":"屋内・屋外、トイレ・冷暖房"}},{"type":"Feature","geometry":{"type":"Point","coordinates":[140.4929445,39.2612108]},"properties":{"name":"福祉保健センター（平鹿町ゆとり館）","フリガナ":"フクシホケンセンター（ヒラカマチユトリカン）","郵便番号":"013-0105","address":"秋田県横手市平鹿町浅舞字蒋沼289","tel":"0182-24-0007","広域避難所種別":"TRUE","一時避難所種別":"TRUE","津波災害種別":"FALSE","風水害種別":"TRUE","地震種別":"TRUE","避難所の備蓄品":0,"収容可能人数":"177","避難所、避難場所情報":"屋内、トイレ・シャワー・冷暖房・障がい者用トイレ"}},{"type":"Feature","geometry":{"type":"Point","coordinates":[140.4922529,39.263255]},"properties":{"name":"浅舞公民館","フリガナ":"アサマイコウミンカン","郵便番号":"013-0105","address":"秋田県横手市平鹿町浅舞字覚町後140","tel":"0182-24-1340","広域避難所種別":"TRUE","一時避難所種別":"TRUE","津波災害種別":"FALSE","風水害種別":"TRUE","地震種別":"TRUE","避難所の備蓄品":0,"収容可能人数":"362","避難所、避難場所情報":"屋内、トイレ・給食設備・冷暖房・障がい者用トイレ"}},{"type":"Feature","geometry":{"type":"Point","coordinates":[140.4917391,39.262594]},"properties":{"name":"平鹿体育館","フリガナ":"ヒラカタイイクカン","郵便番号":"013-0105","address":"秋田県横手市平鹿町浅舞字覚町後131-2","tel":"0182-24-3944","広域避難所種別":"TRUE","一時避難所種別":"TRUE","津波災害種別":"FALSE","風水害種別":"TRUE","地震種別":"TRUE","避難所の備蓄品":0,"収容可能人数":"922","避難所、避難場所情報":"屋内、トイレ・冷暖房・障がい者用トイレ"}},{"type":"Feature","geometry":{"type":"Point","coordinates":[140.4920918,39.2620357]},"properties":{"name":"平鹿就業改善センター","フリガナ":"ヒラカシュウギョウカイゼンセンター","郵便番号":"013-0105","address":"秋田県横手市平鹿町浅舞字蒋沼313","tel":"0182-24-0711","広域避難所種別":"TRUE","一時避難所種別":"TRUE","津波災害種別":"FALSE","風水害種別":"TRUE","地震種別":"TRUE","避難所の備蓄品":0,"収容可能人数":"112","避難所、避難場所情報":"屋内、トイレ・冷暖房"}},{"type":"Feature","geometry":{"type":"Point","coordinates":[140.4936612,39.260697]},"properties":{"name":"農村体験学習施設「アイリスハウス」","フリガナ":"ノウソンタイケンガクシュウシセツ「アイリスハウス」","郵便番号":"013-0105","address":"秋田県横手市平鹿町浅舞字蒋沼291","tel":"0182-24-3155","広域避難所種別":"TRUE","一時避難所種別":"TRUE","津波災害種別":"FALSE","風水害種別":"TRUE","地震種別":"TRUE","避難所の備蓄品":0,"収容可能人数":"377","避難所、避難場所情報":"屋内、トイレ・シャワー"}},{"type":"Feature","geometry":{"type":"Point","coordinates":[140.4820655,39.2505586]},"properties":{"name":"下鍋倉地区農村集落多目的共同利用施設","フリガナ":"シモナベクラチクノウソンシュウラクタモクテキキョウドウリヨウシセツ","郵便番号":"013-0103","address":"秋田県横手市平鹿町下鍋倉字下糸畑原229","tel":"0182-24-3426","広域避難所種別":"TRUE","一時避難所種別":"TRUE","津波災害種別":"FALSE","風水害種別":"TRUE","地震種別":"TRUE","避難所の備蓄品":0,"収容可能人数":"82","避難所、避難場所情報":"屋内、トイレ・給食設備"}},{"type":"Feature","geometry":{"type":"Point","coordinates":[140.5026325,39.2611917]},"properties":{"name":"平鹿中学校","フリガナ":"ヒラカチュウガッコウ","郵便番号":"013-0105","address":"秋田県横手市平鹿町浅舞字一関向3-1","tel":"0182-24-0075","広域避難所種別":"TRUE","一時避難所種別":"TRUE","津波災害種別":"FALSE","風水害種別":"TRUE","地震種別":"TRUE","避難所の備蓄品":0,"収容可能人数":"16,332","避難所、避難場所情報":"屋内・屋外、トイレ・給食設備・冷暖房・障がい者用トイレ"}},{"type":"Feature","geometry":{"type":"Point","coordinates":[140.5134584,39.2836534]},"properties":{"name":"平成高等学校","フリガナ":"ヘイセイコウトウガッコウ","郵便番号":"013-0101","address":"秋田県横手市平鹿町上吉田字角掛60","tel":"0182-24-1195","広域避難所種別":"TRUE","一時避難所種別":"TRUE","津波災害種別":"FALSE","風水害種別":"TRUE","地震種別":"TRUE","避難所の備蓄品":0,"収容可能人数":"22,771","避難所、避難場所情報":"屋内・屋外、トイレ・シャワー・冷暖房・障がい者用トイレ"}},{"type":"Feature","geometry":{"type":"Point","coordinates":[140.500751,39.2930852]},"properties":{"name":"吉田小学校","フリガナ":"ヨシダショウガッコウ","郵便番号":"013-0101","address":"秋田県横手市平鹿町上吉田字大道88-3","tel":"0182-24-1160","広域避難所種別":"TRUE","一時避難所種別":"TRUE","津波災害種別":"FALSE","風水害種別":"TRUE","地震種別":"TRUE","避難所の備蓄品":0,"収容可能人数":"5,197","避難所、避難場所情報":"屋内・屋外、トイレ・給食設備・冷暖房"}},{"type":"Feature","geometry":{"type":"Point","coordinates":[140.506406,39.2920549]},"properties":{"name":"吉田地区生涯学習センター","フリガナ":"ヨシダチクショウガイガクシュウセンター","郵便番号":"013-0101","address":"秋田県横手市平鹿町上吉田字吉田95-3","tel":"0182-24-1131","広域避難所種別":"TRUE","一時避難所種別":"TRUE","津波災害種別":"FALSE","風水害種別":"TRUE","地震種別":"TRUE","避難所の備蓄品":0,"収容可能人数":"6,958","避難所、避難場所情報":"屋内・屋外、トイレ・給食設備・冷暖房・障がい者用トイレ"}},{"type":"Feature","geometry":{"type":"Point","coordinates":[140.504317,39.2905673]},"properties":{"name":"吉田公民館","フリガナ":"ヨシダコウミンカン","郵便番号":"013-0101","address":"秋田県横手市平鹿町上吉田字田ﾉ植87","tel":"0182-24-3565","広域避難所種別":"TRUE","一時避難所種別":"TRUE","津波災害種別":"FALSE","風水害種別":"TRUE","地震種別":"TRUE","避難所の備蓄品":0,"収容可能人数":"162","避難所、避難場所情報":"屋内、トイレ・給食設備・冷暖房"}},{"type":"Feature","geometry":{"type":"Point","coordinates":[140.5344971,39.2504659]},"properties":{"name":"醍醐小学校","フリガナ":"ダイゴショウガッコウ","郵便番号":"013-0102","address":"秋田県横手市平鹿町醍醐字大橋7","tel":"0182-25-4204","広域避難所種別":"TRUE","一時避難所種別":"TRUE","津波災害種別":"FALSE","風水害種別":"TRUE","地震種別":"TRUE","避難所の備蓄品":0,"収容可能人数":"7,392","避難所、避難場所情報":"屋内・屋外、トイレ・給食設備・冷暖房"}},{"type":"Feature","geometry":{"type":"Point","coordinates":[140.5357554,39.2525823]},"properties":{"name":"醍醐公民館","フリガナ":"ダイゴコウミンカン","郵便番号":"013-0102","address":"秋田県横手市平鹿町醍醐字四ﾂ屋76","tel":"0182-25-4001","広域避難所種別":"TRUE","一時避難所種別":"TRUE","津波災害種別":"FALSE","風水害種別":"TRUE","地震種別":"TRUE","避難所の備蓄品":0,"収容可能人数":"12,823","避難所、避難場所情報":"屋内・屋外、トイレ・給食設備・冷暖房・障がい者用トイレ"}},{"type":"Feature","geometry":{"type":"Point","coordinates":[140.5645716,39.2331238]},"properties":{"name":"平鹿ときめき交流センターゆっぷる","フリガナ":"ヒラカトキメキコウリュウセンターユップル","郵便番号":"013-0102","address":"秋田県横手市平鹿町醍醐字沢口166","tel":"0182-25-3801","広域避難所種別":"TRUE","一時避難所種別":"TRUE","津波災害種別":"FALSE","風水害種別":"TRUE","地震種別":"TRUE","避難所の備蓄品":0,"収容可能人数":"97","避難所、避難場所情報":"屋内、トイレ・シャワー・給食設備・冷暖房・障がい者用トイレ"}},{"type":"Feature","geometry":{"type":"Point","coordinates":[140.4877256,39.2605523]},"properties":{"name":"平鹿防災センター","フリガナ":"ヒラカボウサイセンター","郵便番号":"013-0105","address":"秋田県横手市平鹿町浅舞字野々助158-3","tel":"0182-24-3845","広域避難所種別":"TRUE","一時避難所種別":"TRUE","津波災害種別":"FALSE","風水害種別":"TRUE","地震種別":"TRUE","避難所の備蓄品":0,"収容可能人数":"45","避難所、避難場所情報":"屋内、トイレ・冷暖房・障がい者用トイレ"}},{"type":"Feature","geometry":{"type":"Point","coordinates":[140.4609535,39.2714394]},"properties":{"name":"樽見内地区農村総合運動公園","フリガナ":"タルミナイチクノウソンソウゴウウンドウコウエン","郵便番号":"013-0104","address":"秋田県横手市平鹿町樽見内字扇田173-2","tel":"-","広域避難所種別":"TRUE","一時避難所種別":"TRUE","津波災害種別":"FALSE","風水害種別":"FALSE","地震種別":"TRUE","避難所の備蓄品":0,"収容可能人数":"2,791","避難所、避難場所情報":"屋外、トイレ"}},{"type":"Feature","geometry":{"type":"Point","coordinates":[140.523733,39.2526236]},"properties":{"name":"下醍醐農村公園","フリガナ":"シタダイゴノウソンコウエン","郵便番号":"013-0102","address":"秋田県横手市平鹿町醍醐字醍醐東66","tel":"-","広域避難所種別":"TRUE","一時避難所種別":"TRUE","津波災害種別":"FALSE","風水害種別":"FALSE","地震種別":"TRUE","避難所の備蓄品":0,"収容可能人数":"1,674","避難所、避難場所情報":"屋外"}},{"type":"Feature","geometry":{"type":"Point","coordinates":[140.5052045,39.2600364]},"properties":{"name":"浅舞陸上競技場","フリガナ":"アサマイリクジョウキョウギジョウ","郵便番号":"013-0105","address":"秋田県横手市平鹿町浅舞字道川南19-1","tel":"-","広域避難所種別":"TRUE","一時避難所種別":"TRUE","津波災害種別":"FALSE","風水害種別":"FALSE","地震種別":"TRUE","避難所の備蓄品":0,"収容可能人数":"13,866","避難所、避難場所情報":"屋外、トイレ・障がい者用トイレ"}},{"type":"Feature","geometry":{"type":"Point","coordinates":[140.503186,39.2575554]},"properties":{"name":"十五野公園（平鹿野球場）","フリガナ":"ジュウゴノコウエン（ヒラカヤキュウジョウ）","郵便番号":"013-0105","address":"秋田県横手市平鹿町浅舞字十六石野61","tel":"0182-24-2293","広域避難所種別":"TRUE","一時避難所種別":"TRUE","津波災害種別":"FALSE","風水害種別":"FALSE","地震種別":"TRUE","避難所の備蓄品":0,"収容可能人数":"20,779","避難所、避難場所情報":"屋外、トイレ・障がい者用トイレ"}},{"type":"Feature","geometry":{"type":"Point","coordinates":[140.493504,39.2585816]},"properties":{"name":"浅舞公園","フリガナ":"アサマイコウエン","郵便番号":"013-0105","address":"秋田県横手市平鹿町浅舞字上蒋沼52外","tel":"-","広域避難所種別":"TRUE","一時避難所種別":"TRUE","津波災害種別":"FALSE","風水害種別":"FALSE","地震種別":"TRUE","避難所の備蓄品":0,"収容可能人数":"24,334","避難所、避難場所情報":"屋外、トイレ・障がい者用トイレ"}},{"type":"Feature","geometry":{"type":"Point","coordinates":[140.4258653,39.2970547]},"properties":{"name":"雄物川北小学校","フリガナ":"オモノガワキタショウガッコウ","郵便番号":"013-0208","address":"秋田県横手市雄物川町沼館字沼館182","tel":"0182-22-2144","広域避難所種別":"TRUE","一時避難所種別":"TRUE","津波災害種別":"FALSE","風水害種別":"TRUE","地震種別":"TRUE","避難所の備蓄品":0,"収容可能人数":"6,830","避難所、避難場所情報":"屋内・屋外、トイレ・給食設備・冷暖房"}},{"type":"Feature","geometry":{"type":"Point","coordinates":[140.4322148,39.2894614]},"properties":{"name":"雄物川体育館","フリガナ":"オモノガワタイイクカン","郵便番号":"013-0205","address":"秋田県横手市雄物川町今宿字前田面7","tel":"0182-22-5644","広域避難所種別":"TRUE","一時避難所種別":"TRUE","津波災害種別":"FALSE","風水害種別":"TRUE","地震種別":"TRUE","避難所の備蓄品":0,"収容可能人数":"4,252","避難所、避難場所情報":"屋内・屋外、トイレ・冷暖房・障がい者用トイレ"}},{"type":"Feature","geometry":{"type":"Point","coordinates":[140.4083062,39.2992817]},"properties":{"name":"雄物川林業者等緑地休養施設「あかまつ荘」","フリガナ":"オモノガワリンギョウシャトウリョクチキュウヨウシセツ「アカマツソウ」","郵便番号":"013-0208","address":"秋田県横手市雄物川町沼館字兵部ｹ沢42-1","tel":"-","広域避難所種別":"TRUE","一時避難所種別":"TRUE","津波災害種別":"FALSE","風水害種別":"TRUE","地震種別":"TRUE","避難所の備蓄品":0,"収容可能人数":"97","避難所、避難場所情報":"屋内、トイレ・シャワー・給食設備"}},{"type":"Feature","geometry":{"type":"Point","coordinates":[140.3816256,39.3141123]},"properties":{"name":"二井山地区児童館（旧二井山保育所）","フリガナ":"ニイヤマチクジドウカン（キュウニイヤマホイクショ）","郵便番号":"013-0206","address":"秋田県横手市雄物川町二井山字二井山153","tel":"-","広域避難所種別":"TRUE","一時避難所種別":"TRUE","津波災害種別":"FALSE","風水害種別":"TRUE","地震種別":"TRUE","避難所の備蓄品":0,"収容可能人数":"68","避難所、避難場所情報":"屋内、トイレ・冷暖房"}},{"type":"Feature","geometry":{"type":"Point","coordinates":[140.4516018,39.2737638]},"properties":{"name":"南小学校","フリガナ":"ミナミショウガッコウ","郵便番号":"013-0203","address":"秋田県横手市雄物川町東里字相川野43-2","tel":"0182-22-3204","広域避難所種別":"TRUE","一時避難所種別":"TRUE","津波災害種別":"FALSE","風水害種別":"TRUE","地震種別":"TRUE","避難所の備蓄品":0,"収容可能人数":"3,370","避難所、避難場所情報":"屋内・屋外、トイレ・給食設備・冷暖房"}},{"type":"Feature","geometry":{"type":"Point","coordinates":[140.45211,39.2735056]},"properties":{"name":"里見保育所","フリガナ":"サトミホイクショ","郵便番号":"013-0203","address":"秋田県横手市雄物川町東里字相川野43-2","tel":"0182-22-2181","広域避難所種別":"TRUE","一時避難所種別":"TRUE","津波災害種別":"FALSE","風水害種別":"TRUE","地震種別":"TRUE","避難所の備蓄品":0,"収容可能人数":"254","避難所、避難場所情報":"屋内、トイレ・シャワー・給食設備・冷暖房"}},{"type":"Feature","geometry":{"type":"Point","coordinates":[140.4323678,39.2790209]},"properties":{"name":"雄物川町老人憩いの家（和楽苑）","フリガナ":"オモノガワマチロウジンイコイノイエ（ワラクエン）","郵便番号":"013-0203","address":"秋田県横手市雄物川町東里字十三塚340","tel":"-","広域避難所種別":"TRUE","一時避難所種別":"TRUE","津波災害種別":"FALSE","風水害種別":"TRUE","地震種別":"TRUE","避難所の備蓄品":0,"収容可能人数":"111","避難所、避難場所情報":"屋内、トイレ・冷暖房"}},{"type":"Feature","geometry":{"type":"Point","coordinates":[140.4417143,39.2634063]},"properties":{"name":"のびる館（旧雄南小）","フリガナ":"ノビルカン（キュウユウナンショウ）","郵便番号":"013-0204","address":"秋田県横手市雄物川町谷地新田字堤添33-2","tel":"0182-22-5535","広域避難所種別":"TRUE","一時避難所種別":"TRUE","津波災害種別":"FALSE","風水害種別":"TRUE","地震種別":"TRUE","避難所の備蓄品":0,"収容可能人数":"2,578","避難所、避難場所情報":"屋内・屋外、トイレ・給食設備・冷暖房"}},{"type":"Feature","geometry":{"type":"Point","coordinates":[140.4115258,39.2724461]},"properties":{"name":"福地小学校","フリガナ":"フクチショウガッコウ","郵便番号":"013-0214","address":"秋田県横手市雄物川町柏木字後田7","tel":"0182-22-2132","広域避難所種別":"TRUE","一時避難所種別":"TRUE","津波災害種別":"FALSE","風水害種別":"TRUE","地震種別":"TRUE","避難所の備蓄品":0,"収容可能人数":"5,627","避難所、避難場所情報":"屋内・屋外、トイレ・給食設備・冷暖房"}},{"type":"Feature","geometry":{"type":"Point","coordinates":[140.4115258,39.2724461]},"properties":{"name":"福地保育所","フリガナ":"フクチホイクショ","郵便番号":"013-0214","address":"秋田県横手市雄物川町柏木字後田7","tel":"0182-22-3250","広域避難所種別":"TRUE","一時避難所種別":"TRUE","津波災害種別":"FALSE","風水害種別":"TRUE","地震種別":"TRUE","避難所の備蓄品":0,"収容可能人数":"227","避難所、避難場所情報":"屋内、トイレ・シャワー・冷暖房"}},{"type":"Feature","geometry":{"type":"Point","coordinates":[140.4099482,39.2714129]},"properties":{"name":"福地公民館","フリガナ":"フクチコウミンカン","郵便番号":"013-0214","address":"秋田県横手市雄物川町柏木字柏木13","tel":"0182-22-3252","広域避難所種別":"TRUE","一時避難所種別":"TRUE","津波災害種別":"FALSE","風水害種別":"TRUE","地震種別":"TRUE","避難所の備蓄品":0,"収容可能人数":"678","避難所、避難場所情報":"屋内・屋外、トイレ・給食設備・冷暖房"}},{"type":"Feature","geometry":{"type":"Point","coordinates":[140.4453538,39.3257602]},"properties":{"name":"つきの木館（旧館合小学校）","フリガナ":"ツキノキカン（キュウタテアイショウガッコウ）","郵便番号":"013-0481","address":"秋田県横手市雄物川町薄井字下小出70","tel":"0182-22-5535","広域避難所種別":"TRUE","一時避難所種別":"TRUE","津波災害種別":"FALSE","風水害種別":"TRUE","地震種別":"TRUE","避難所の備蓄品":0,"収容可能人数":"4,775","避難所、避難場所情報":"屋内・屋外、トイレ・冷暖房"}},{"type":"Feature","geometry":{"type":"Point","coordinates":[140.4453538,39.3257602]},"properties":{"name":"館合保育所","フリガナ":"タテアイホイクショ","郵便番号":"013-0481","address":"秋田県横手市雄物川町薄井字下小出70","tel":"0182-23-1510","広域避難所種別":"TRUE","一時避難所種別":"TRUE","津波災害種別":"FALSE","風水害種別":"TRUE","地震種別":"TRUE","避難所の備蓄品":0,"収容可能人数":"141","避難所、避難場所情報":"屋内、トイレ・シャワー・冷暖房"}},{"type":"Feature","geometry":{"type":"Point","coordinates":[140.3856143,39.273709]},"properties":{"name":"大沢保育所","フリガナ":"オオサワホイクショ","郵便番号":"013-0218","address":"秋田県横手市雄物川町大沢字大沢175-3","tel":"0182-22-3014","広域避難所種別":"TRUE","一時避難所種別":"TRUE","津波災害種別":"FALSE","風水害種別":"TRUE","地震種別":"TRUE","避難所の備蓄品":0,"収容可能人数":"150","避難所、避難場所情報":"屋内、トイレ・シャワー・冷暖房"}},{"type":"Feature","geometry":{"type":"Point","coordinates":[140.3859199,39.2744006]},"properties":{"name":"大沢地区農村集落多目的共同利用施設","フリガナ":"オオサワチクノウソンシュウラクタモクテキキョウドウリヨウシセツ","郵便番号":"013-0218","address":"秋田県横手市雄物川町大沢字大沢182","tel":"0182-22-2082","広域避難所種別":"TRUE","一時避難所種別":"TRUE","津波災害種別":"FALSE","風水害種別":"TRUE","地震種別":"TRUE","避難所の備蓄品":0,"収容可能人数":"145","避難所、避難場所情報":"屋内、トイレ・給食設備・冷暖房"}},{"type":"Feature","geometry":{"type":"Point","coordinates":[140.4405294,39.3244269]},"properties":{"name":"館合公民館","フリガナ":"タテアイコウミンカン","郵便番号":"013-0481","address":"秋田県横手市雄物川町薄井字薄井60","tel":"0182-23-1223","広域避難所種別":"TRUE","一時避難所種別":"TRUE","津波災害種別":"FALSE","風水害種別":"TRUE","地震種別":"TRUE","避難所の備蓄品":0,"収容可能人数":"1,336","避難所、避難場所情報":"屋内・屋外、トイレ・給食設備・冷暖房・障がい者用トイレ"}},{"type":"Feature","geometry":{"type":"Point","coordinates":[140.4321867,39.2975521]},"properties":{"name":"雄物川コミュニティセンター","フリガナ":"オモノガワコミュニティセンター","郵便番号":"013-0208","address":"秋田県横手市雄物川町沼館字高畑338","tel":"0182-22-5535","広域避難所種別":"TRUE","一時避難所種別":"TRUE","津波災害種別":"FALSE","風水害種別":"TRUE","地震種別":"TRUE","避難所の備蓄品":0,"収容可能人数":"4,834","避難所、避難場所情報":"屋内・屋外、トイレ・給食設備・冷暖房・障がい者用トイレ"}},{"type":"Feature","geometry":{"type":"Point","coordinates":[140.4485799,39.2762579]},"properties":{"name":"里見公民館","フリガナ":"サトミコウミンカン","郵便番号":"013-0203","address":"秋田県横手市雄物川町東里字東里173-2","tel":"0182-22-3201","広域避難所種別":"TRUE","一時避難所種別":"TRUE","津波災害種別":"FALSE","風水害種別":"TRUE","地震種別":"TRUE","避難所の備蓄品":0,"収容可能人数":"377","避難所、避難場所情報":"屋内・屋外、トイレ・給食設備・冷暖房・障がい者用トイレ"}},{"type":"Feature","geometry":{"type":"Point","coordinates":[140.433131,39.2816165]},"properties":{"name":"雄物川高等学校","フリガナ":"オモノガワコウトウガッコウ","郵便番号":"013-0205","address":"秋田県横手市雄物川町今宿字まみ袋125","tel":"0182-22-2103","広域避難所種別":"TRUE","一時避難所種別":"TRUE","津波災害種別":"FALSE","風水害種別":"TRUE","地震種別":"TRUE","避難所の備蓄品":0,"収容可能人数":"24,571","避難所、避難場所情報":"屋内・屋外、トイレ・シャワー・給食設備・冷暖房・障がい者用トイレ"}},{"type":"Feature","geometry":{"type":"Point","coordinates":[140.427865,39.2974492]},"properties":{"name":"沼館公民館（アスパル雄物川）","フリガナ":"ヌマダテコウミンカン（アスパルオモノガワ）","郵便番号":"013-0208","address":"秋田県横手市雄物川町沼館字沼館140-1","tel":"0182-22-3606","広域避難所種別":"TRUE","一時避難所種別":"TRUE","津波災害種別":"FALSE","風水害種別":"TRUE","地震種別":"TRUE","避難所の備蓄品":0,"収容可能人数":"363","避難所、避難場所情報":"屋内、トイレ・冷暖房・障がい者用トイレ"}},{"type":"Feature","geometry":{"type":"Point","coordinates":[140.3818978,39.3142373]},"properties":{"name":"二井山地区農村集落多目的共同利用施設","フリガナ":"ニイヤマチクノウソンシュウラクタモクテキキョウドウリヨウシセツ","郵便番号":"013-0206","address":"秋田県横手市雄物川町二井山字二井山153-4","tel":"-","広域避難所種別":"TRUE","一時避難所種別":"TRUE","津波災害種別":"FALSE","風水害種別":"TRUE","地震種別":"TRUE","避難所の備蓄品":0,"収容可能人数":"84","避難所、避難場所情報":"屋内、トイレ・冷暖房"}},{"type":"Feature","geometry":{"type":"Point","coordinates":[140.43242,39.2983492]},"properties":{"name":"雄物川中央公園","フリガナ":"オモノガワチュウオウコウエン","郵便番号":"013-0208","address":"秋田県横手市雄物川町沼館字高畑320","tel":"-","広域避難所種別":"TRUE","一時避難所種別":"TRUE","津波災害種別":"FALSE","風水害種別":"FALSE","地震種別":"TRUE","避難所の備蓄品":0,"収容可能人数":"1,925","避難所、避難場所情報":"屋外、トイレ・障がい者用トイレ"}},{"type":"Feature","geometry":{"type":"Point","coordinates":[140.4252361,39.3417047]},"properties":{"name":"大森小学校","フリガナ":"オオモリショウガッコウ","郵便番号":"013-0533","address":"秋田県横手市大森町字中田1-4","tel":"0182-26-2048","広域避難所種別":"TRUE","一時避難所種別":"TRUE","津波災害種別":"FALSE","風水害種別":"TRUE","地震種別":"TRUE","避難所の備蓄品":0,"収容可能人数":"4,474","避難所、避難場所情報":"屋内・屋外、トイレ・給食設備・冷暖房"}},{"type":"Feature","geometry":{"type":"Point","coordinates":[140.430299,39.3490185]},"properties":{"name":"旧大森中学校","フリガナ":"キュウオオモリチュウガッコウ","郵便番号":"013-0517","address":"秋田県横手市大森町字高口下水戸堤1","tel":"-","広域避難所種別":"TRUE","一時避難所種別":"TRUE","津波災害種別":"FALSE","風水害種別":"TRUE","地震種別":"TRUE","避難所の備蓄品":0,"収容可能人数":"12,859","避難所、避難場所情報":"屋内・屋外、トイレ・給食設備・冷暖房"}},{"type":"Feature","geometry":{"type":"Point","coordinates":[140.427233,39.3425685]},"properties":{"name":"大森公民館","フリガナ":"オオモリコウミンカン","郵便番号":"013-0521","address":"秋田県横手市大森町字大森145","tel":"0182-26-2342","広域避難所種別":"TRUE","一時避難所種別":"TRUE","津波災害種別":"FALSE","風水害種別":"TRUE","地震種別":"TRUE","避難所の備蓄品":0,"収容可能人数":"147","避難所、避難場所情報":"屋内、トイレ・給食設備・冷暖房"}},{"type":"Feature","geometry":{"type":"Point","coordinates":[140.4085408,39.34872]},"properties":{"name":"白山体育館","フリガナ":"ハクサンタイイクカン","郵便番号":"013-0552","address":"秋田県横手市大森町上溝字白山下72","tel":"-","広域避難所種別":"TRUE","一時避難所種別":"TRUE","津波災害種別":"FALSE","風水害種別":"TRUE","地震種別":"TRUE","避難所の備蓄品":0,"収容可能人数":"8,163","避難所、避難場所情報":"屋内・屋外、トイレ・給食設備・冷暖房"}},{"type":"Feature","geometry":{"type":"Point","coordinates":[140.3868436,39.3546605]},"properties":{"name":"八沢木公民館","フリガナ":"ヤサワギコウミンカン","郵便番号":"013-0561","address":"秋田県横手市大森町八沢木字中房29","tel":"0182-26-3250","広域避難所種別":"TRUE","一時避難所種別":"TRUE","津波災害種別":"FALSE","風水害種別":"TRUE","地震種別":"TRUE","避難所の備蓄品":0,"収容可能人数":"298","避難所、避難場所情報":"屋内、トイレ・給食設備・冷暖房"}},{"type":"Feature","geometry":{"type":"Point","coordinates":[140.3519484,39.3714308]},"properties":{"name":"前田公民館","フリガナ":"マエダコウミンカン","郵便番号":"013-0561","address":"秋田県横手市大森町八沢木字前田33-2","tel":"0182-26-6040","広域避難所種別":"TRUE","一時避難所種別":"TRUE","津波災害種別":"FALSE","風水害種別":"TRUE","地震種別":"TRUE","避難所の備蓄品":0,"収容可能人数":"100","避難所、避難場所情報":"屋内、トイレ・給食設備・冷暖房"}},{"type":"Feature","geometry":{"type":"Point","coordinates":[140.4471345,39.3728259]},"properties":{"name":"大森農村環境改善センター（川西公民館）","フリガナ":"オオモリノウソンカンキョウカイゼンセンター（カワニシコウミンカン）","郵便番号":"013-0502","address":"秋田県横手市大森町袴形字東神成309","tel":"0182-26-4150","広域避難所種別":"TRUE","一時避難所種別":"TRUE","津波災害種別":"FALSE","風水害種別":"TRUE","地震種別":"TRUE","避難所の備蓄品":0,"収容可能人数":"250","避難所、避難場所情報":"屋内、トイレ・給食設備・冷暖房"}},{"type":"Feature","geometry":{"type":"Point","coordinates":[140.2832614,39.3676357]},"properties":{"name":"坂部多目的集落集会所","フリガナ":"サカベタモクテキシュウラクシュウカイショ","郵便番号":"013-0562","address":"秋田県横手市大森町坂部字小屋ﾉ沢1-1","tel":"0182-26-6021","広域避難所種別":"TRUE","一時避難所種別":"TRUE","津波災害種別":"FALSE","風水害種別":"TRUE","地震種別":"TRUE","避難所の備蓄品":0,"収容可能人数":"170","避難所、避難場所情報":"屋内、トイレ・給食設備・冷暖房"}},{"type":"Feature","geometry":{"type":"Point","coordinates":[140.4344564,39.3553529]},"properties":{"name":"大森体育館","フリガナ":"オオモリタイイクカン","郵便番号":"013-0519","address":"秋田県横手市大森町字持向192","tel":"0182-26-4167","広域避難所種別":"TRUE","一時避難所種別":"TRUE","津波災害種別":"FALSE","風水害種別":"TRUE","地震種別":"TRUE","避難所の備蓄品":0,"収容可能人数":"1,192","避難所、避難場所情報":"屋内、トイレ・冷暖房"}},{"type":"Feature","geometry":{"type":"Point","coordinates":[140.4335656,39.3429881]},"properties":{"name":"大森コミュニティセンター","フリガナ":"オオモリコミュニティセンター","郵便番号":"013-0514","address":"秋田県横手市大森町字大中島276","tel":"0182-26-3290","広域避難所種別":"TRUE","一時避難所種別":"TRUE","津波災害種別":"FALSE","風水害種別":"TRUE","地震種別":"TRUE","避難所の備蓄品":0,"収容可能人数":"365","避難所、避難場所情報":"屋内、トイレ・冷暖房"}},{"type":"Feature","geometry":{"type":"Point","coordinates":[140.4169616,39.3514031]},"properties":{"name":"大森町高齢者等保健福祉センター","フリガナ":"オオモリマチコウレイシャトウホケンフクシセンター","郵便番号":"013-0525","address":"秋田県横手市大森町字菅生田245-206","tel":"0182-26-4030","広域避難所種別":"TRUE","一時避難所種別":"TRUE","津波災害種別":"FALSE","風水害種別":"TRUE","地震種別":"TRUE","避難所の備蓄品":0,"収容可能人数":"552","避難所、避難場所情報":"屋内、トイレ・給食設備・冷暖房"}},{"type":"Feature","geometry":{"type":"Point","coordinates":[140.3123058,39.3573788]},"properties":{"name":"保呂羽山少年自然の家","フリガナ":"ホロワサンショウネンシゼンノイエ","郵便番号":"013-0561","address":"秋田県横手市大森町八沢木字大木屋73","tel":"0182-26-6011","広域避難所種別":"TRUE","一時避難所種別":"TRUE","津波災害種別":"FALSE","風水害種別":"TRUE","地震種別":"TRUE","避難所の備蓄品":0,"収容可能人数":"2,650","避難所、避難場所情報":"屋内・屋外、トイレ・シャワー・給食設備・冷暖房・障がい者用トイレ"}},{"type":"Feature","geometry":{"type":"Point","coordinates":[140.4133819,39.3468925]},"properties":{"name":"大森町生きがい交流広場","フリガナ":"オオモリマチイキガイコウリュウヒロバ","郵便番号":"013-0552","address":"秋田県横手市大森町上溝字白山下16-1","tel":"-","広域避難所種別":"TRUE","一時避難所種別":"TRUE","津波災害種別":"FALSE","風水害種別":"FALSE","地震種別":"TRUE","避難所の備蓄品":0,"収容可能人数":"4,682","避難所、避難場所情報":"屋外、トイレ"}},{"type":"Feature","geometry":{"type":"Point","coordinates":[140.399512,39.3461306]},"properties":{"name":"山村広場","フリガナ":"サンソンヒロバ","郵便番号":"013-0552","address":"秋田県横手市大森町上溝字観音寺361","tel":"-","広域避難所種別":"TRUE","一時避難所種別":"TRUE","津波災害種別":"FALSE","風水害種別":"FALSE","地震種別":"TRUE","避難所の備蓄品":0,"収容可能人数":"4,915","避難所、避難場所情報":"屋外、トイレ"}},{"type":"Feature","geometry":{"type":"Point","coordinates":[140.3868436,39.3546605]},"properties":{"name":"中房農村公園","フリガナ":"ナカボウノウソンコウエン","郵便番号":"013-0561","address":"秋田県横手市大森町八沢木字中房29-1","tel":"-","広域避難所種別":"TRUE","一時避難所種別":"TRUE","津波災害種別":"FALSE","風水害種別":"FALSE","地震種別":"TRUE","避難所の備蓄品":0,"収容可能人数":"1,479","避難所、避難場所情報":"屋外、トイレ"}},{"type":"Feature","geometry":{"type":"Point","coordinates":[140.3539873,39.3703365]},"properties":{"name":"大森前田運動場","フリガナ":"オオモリマエダウンドウジョウ","郵便番号":"013-0561","address":"秋田県横手市大森町八沢木字前田100","tel":"-","広域避難所種別":"TRUE","一時避難所種別":"TRUE","津波災害種別":"FALSE","風水害種別":"FALSE","地震種別":"TRUE","避難所の備蓄品":0,"収容可能人数":"4,143","避難所、避難場所情報":"屋外、トイレ"}},{"type":"Feature","geometry":{"type":"Point","coordinates":[140.2832614,39.3676357]},"properties":{"name":"坂部農村公園","フリガナ":"サカベノウソンコウエン","郵便番号":"013-0562","address":"秋田県横手市大森町坂部字小屋ﾉ沢1-1","tel":"-","広域避難所種別":"TRUE","一時避難所種別":"TRUE","津波災害種別":"FALSE","風水害種別":"FALSE","地震種別":"TRUE","避難所の備蓄品":0,"収容可能人数":"1,260","避難所、避難場所情報":"屋外、トイレ"}},{"type":"Feature","geometry":{"type":"Point","coordinates":[140.444864,39.395117]},"properties":{"name":"板井田農村公園","フリガナ":"イタイダノウソンコウエン","郵便番号":"013-0501","address":"秋田県横手市大森町板井田字沖田24","tel":"-","広域避難所種別":"TRUE","一時避難所種別":"TRUE","津波災害種別":"FALSE","風水害種別":"FALSE","地震種別":"TRUE","避難所の備蓄品":0,"収容可能人数":"1,806","避難所、避難場所情報":"屋外、トイレ"}},{"type":"Feature","geometry":{"type":"Point","coordinates":[140.5230312,39.2253631]},"properties":{"name":"十文字第一小学校","フリガナ":"ジュウモンジダイイチショウガッコウ","郵便番号":"019-0500","address":"秋田県横手市十文字町字十文字48","tel":"0182-42-1020","広域避難所種別":"TRUE","一時避難所種別":"TRUE","津波災害種別":"FALSE","風水害種別":"TRUE","地震種別":"TRUE","避難所の備蓄品":0,"収容可能人数":"8,027","避難所、避難場所情報":"屋内・屋外、トイレ・給食設備・冷暖房"}},{"type":"Feature","geometry":{"type":"Point","coordinates":[140.5202891,39.2414614]},"properties":{"name":"十文字中学校","フリガナ":"ジュウモンジチュウガッコウ","郵便番号":"019-0508","address":"秋田県横手市十文字町十五野新田字梨木境134-1","tel":"0182-42-1030","広域避難所種別":"TRUE","一時避難所種別":"TRUE","津波災害種別":"FALSE","風水害種別":"TRUE","地震種別":"TRUE","避難所の備蓄品":0,"収容可能人数":"17,657","避難所、避難場所情報":"屋内・屋外、トイレ・給食設備・冷暖房"}},{"type":"Feature","geometry":{"type":"Point","coordinates":[140.5276888,39.2333985]},"properties":{"name":"十文字保育所","フリガナ":"ジュウモンジホイクショ","郵便番号":"019-0509","address":"秋田県横手市十文字町梨木字羽場下10-113","tel":"0182-42-1055","広域避難所種別":"TRUE","一時避難所種別":"TRUE","津波災害種別":"FALSE","風水害種別":"TRUE","地震種別":"TRUE","避難所の備蓄品":0,"収容可能人数":"1,797","避難所、避難場所情報":"屋内・屋外、トイレ・給食設備・冷暖房"}},{"type":"Feature","geometry":{"type":"Point","coordinates":[140.5135235,39.2308871]},"properties":{"name":"十文字第二小学校","フリガナ":"ジュウモンジダイニショウガッコウ","郵便番号":"019-0508","address":"秋田県横手市十文字町十五野新田字増田道東19","tel":"0182-42-1025","広域避難所種別":"TRUE","一時避難所種別":"TRUE","津波災害種別":"FALSE","風水害種別":"TRUE","地震種別":"TRUE","避難所の備蓄品":0,"収容可能人数":"4,792","避難所、避難場所情報":"屋内・屋外、トイレ・給食設備・冷暖房"}},{"type":"Feature","geometry":{"type":"Point","coordinates":[140.5146817,39.2313011]},"properties":{"name":"三重保育所","フリガナ":"ミエホイクショ","郵便番号":"019-0508","address":"秋田県横手市十文字町十五野新田字増田道東93-4","tel":"0182-42-1005","広域避難所種別":"TRUE","一時避難所種別":"TRUE","津波災害種別":"FALSE","風水害種別":"TRUE","地震種別":"TRUE","避難所の備蓄品":0,"収容可能人数":"660","避難所、避難場所情報":"屋内・屋外、トイレ・給食設備・冷暖房"}},{"type":"Feature","geometry":{"type":"Point","coordinates":[140.4731587,39.2356264]},"properties":{"name":"植田小学校","フリガナ":"ウエダショウガッコウ","郵便番号":"019-0513","address":"秋田県横手市十文字町植田字忍ﾉ沢14-4","tel":"0182-44-3321","広域避難所種別":"TRUE","一時避難所種別":"TRUE","津波災害種別":"FALSE","風水害種別":"TRUE","地震種別":"TRUE","避難所の備蓄品":0,"収容可能人数":"5,176","避難所、避難場所情報":"屋内・屋外、トイレ・給食設備・冷暖房"}},{"type":"Feature","geometry":{"type":"Point","coordinates":[140.4631711,39.2274993]},"properties":{"name":"十文字西スポーツ交流センター","フリガナ":"ジュウモンジニシスポーツコウリュウセンター","郵便番号":"019-0513","address":"秋田県横手市十文字町植田字一ﾄ市127","tel":"-","広域避難所種別":"TRUE","一時避難所種別":"TRUE","津波災害種別":"FALSE","風水害種別":"TRUE","地震種別":"TRUE","避難所の備蓄品":0,"収容可能人数":"8,433","避難所、避難場所情報":"屋内・屋外、トイレ・給食設備・冷暖房"}},{"type":"Feature","geometry":{"type":"Point","coordinates":[140.4744697,39.2322935]},"properties":{"name":"植田保育所","フリガナ":"ウエダホイクショ","郵便番号":"019-0513","address":"秋田県横手市十文字町植田字大清水105-5","tel":"0182-44-3053","広域避難所種別":"TRUE","一時避難所種別":"TRUE","津波災害種別":"FALSE","風水害種別":"TRUE","地震種別":"TRUE","避難所の備蓄品":0,"収容可能人数":"1,677","避難所、避難場所情報":"屋内・屋外、トイレ・給食設備・冷暖房"}},{"type":"Feature","geometry":{"type":"Point","coordinates":[140.4606186,39.2268465]},"properties":{"name":"十文字西地区館","フリガナ":"ジュウモンジニシチクカン","郵便番号":"019-0513","address":"秋田県横手市十文字町植田字一ﾄ市330","tel":"0182-44-3100","広域避難所種別":"TRUE","一時避難所種別":"TRUE","津波災害種別":"FALSE","風水害種別":"TRUE","地震種別":"TRUE","避難所の備蓄品":0,"収容可能人数":"3,292","避難所、避難場所情報":"屋内・屋外、トイレ・給食設備・冷暖房・障がい者用トイレ"}},{"type":"Feature","geometry":{"type":"Point","coordinates":[140.4475699,39.2302207]},"properties":{"name":"睦合小学校","フリガナ":"ムツアイショウガッコウ","郵便番号":"019-0514","address":"秋田県横手市十文字町睦合字宿屋布36","tel":"0182-44-3322","広域避難所種別":"TRUE","一時避難所種別":"TRUE","津波災害種別":"FALSE","風水害種別":"TRUE","地震種別":"TRUE","避難所の備蓄品":0,"収容可能人数":"3,992","避難所、避難場所情報":"屋内・屋外、トイレ・給食設備・冷暖房"}},{"type":"Feature","geometry":{"type":"Point","coordinates":[140.4486809,39.2311456]},"properties":{"name":"睦合保育所","フリガナ":"ムツアイホイクショ","郵便番号":"019-0514","address":"秋田県横手市十文字町睦合字川井川3","tel":"0182-44-3052","広域避難所種別":"TRUE","一時避難所種別":"TRUE","津波災害種別":"FALSE","風水害種別":"TRUE","地震種別":"TRUE","避難所の備蓄品":0,"収容可能人数":"1,061","避難所、避難場所情報":"屋内・屋外、トイレ・給食設備・冷暖房"}},{"type":"Feature","geometry":{"type":"Point","coordinates":[140.4729312,39.218059]},"properties":{"name":"十文字防災センター","フリガナ":"ジュウモンジボウサイセンター","郵便番号":"019-0513","address":"秋田県横手市十文字町植田字古川端111-2","tel":"-","広域避難所種別":"TRUE","一時避難所種別":"TRUE","津波災害種別":"FALSE","風水害種別":"TRUE","地震種別":"TRUE","避難所の備蓄品":0,"収容可能人数":"148","避難所、避難場所情報":"屋内、トイレ・シャワー・冷暖房・障がい者用トイレ"}},{"type":"Feature","geometry":{"type":"Point","coordinates":[140.5300082,39.2302516]},"properties":{"name":"梨木公園","フリガナ":"ナシノキコウエン","郵便番号":"019-0502","address":"秋田県横手市十文字町西原二番町54","tel":"-","広域避難所種別":"TRUE","一時避難所種別":"TRUE","津波災害種別":"FALSE","風水害種別":"FALSE","地震種別":"TRUE","避難所の備蓄品":0,"収容可能人数":"9,528","避難所、避難場所情報":"屋外、トイレ"}},{"type":"Feature","geometry":{"type":"Point","coordinates":[140.528281,39.2263532]},"properties":{"name":"西原児童公園","フリガナ":"ニシハラジドウコウエン","郵便番号":"019-0502","address":"秋田県横手市十文字町西原二番町55","tel":"-","広域避難所種別":"TRUE","一時避難所種別":"TRUE","津波災害種別":"FALSE","風水害種別":"FALSE","地震種別":"TRUE","避難所の備蓄品":0,"収容可能人数":"800","避難所、避難場所情報":"屋外、トイレ"}},{"type":"Feature","geometry":{"type":"Point","coordinates":[140.482412,39.2200317]},"properties":{"name":"海蔵院農村公園","フリガナ":"カイゾウインノウソンコウエン","郵便番号":"019-0511","address":"秋田県横手市十文字町鼎字海蔵院34-1","tel":"-","広域避難所種別":"TRUE","一時避難所種別":"TRUE","津波災害種別":"FALSE","風水害種別":"FALSE","地震種別":"TRUE","避難所の備蓄品":0,"収容可能人数":"1,500","避難所、避難場所情報":"屋外、トイレ"}},{"type":"Feature","geometry":{"type":"Point","coordinates":[140.4898574,39.2132379]},"properties":{"name":"柳原農村公園","フリガナ":"ヤナギハラノウソンコウエン","郵便番号":"019-0511","address":"秋田県横手市十文字町鼎字中川原10","tel":"-","広域避難所種別":"TRUE","一時避難所種別":"TRUE","津波災害種別":"FALSE","風水害種別":"FALSE","地震種別":"TRUE","避難所の備蓄品":0,"収容可能人数":"522","避難所、避難場所情報":"屋外"}},{"type":"Feature","geometry":{"type":"Point","coordinates":[140.497686,39.2338724]},"properties":{"name":"能平喜農村公園","フリガナ":"ノウビラキノウソンコウエン","郵便番号":"019-0511","address":"秋田県横手市十文字町鼎字能平喜160","tel":"-","広域避難所種別":"TRUE","一時避難所種別":"TRUE","津波災害種別":"FALSE","風水害種別":"FALSE","地震種別":"TRUE","避難所の備蓄品":0,"収容可能人数":"1,500","避難所、避難場所情報":"屋外、トイレ"}},{"type":"Feature","geometry":{"type":"Point","coordinates":[140.534235,39.2245149]},"properties":{"name":"腕越児童公園","フリガナ":"ウデコシジドウコウエン","郵便番号":"019-0501","address":"秋田県横手市十文字町腕越字山道端105-2","tel":"-","広域避難所種別":"TRUE","一時避難所種別":"TRUE","津波災害種別":"FALSE","風水害種別":"FALSE","地震種別":"TRUE","避難所の備蓄品":0,"収容可能人数":"753","避難所、避難場所情報":"屋外、トイレ"}},{"type":"Feature","geometry":{"type":"Point","coordinates":[140.529352,39.2323844]},"properties":{"name":"中央団地児童公園","フリガナ":"チュウオウダンチジドウコウエン","郵便番号":"019-0509","address":"秋田県横手市十文字町梨木字羽場下10-24","tel":"-","広域避難所種別":"TRUE","一時避難所種別":"TRUE","津波災害種別":"FALSE","風水害種別":"FALSE","地震種別":"TRUE","避難所の備蓄品":0,"収容可能人数":"994","避難所、避難場所情報":"屋外、トイレ"}},{"type":"Feature","geometry":{"type":"Point","coordinates":[140.442052,39.2385871]},"properties":{"name":"睦合農村公園","フリガナ":"ムツアイノウソンコウエン","郵便番号":"019-0514","address":"秋田県横手市十文字町睦合字乱場115-1","tel":"-","広域避難所種別":"TRUE","一時避難所種別":"TRUE","津波災害種別":"FALSE","風水害種別":"FALSE","地震種別":"TRUE","避難所の備蓄品":0,"収容可能人数":"1,077","避難所、避難場所情報":"屋外、トイレ"}},{"type":"Feature","geometry":{"type":"Point","coordinates":[140.518462,39.2362211]},"properties":{"name":"十文字陸上競技場","フリガナ":"ジュウモンジリクジョウキョウギジョウ","郵便番号":"019-0508","address":"秋田県横手市十文字町十五野新田字坊主沢20-1","tel":"-","広域避難所種別":"TRUE","一時避難所種別":"TRUE","津波災害種別":"FALSE","風水害種別":"TRUE","地震種別":"TRUE","避難所の備蓄品":0,"収容可能人数":"10,900","避難所、避難場所情報":"屋内・屋外、トイレ・障がい者用トイレ"}},{"type":"Feature","geometry":{"type":"Point","coordinates":[140.5214896,39.2261241]},"properties":{"name":"道の駅十文字","フリガナ":"ミチノエキジュウモンジ","郵便番号":"019-0529","address":"秋田県横手市十文字町字海道下21-4","tel":"0182-23-9320","広域避難所種別":"TRUE","一時避難所種別":"TRUE","津波災害種別":"FALSE","風水害種別":"TRUE","地震種別":"TRUE","避難所の備蓄品":0,"収容可能人数":"7,541","避難所、避難場所情報":"屋内・屋外、トイレ・給食設備・冷暖房・障がい者用トイレ"}},{"type":"Feature","geometry":{"type":"Point","coordinates":[140.6230026,39.2850898]},"properties":{"name":"山内小学校","フリガナ":"サンナイショウガッコウ","郵便番号":"019-1108","address":"秋田県横手市山内土渕字菅生37-1","tel":"0182-53-2207","広域避難所種別":"TRUE","一時避難所種別":"TRUE","津波災害種別":"FALSE","風水害種別":"TRUE","地震種別":"TRUE","避難所の備蓄品":0,"収容可能人数":"12,667","避難所、避難場所情報":"屋内・屋外、トイレ・給食設備・冷暖房"}},{"type":"Feature","geometry":{"type":"Point","coordinates":[140.6167678,39.2794764]},"properties":{"name":"山内中学校","フリガナ":"サンナイチュウガッコウ","郵便番号":"019-1108","address":"秋田県横手市山内土渕字鶴ヶ池17-2","tel":"0182-53-2208","広域避難所種別":"TRUE","一時避難所種別":"TRUE","津波災害種別":"FALSE","風水害種別":"TRUE","地震種別":"TRUE","避難所の備蓄品":0,"収容可能人数":"11,043","避難所、避難場所情報":"屋内・屋外、トイレ・給食設備・冷暖房"}},{"type":"Feature","geometry":{"type":"Point","coordinates":[140.6206395,39.2776934]},"properties":{"name":"山内公民館","フリガナ":"サンナイコウミンカン","郵便番号":"019-1108","address":"秋田県横手市山内土渕字二瀬8-1","tel":"0182-53-2187","広域避難所種別":"TRUE","一時避難所種別":"TRUE","津波災害種別":"FALSE","風水害種別":"TRUE","地震種別":"TRUE","避難所の備蓄品":0,"収容可能人数":"476","避難所、避難場所情報":"屋内、トイレ・給食設備・冷暖房"}},{"type":"Feature","geometry":{"type":"Point","coordinates":[140.616374,39.2428865]},"properties":{"name":"山内公民館吉谷地分館","フリガナ":"サンナイコウミンカンヨシヤチブンカン","郵便番号":"019-1106","address":"秋田県横手市山内平野沢字蕨台5","tel":"0182-53-2187","広域避難所種別":"TRUE","一時避難所種別":"TRUE","津波災害種別":"FALSE","風水害種別":"TRUE","地震種別":"TRUE","避難所の備蓄品":0,"収容可能人数":"109","避難所、避難場所情報":"屋内、トイレ・冷暖房"}},{"type":"Feature","geometry":{"type":"Point","coordinates":[140.6511783,39.263657]},"properties":{"name":"山内公民館筏分館","フリガナ":"サンナイコウミンカンイカダブンカン","郵便番号":"019-1107","address":"秋田県横手市山内筏字久保5","tel":"0182-53-2187","広域避難所種別":"TRUE","一時避難所種別":"TRUE","津波災害種別":"FALSE","風水害種別":"TRUE","地震種別":"TRUE","避難所の備蓄品":0,"収容可能人数":"107","避難所、避難場所情報":"屋内、トイレ・冷暖房"}},{"type":"Feature","geometry":{"type":"Point","coordinates":[140.7063115,39.2110808]},"properties":{"name":"山内三又コミュニティセンター","フリガナ":"サンナイミツマタコミュニティセンター","郵便番号":"019-1104","address":"秋田県横手市山内三又字堂林72","tel":"0182-53-5877","広域避難所種別":"TRUE","一時避難所種別":"TRUE","津波災害種別":"FALSE","風水害種別":"TRUE","地震種別":"TRUE","避難所の備蓄品":0,"収容可能人数":"1,607","避難所、避難場所情報":"屋内・屋外、トイレ・給食設備"}},{"type":"Feature","geometry":{"type":"Point","coordinates":[140.6903295,39.2465038]},"properties":{"name":"山内学習交流センター","フリガナ":"サンナイガクシュウコウリュウセンター","郵便番号":"019-1105","address":"秋田県横手市山内南郷字赤渕30","tel":"0182-53-2187","広域避難所種別":"TRUE","一時避難所種別":"TRUE","津波災害種別":"FALSE","風水害種別":"TRUE","地震種別":"TRUE","避難所の備蓄品":0,"収容可能人数":"319","避難所、避難場所情報":"屋内、トイレ・給食設備・冷暖房"}},{"type":"Feature","geometry":{"type":"Point","coordinates":[140.6217092,39.2717414]},"properties":{"name":"山内体育館","フリガナ":"サンナイタイイクカン","郵便番号":"019-1106","address":"秋田県横手市山内平野沢字南相野々42-1","tel":"0182-53-2188","広域避難所種別":"TRUE","一時避難所種別":"TRUE","津波災害種別":"FALSE","風水害種別":"TRUE","地震種別":"TRUE","避難所の備蓄品":0,"収容可能人数":"799","避難所、避難場所情報":"屋内、トイレ・シャワー・冷暖房・障がい者用トイレ"}},{"type":"Feature","geometry":{"type":"Point","coordinates":[140.6218334,39.2833511]},"properties":{"name":"さんない保育園","フリガナ":"サンナイホイクエン","郵便番号":"019-1108","address":"秋田県横手市山内土渕字菅生37-7","tel":"0182-53-2172","広域避難所種別":"TRUE","一時避難所種別":"TRUE","津波災害種別":"FALSE","風水害種別":"TRUE","地震種別":"TRUE","避難所の備蓄品":0,"収容可能人数":"800","避難所、避難場所情報":"屋内・屋外、トイレ・給食設備"}},{"type":"Feature","geometry":{"type":"Point","coordinates":[140.621503,39.2822401]},"properties":{"name":"山内ほっとパレス「ゆうらく館」","フリガナ":"サンナイホットパレス「ユウラクカン」","郵便番号":"019-1108","address":"秋田県横手市山内土渕字鶴ヶ池31-3","tel":"0182-53-3009","広域避難所種別":"TRUE","一時避難所種別":"TRUE","津波災害種別":"FALSE","風水害種別":"TRUE","地震種別":"TRUE","避難所の備蓄品":0,"収容可能人数":"1,391","避難所、避難場所情報":"屋内・屋外、トイレ・シャワー・給食設備"}},{"type":"Feature","geometry":{"type":"Point","coordinates":[140.6155067,39.2829871]},"properties":{"name":"総合交流施設ふれあい館","フリガナ":"ソウゴウコウリュウシセツフレアイカン","郵便番号":"019-1108","address":"秋田県横手市山内土渕字道地59-12","tel":"0182-53-2220","広域避難所種別":"TRUE","一時避難所種別":"TRUE","津波災害種別":"FALSE","風水害種別":"TRUE","地震種別":"TRUE","避難所の備蓄品":0,"収容可能人数":"618","避難所、避難場所情報":"屋内・屋外、トイレ・給食設備"}},{"type":"Feature","geometry":{"type":"Point","coordinates":[140.708226,39.2722374]},"properties":{"name":"旧黒沢小学校グラウンド","フリガナ":"キュウクロサワショウガッコウグラウンド","郵便番号":"019-1103","address":"秋田県横手市山内黒沢字田代沢口4-1","tel":"-","広域避難所種別":"TRUE","一時避難所種別":"TRUE","津波災害種別":"FALSE","風水害種別":"FALSE","地震種別":"TRUE","避難所の備蓄品":0,"収容可能人数":"3,500","避難所、避難場所情報":"屋外、冷暖房"}},{"type":"Feature","geometry":{"type":"Point","coordinates":[140.6320452,39.2979469]},"properties":{"name":"旧松川小学校グラウンド","フリガナ":"キュウマツカワショウガッコウグラウンド","郵便番号":"019-1101","address":"秋田県横手市山内大松川字上台140","tel":"-","広域避難所種別":"TRUE","一時避難所種別":"TRUE","津波災害種別":"FALSE","風水害種別":"FALSE","地震種別":"TRUE","避難所の備蓄品":0,"収容可能人数":"600","避難所、避難場所情報":"屋外"}},{"type":"Feature","geometry":{"type":"Point","coordinates":[140.62034,39.280832]},"properties":{"name":"鶴ヶ池公園","フリガナ":"ツルガイケコウエン","郵便番号":"019-1108","address":"秋田県横手市山内土渕字鶴ヶ池地内1-1","tel":"-","広域避難所種別":"TRUE","一時避難所種別":"TRUE","津波災害種別":"FALSE","風水害種別":"FALSE","地震種別":"TRUE","避難所の備蓄品":0,"収容可能人数":"2,450","避難所、避難場所情報":"屋外、トイレ"}},{"type":"Feature","geometry":{"type":"Point","coordinates":[140.634069,39.26707]},"properties":{"name":"山内陸上競技場、野球場","フリガナ":"サンナイリクジョウキョウギジョウ、ヤキュウジョウ","郵便番号":"019-1107","address":"秋田県横手市山内筏字力石126-3","tel":"0182-53-2240","広域避難所種別":"TRUE","一時避難所種別":"TRUE","津波災害種別":"FALSE","風水害種別":"FALSE","地震種別":"TRUE","避難所の備蓄品":0,"収容可能人数":"6,400","避難所、避難場所情報":"屋外、トイレ"}},{"type":"Feature","geometry":{"type":"Point","coordinates":[140.6257465,39.2891533]},"properties":{"name":"道の駅さんない","フリガナ":"ミチノエキサンナイ","郵便番号":"019-1108","address":"秋田県横手市山内土渕字小目倉沢34","tel":"0182-56-1600","広域避難所種別":"TRUE","一時避難所種別":"TRUE","津波災害種別":"FALSE","風水害種別":"TRUE","地震種別":"TRUE","避難所の備蓄品":0,"収容可能人数":"1,184","避難所、避難場所情報":"屋内・屋外、トイレ・給食設備・冷暖房"}},{"type":"Feature","geometry":{"type":"Point","coordinates":[140.4823047,39.3306662]},"properties":{"name":"田根森小学校","フリガナ":"タネモリショウガッコウ","郵便番号":"013-0401","address":"秋田県横手市大雄字田根森50","tel":"0182-52-3105","広域避難所種別":"TRUE","一時避難所種別":"TRUE","津波災害種別":"FALSE","風水害種別":"TRUE","地震種別":"TRUE","避難所の備蓄品":0,"収容可能人数":"8,085","避難所、避難場所情報":"屋内・屋外、トイレ・給食設備・冷暖房"}},{"type":"Feature","geometry":{"type":"Point","coordinates":[140.4725447,39.332413]},"properties":{"name":"旧大雄中学校","フリガナ":"キュウタイユウチュウガッコウ","郵便番号":"013-0354","address":"秋田県横手市大雄字狐塚262","tel":"-","広域避難所種別":"TRUE","一時避難所種別":"TRUE","津波災害種別":"FALSE","風水害種別":"TRUE","地震種別":"TRUE","避難所の備蓄品":0,"収容可能人数":"9,054","避難所、避難場所情報":"屋内・屋外、トイレ・給食設備・冷暖房"}},{"type":"Feature","geometry":{"type":"Point","coordinates":[140.452916,39.3434581]},"properties":{"name":"阿気小学校","フリガナ":"アゲショウガッコウ","郵便番号":"013-0426","address":"秋田県横手市大雄字木戸口22","tel":"0182-52-2105","広域避難所種別":"TRUE","一時避難所種別":"TRUE","津波災害種別":"FALSE","風水害種別":"TRUE","地震種別":"TRUE","避難所の備蓄品":0,"収容可能人数":"4,355","避難所、避難場所情報":"屋内・屋外、トイレ・給食設備・冷暖房"}},{"type":"Feature","geometry":{"type":"Point","coordinates":[140.4524828,39.3427415]},"properties":{"name":"大雄子どもセンター","フリガナ":"タイユウコドモセンター","郵便番号":"013-0426","address":"秋田県横手市大雄字木戸口42-1","tel":"0182-52-3116","広域避難所種別":"TRUE","一時避難所種別":"TRUE","津波災害種別":"FALSE","風水害種別":"TRUE","地震種別":"TRUE","避難所の備蓄品":0,"収容可能人数":"217","避難所、避難場所情報":"屋内、トイレ・シャワー・給食設備"}},{"type":"Feature","geometry":{"type":"Point","coordinates":[140.475509,39.3343333]},"properties":{"name":"大雄交流研修館（ふれあいホール）","フリガナ":"タイユウコウリュウケンシュウカン（フレアイホール）","郵便番号":"013-0347","address":"秋田県横手市大雄字本庄道下10","tel":"-","広域避難所種別":"TRUE","一時避難所種別":"TRUE","津波災害種別":"FALSE","風水害種別":"TRUE","地震種別":"TRUE","避難所の備蓄品":0,"収容可能人数":"317","避難所、避難場所情報":"屋内、トイレ・給食設備・冷暖房・障がい者用トイレ"}},{"type":"Feature","geometry":{"type":"Point","coordinates":[140.4746277,39.3364264]},"properties":{"name":"大雄地域福祉センター（ふれあい館）","フリガナ":"タイユウチイキフクシセンター（フレアイカン）","郵便番号":"013-0452","address":"秋田県横手市大雄字大関310","tel":"0182-52-3311","広域避難所種別":"TRUE","一時避難所種別":"TRUE","津波災害種別":"FALSE","風水害種別":"TRUE","地震種別":"TRUE","避難所の備蓄品":0,"収容可能人数":"640","避難所、避難場所情報":"屋内、トイレ・シャワー・給食設備・障がい者用トイレ"}},{"type":"Feature","geometry":{"type":"Point","coordinates":[140.4679953,39.333235]},"properties":{"name":"大雄農業者トレーニングセンター","フリガナ":"タイユウノウギョウシャトレーニングセンター","郵便番号":"013-0464","address":"秋田県横手市大雄字石持前34","tel":"0182-52-2106","広域避難所種別":"TRUE","一時避難所種別":"TRUE","津波災害種別":"FALSE","風水害種別":"TRUE","地震種別":"TRUE","避難所の備蓄品":0,"収容可能人数":"890","避難所、避難場所情報":"屋内、トイレ・冷暖房"}},{"type":"Feature","geometry":{"type":"Point","coordinates":[140.4755235,39.3577732]},"properties":{"name":"たいゆう保育園","フリガナ":"タイユウホイクエン","郵便番号":"013-0306","address":"秋田県横手市大雄字田村45-1","tel":"0182-56-5060","広域避難所種別":"TRUE","一時避難所種別":"TRUE","津波災害種別":"FALSE","風水害種別":"TRUE","地震種別":"TRUE","避難所の備蓄品":0,"収容可能人数":"3,375","避難所、避難場所情報":"屋内・屋外、トイレ・給食設備・冷暖房"}},{"type":"Feature","geometry":{"type":"Point","coordinates":[140.4755637,39.3362709]},"properties":{"name":"大雄運動公園","フリガナ":"タイユウウンドウコウエン","郵便番号":"013-0347","address":"秋田県横手市大雄字本庄道下20","tel":"0182-52-3801","広域避難所種別":"TRUE","一時避難所種別":"TRUE","津波災害種別":"FALSE","風水害種別":"TRUE","地震種別":"TRUE","避難所の備蓄品":0,"収容可能人数":"7,144","避難所、避難場所情報":"屋内・屋外、トイレ・シャワー・障がい者用トイレ"}},{"type":"Feature","geometry":{"type":"Point","coordinates":[140.4438951,39.3387807]},"properties":{"name":"横手明峰中学校","フリガナ":"ヨコテメイホウチュウガッコウ","郵便番号":"013-0415","address":"秋田県横手市大雄字藤巻西10","tel":"0182-38-8500","広域避難所種別":"TRUE","一時避難所種別":"TRUE","津波災害種別":"FALSE","風水害種別":"TRUE","地震種別":"TRUE","避難所の備蓄品":0,"収容可能人数":"25,237","避難所、避難場所情報":"屋内・屋外、トイレ・冷暖房・障がい者用トイレ"}}]}